{"type": "FeatureCollection", "features": [{"geometry": {"type": "Point", "coordinates": [-96.94, 41.33]}, "type": "Feature", "id": "68001", "properties": {"other_cities": "", "city": "Abie", "state": "NE", "county": "Butler County"}}, {"geometry": {"type": "Point", "coordinates": [-96.35, 41.45]}, "type": "Feature", "id": "68002", "properties": {"other_cities": "", "city": "Arlington", "state": "NE", "county": "Washington County"}}, {"geometry": {"type": "Point", "coordinates": [-96.37, 41.04]}, "type": "Feature", "id": "68003", "properties": {"other_cities": "", "city": "Ashland", "state": "NE", "county": "Saunders County"}}, {"geometry": {"type": "Point", "coordinates": [-96.57, 42.01]}, "type": "Feature", "id": "68004", "properties": {"other_cities": "", "city": "Bancroft", "state": "NE", "county": "Cuming County"}}, {"geometry": {"type": "Point", "coordinates": [-95.92, 41.15]}, "type": "Feature", "id": "68005", "properties": {"other_cities": "", "city": "Bellevue", "state": "NE", "county": "Sarpy County"}}, {"geometry": {"type": "Point", "coordinates": [-96.15, 41.36]}, "type": "Feature", "id": "68007", "properties": {"other_cities": "", "city": "Bennington", "state": "NE", "county": "Douglas County"}}, {"geometry": {"type": "Point", "coordinates": [-96.13, 41.54]}, "type": "Feature", "id": "68008", "properties": {"other_cities": "", "city": "Blair", "state": "NE", "county": "Washington County"}}, {"geometry": {"type": "Point", "coordinates": [-96.13, 41.54]}, "type": "Feature", "id": "68009", "properties": {"other_cities": "", "city": "Blair", "state": "NE", "county": "Washington County"}}, {"geometry": {"type": "Point", "coordinates": [-96.13, 41.25]}, "type": "Feature", "id": "68010", "properties": {"other_cities": "Boystown", "city": "Boys Town", "state": "NE", "county": "Douglas County"}}, {"geometry": {"type": "Point", "coordinates": [-96.96, 41.28]}, "type": "Feature", "id": "68014", "properties": {"other_cities": "", "city": "Bruno", "state": "NE", "county": "Butler County"}}, {"geometry": {"type": "Point", "coordinates": [-96.6, 41.39]}, "type": "Feature", "id": "68015", "properties": {"other_cities": "", "city": "Cedar Bluffs", "state": "NE", "county": "Saunders County"}}, {"geometry": {"type": "Point", "coordinates": [-96.09, 41.04]}, "type": "Feature", "id": "68016", "properties": {"other_cities": "", "city": "Cedar Creek", "state": "NE", "county": "Cass County"}}, {"geometry": {"type": "Point", "coordinates": [-96.64, 41.05]}, "type": "Feature", "id": "68017", "properties": {"other_cities": "", "city": "Ceresco", "state": "NE", "county": "Saunders County"}}, {"geometry": {"type": "Point", "coordinates": [-96.6, 41.29]}, "type": "Feature", "id": "68018", "properties": {"other_cities": "", "city": "Colon", "state": "NE", "county": "Saunders County"}}, {"geometry": {"type": "Point", "coordinates": [-96.36, 41.78]}, "type": "Feature", "id": "68019", "properties": {"other_cities": "", "city": "Craig", "state": "NE", "county": "Burt County"}}, {"geometry": {"type": "Point", "coordinates": [-96.25, 42.0]}, "type": "Feature", "id": "68020", "properties": {"other_cities": "", "city": "Decatur", "state": "NE", "county": "Burt County"}}, {"geometry": {"type": "Point", "coordinates": [-96.23, 41.28]}, "type": "Feature", "id": "68022", "properties": {"other_cities": "", "city": "Elkhorn", "state": "NE", "county": "Douglas County"}}, {"geometry": {"type": "Point", "coordinates": [-96.02, 41.45]}, "type": "Feature", "id": "68023", "properties": {"other_cities": "", "city": "Fort Calhoun", "state": "NE", "county": "Washington County"}}, {"geometry": {"type": "Point", "coordinates": [-96.49, 41.44]}, "type": "Feature", "id": "68025", "properties": {"other_cities": "Inglewood", "city": "Fremont", "state": "NE", "county": "Dodge County"}}, {"geometry": {"type": "Point", "coordinates": [-96.49, 41.44]}, "type": "Feature", "id": "68026", "properties": {"other_cities": "", "city": "Fremont", "state": "NE", "county": "Dodge County"}}, {"geometry": {"type": "Point", "coordinates": [-96.24, 41.14]}, "type": "Feature", "id": "68028", "properties": {"other_cities": "", "city": "Gretna", "state": "NE", "county": "Sarpy County"}}, {"geometry": {"type": "Point", "coordinates": [-96.21, 41.67]}, "type": "Feature", "id": "68029", "properties": {"other_cities": "", "city": "Herman", "state": "NE", "county": "Washington County"}}, {"geometry": {"type": "Point", "coordinates": [-96.49, 42.32]}, "type": "Feature", "id": "68030", "properties": {"other_cities": "", "city": "Homer", "state": "NE", "county": "Dakota County"}}, {"geometry": {"type": "Point", "coordinates": [-96.54, 41.61]}, "type": "Feature", "id": "68031", "properties": {"other_cities": "", "city": "Hooper", "state": "NE", "county": "Dodge County"}}, {"geometry": {"type": "Point", "coordinates": [-96.53, 41.16]}, "type": "Feature", "id": "68033", "properties": {"other_cities": "", "city": "Ithaca", "state": "NE", "county": "Saunders County"}}, {"geometry": {"type": "Point", "coordinates": [-96.2, 41.47]}, "type": "Feature", "id": "68034", "properties": {"other_cities": "", "city": "Kennard", "state": "NE", "county": "Washington County"}}, {"geometry": {"type": "Point", "coordinates": [-96.93, 41.41]}, "type": "Feature", "id": "68036", "properties": {"other_cities": "", "city": "Linwood", "state": "NE", "county": "Butler County"}}, {"geometry": {"type": "Point", "coordinates": [-96.16, 40.99]}, "type": "Feature", "id": "68037", "properties": {"other_cities": "", "city": "Louisville", "state": "NE", "county": "Cass County"}}, {"geometry": {"type": "Point", "coordinates": [-96.47, 41.93]}, "type": "Feature", "id": "68038", "properties": {"other_cities": "", "city": "Lyons", "state": "NE", "county": "Burt County"}}, {"geometry": {"type": "Point", "coordinates": [-96.36, 42.11]}, "type": "Feature", "id": "68039", "properties": {"other_cities": "", "city": "Macy", "state": "NE", "county": "Thurston County"}}, {"geometry": {"type": "Point", "coordinates": [-96.72, 41.26]}, "type": "Feature", "id": "68040", "properties": {"other_cities": "", "city": "Malmo", "state": "NE", "county": "Saunders County"}}, {"geometry": {"type": "Point", "coordinates": [-96.48, 41.22]}, "type": "Feature", "id": "68041", "properties": {"other_cities": "", "city": "Mead", "state": "NE", "county": "Saunders County"}}, {"geometry": {"type": "Point", "coordinates": [-96.43, 41.09]}, "type": "Feature", "id": "68042", "properties": {"other_cities": "", "city": "Memphis", "state": "NE", "county": "Saunders County"}}, {"geometry": {"type": "Point", "coordinates": [-96.47, 41.53]}, "type": "Feature", "id": "68044", "properties": {"other_cities": "Fontanelle", "city": "Nickerson", "state": "NE", "county": "Dodge County"}}, {"geometry": {"type": "Point", "coordinates": [-96.46, 41.83]}, "type": "Feature", "id": "68045", "properties": {"other_cities": "", "city": "Oakland", "state": "NE", "county": "Burt County"}}, {"geometry": {"type": "Point", "coordinates": [-96.04, 41.15]}, "type": "Feature", "id": "68046", "properties": {"other_cities": "", "city": "Papillion", "state": "NE", "county": "Sarpy County"}}, {"geometry": {"type": "Point", "coordinates": [-96.71, 42.11]}, "type": "Feature", "id": "68047", "properties": {"other_cities": "", "city": "Pender", "state": "NE", "county": "Thurston County"}}, {"geometry": {"type": "Point", "coordinates": [-95.89, 41.0]}, "type": "Feature", "id": "68048", "properties": {"other_cities": "", "city": "Plattsmouth", "state": "NE", "county": "Cass County"}}, {"geometry": {"type": "Point", "coordinates": [-96.8, 41.3]}, "type": "Feature", "id": "68050", "properties": {"other_cities": "", "city": "Prague", "state": "NE", "county": "Saunders County"}}, {"geometry": {"type": "Point", "coordinates": [-96.51, 42.05]}, "type": "Feature", "id": "68055", "properties": {"other_cities": "", "city": "Rosalie", "state": "NE", "county": "Thurston County"}}, {"geometry": {"type": "Point", "coordinates": [-96.05, 41.09]}, "type": "Feature", "id": "68056", "properties": {"other_cities": "", "city": "St Columbans", "state": "NE", "county": "Sarpy County"}}, {"geometry": {"type": "Point", "coordinates": [-96.66, 41.66]}, "type": "Feature", "id": "68057", "properties": {"other_cities": "", "city": "Scribner", "state": "NE", "county": "Dodge County"}}, {"geometry": {"type": "Point", "coordinates": [-96.24, 41.0]}, "type": "Feature", "id": "68058", "properties": {"other_cities": "", "city": "South Bend", "state": "NE", "county": "Cass County"}}, {"geometry": {"type": "Point", "coordinates": [-96.13, 41.08]}, "type": "Feature", "id": "68059", "properties": {"other_cities": "Richfield", "city": "Springfield", "state": "NE", "county": "Sarpy County"}}, {"geometry": {"type": "Point", "coordinates": [-96.22, 41.77]}, "type": "Feature", "id": "68061", "properties": {"other_cities": "", "city": "Tekamah", "state": "NE", "county": "Burt County"}}, {"geometry": {"type": "Point", "coordinates": [-96.69, 42.17]}, "type": "Feature", "id": "68062", "properties": {"other_cities": "", "city": "Thurston", "state": "NE", "county": "Thurston County"}}, {"geometry": {"type": "Point", "coordinates": [-96.5, 41.73]}, "type": "Feature", "id": "68063", "properties": {"other_cities": "", "city": "Uehling", "state": "NE", "county": "Dodge County"}}, {"geometry": {"type": "Point", "coordinates": [-96.34, 41.31]}, "type": "Feature", "id": "68064", "properties": {"other_cities": "Leshara", "city": "Valley", "state": "NE", "county": "Douglas County"}}, {"geometry": {"type": "Point", "coordinates": [-96.83, 41.07]}, "type": "Feature", "id": "68065", "properties": {"other_cities": "", "city": "Valparaiso", "state": "NE", "county": "Saunders County"}}, {"geometry": {"type": "Point", "coordinates": [-96.62, 41.21]}, "type": "Feature", "id": "68066", "properties": {"other_cities": "", "city": "Wahoo", "state": "NE", "county": "Saunders County"}}, {"geometry": {"type": "Point", "coordinates": [-96.49, 42.14]}, "type": "Feature", "id": "68067", "properties": {"other_cities": "", "city": "Walthill", "state": "NE", "county": "Thurston County"}}, {"geometry": {"type": "Point", "coordinates": [-96.2, 41.39]}, "type": "Feature", "id": "68068", "properties": {"other_cities": "", "city": "Washington", "state": "NE", "county": "Washington County"}}, {"geometry": {"type": "Point", "coordinates": [-96.28, 41.28]}, "type": "Feature", "id": "68069", "properties": {"other_cities": "", "city": "Waterloo", "state": "NE", "county": "Douglas County"}}, {"geometry": {"type": "Point", "coordinates": [-96.74, 41.19]}, "type": "Feature", "id": "68070", "properties": {"other_cities": "", "city": "Weston", "state": "NE", "county": "Saunders County"}}, {"geometry": {"type": "Point", "coordinates": [-96.47, 42.23]}, "type": "Feature", "id": "68071", "properties": {"other_cities": "", "city": "Winnebago", "state": "NE", "county": "Thurston County"}}, {"geometry": {"type": "Point", "coordinates": [-96.5, 41.6]}, "type": "Feature", "id": "68072", "properties": {"other_cities": "", "city": "Winslow", "state": "NE", "county": "Dodge County"}}, {"geometry": {"type": "Point", "coordinates": [-96.39, 41.24]}, "type": "Feature", "id": "68073", "properties": {"other_cities": "", "city": "Yutan", "state": "NE", "county": "Saunders County"}}, {"geometry": {"type": "Point", "coordinates": [-96.01, 41.26]}, "type": "Feature", "id": "68101", "properties": {"other_cities": "", "city": "Omaha", "state": "NE", "county": "Douglas County"}}, {"geometry": {"type": "Point", "coordinates": [-96.01, 41.26]}, "type": "Feature", "id": "68102", "properties": {"other_cities": "", "city": "Omaha", "state": "NE", "county": "Douglas County"}}, {"geometry": {"type": "Point", "coordinates": [-96.01, 41.26]}, "type": "Feature", "id": "68103", "properties": {"other_cities": "", "city": "Omaha", "state": "NE", "county": "Douglas County"}}, {"geometry": {"type": "Point", "coordinates": [-96.01, 41.26]}, "type": "Feature", "id": "68104", "properties": {"other_cities": "", "city": "Omaha", "state": "NE", "county": "Douglas County"}}, {"geometry": {"type": "Point", "coordinates": [-96.01, 41.26]}, "type": "Feature", "id": "68105", "properties": {"other_cities": "", "city": "Omaha", "state": "NE", "county": "Douglas County"}}, {"geometry": {"type": "Point", "coordinates": [-96.01, 41.26]}, "type": "Feature", "id": "68106", "properties": {"other_cities": "", "city": "Omaha", "state": "NE", "county": "Douglas County"}}, {"geometry": {"type": "Point", "coordinates": [-96.01, 41.26]}, "type": "Feature", "id": "68107", "properties": {"other_cities": "", "city": "Omaha", "state": "NE", "county": "Douglas County"}}, {"geometry": {"type": "Point", "coordinates": [-96.01, 41.26]}, "type": "Feature", "id": "68108", "properties": {"other_cities": "", "city": "Omaha", "state": "NE", "county": "Douglas County"}}, {"geometry": {"type": "Point", "coordinates": [-96.01, 41.26]}, "type": "Feature", "id": "68109", "properties": {"other_cities": "", "city": "Omaha", "state": "NE", "county": "Douglas County"}}, {"geometry": {"type": "Point", "coordinates": [-96.01, 41.26]}, "type": "Feature", "id": "68110", "properties": {"other_cities": "", "city": "Omaha", "state": "NE", "county": "Douglas County"}}, {"geometry": {"type": "Point", "coordinates": [-96.01, 41.26]}, "type": "Feature", "id": "68111", "properties": {"other_cities": "", "city": "Omaha", "state": "NE", "county": "Douglas County"}}, {"geometry": {"type": "Point", "coordinates": [-96.01, 41.26]}, "type": "Feature", "id": "68112", "properties": {"other_cities": "", "city": "Omaha", "state": "NE", "county": "Douglas County"}}, {"geometry": {"type": "Point", "coordinates": [-95.9, 41.11]}, "type": "Feature", "id": "68113", "properties": {"other_cities": "Offutt Afb, Omaha", "city": "Offutt A F B", "state": "NE", "county": "Sarpy County"}}, {"geometry": {"type": "Point", "coordinates": [-96.01, 41.26]}, "type": "Feature", "id": "68114", "properties": {"other_cities": "", "city": "Omaha", "state": "NE", "county": "Douglas County"}}, {"geometry": {"type": "Point", "coordinates": [-96.01, 41.26]}, "type": "Feature", "id": "68116", "properties": {"other_cities": "", "city": "Omaha", "state": "NE", "county": "Douglas County"}}, {"geometry": {"type": "Point", "coordinates": [-96.01, 41.26]}, "type": "Feature", "id": "68117", "properties": {"other_cities": "", "city": "Omaha", "state": "NE", "county": "Douglas County"}}, {"geometry": {"type": "Point", "coordinates": [-96.01, 41.26]}, "type": "Feature", "id": "68118", "properties": {"other_cities": "", "city": "Omaha", "state": "NE", "county": "Douglas County"}}, {"geometry": {"type": "Point", "coordinates": [-96.01, 41.26]}, "type": "Feature", "id": "68119", "properties": {"other_cities": "", "city": "Omaha", "state": "NE", "county": "Douglas County"}}, {"geometry": {"type": "Point", "coordinates": [-96.01, 41.26]}, "type": "Feature", "id": "68120", "properties": {"other_cities": "", "city": "Omaha", "state": "NE", "county": "Douglas County"}}, {"geometry": {"type": "Point", "coordinates": [-96.01, 41.26]}, "type": "Feature", "id": "68122", "properties": {"other_cities": "", "city": "Omaha", "state": "NE", "county": "Douglas County"}}, {"geometry": {"type": "Point", "coordinates": [-95.92, 41.15]}, "type": "Feature", "id": "68123", "properties": {"other_cities": "", "city": "Bellevue", "state": "NE", "county": "Sarpy County"}}, {"geometry": {"type": "Point", "coordinates": [-96.01, 41.26]}, "type": "Feature", "id": "68124", "properties": {"other_cities": "", "city": "Omaha", "state": "NE", "county": "Douglas County"}}, {"geometry": {"type": "Point", "coordinates": [-96.01, 41.26]}, "type": "Feature", "id": "68127", "properties": {"other_cities": "Ralston", "city": "Omaha", "state": "NE", "county": "Douglas County"}}, {"geometry": {"type": "Point", "coordinates": [-96.03, 41.18]}, "type": "Feature", "id": "68128", "properties": {"other_cities": "Lavista, Ralston", "city": "La Vista", "state": "NE", "county": "Sarpy County"}}, {"geometry": {"type": "Point", "coordinates": [-96.01, 41.26]}, "type": "Feature", "id": "68130", "properties": {"other_cities": "", "city": "Omaha", "state": "NE", "county": "Douglas County"}}, {"geometry": {"type": "Point", "coordinates": [-96.01, 41.26]}, "type": "Feature", "id": "68131", "properties": {"other_cities": "", "city": "Omaha", "state": "NE", "county": "Douglas County"}}, {"geometry": {"type": "Point", "coordinates": [-96.01, 41.26]}, "type": "Feature", "id": "68132", "properties": {"other_cities": "", "city": "Omaha", "state": "NE", "county": "Douglas County"}}, {"geometry": {"type": "Point", "coordinates": [-96.04, 41.15]}, "type": "Feature", "id": "68133", "properties": {"other_cities": "Bellevue", "city": "Papillion", "state": "NE", "county": "Sarpy County"}}, {"geometry": {"type": "Point", "coordinates": [-96.01, 41.26]}, "type": "Feature", "id": "68134", "properties": {"other_cities": "", "city": "Omaha", "state": "NE", "county": "Douglas County"}}, {"geometry": {"type": "Point", "coordinates": [-96.01, 41.26]}, "type": "Feature", "id": "68135", "properties": {"other_cities": "", "city": "Omaha", "state": "NE", "county": "Douglas County"}}, {"geometry": {"type": "Point", "coordinates": [-96.01, 41.26]}, "type": "Feature", "id": "68136", "properties": {"other_cities": "", "city": "Omaha", "state": "NE", "county": "Sarpy County"}}, {"geometry": {"type": "Point", "coordinates": [-96.01, 41.26]}, "type": "Feature", "id": "68137", "properties": {"other_cities": "", "city": "Omaha", "state": "NE", "county": "Douglas County"}}, {"geometry": {"type": "Point", "coordinates": [-96.01, 41.26]}, "type": "Feature", "id": "68138", "properties": {"other_cities": "La Vista", "city": "Omaha", "state": "NE", "county": "Sarpy County"}}, {"geometry": {"type": "Point", "coordinates": [-96.01, 41.26]}, "type": "Feature", "id": "68139", "properties": {"other_cities": "", "city": "Omaha", "state": "NE", "county": "Douglas County"}}, {"geometry": {"type": "Point", "coordinates": [-96.01, 41.26]}, "type": "Feature", "id": "68142", "properties": {"other_cities": "", "city": "Omaha", "state": "NE", "county": "Douglas County"}}, {"geometry": {"type": "Point", "coordinates": [-96.01, 41.26]}, "type": "Feature", "id": "68144", "properties": {"other_cities": "Millard", "city": "Omaha", "state": "NE", "county": "Douglas County"}}, {"geometry": {"type": "Point", "coordinates": [-96.01, 41.26]}, "type": "Feature", "id": "68145", "properties": {"other_cities": "Millard", "city": "Omaha", "state": "NE", "county": "Douglas County"}}, {"geometry": {"type": "Point", "coordinates": [-95.92, 41.15]}, "type": "Feature", "id": "68147", "properties": {"other_cities": "Omaha", "city": "Bellevue", "state": "NE", "county": "Sarpy County"}}, {"geometry": {"type": "Point", "coordinates": [-96.01, 41.26]}, "type": "Feature", "id": "68152", "properties": {"other_cities": "", "city": "Omaha", "state": "NE", "county": "Douglas County"}}, {"geometry": {"type": "Point", "coordinates": [-96.01, 41.26]}, "type": "Feature", "id": "68154", "properties": {"other_cities": "", "city": "Omaha", "state": "NE", "county": "Douglas County"}}, {"geometry": {"type": "Point", "coordinates": [-96.01, 41.26]}, "type": "Feature", "id": "68155", "properties": {"other_cities": "", "city": "Omaha", "state": "NE", "county": "Douglas County"}}, {"geometry": {"type": "Point", "coordinates": [-96.01, 41.26]}, "type": "Feature", "id": "68157", "properties": {"other_cities": "Bellevue", "city": "Omaha", "state": "NE", "county": "Sarpy County"}}, {"geometry": {"type": "Point", "coordinates": [-96.01, 41.26]}, "type": "Feature", "id": "68164", "properties": {"other_cities": "", "city": "Omaha", "state": "NE", "county": "Douglas County"}}, {"geometry": {"type": "Point", "coordinates": [-96.01, 41.26]}, "type": "Feature", "id": "68172", "properties": {"other_cities": "", "city": "Omaha", "state": "NE", "county": "Douglas County"}}, {"geometry": {"type": "Point", "coordinates": [-96.01, 41.26]}, "type": "Feature", "id": "68175", "properties": {"other_cities": "", "city": "Omaha", "state": "NE", "county": "Douglas County"}}, {"geometry": {"type": "Point", "coordinates": [-96.01, 41.26]}, "type": "Feature", "id": "68176", "properties": {"other_cities": "", "city": "Omaha", "state": "NE", "county": "Douglas County"}}, {"geometry": {"type": "Point", "coordinates": [-96.01, 41.26]}, "type": "Feature", "id": "68178", "properties": {"other_cities": "", "city": "Omaha", "state": "NE", "county": "Douglas County"}}, {"geometry": {"type": "Point", "coordinates": [-96.01, 41.26]}, "type": "Feature", "id": "68179", "properties": {"other_cities": "", "city": "Omaha", "state": "NE", "county": "Douglas County"}}, {"geometry": {"type": "Point", "coordinates": [-96.01, 41.26]}, "type": "Feature", "id": "68180", "properties": {"other_cities": "", "city": "Omaha", "state": "NE", "county": "Douglas County"}}, {"geometry": {"type": "Point", "coordinates": [-95.93, 41.24]}, "type": "Feature", "id": "68181", "properties": {"other_cities": "", "city": "Omaha", "state": "NE", "county": "Douglas County"}}, {"geometry": {"type": "Point", "coordinates": [-96.01, 41.26]}, "type": "Feature", "id": "68182", "properties": {"other_cities": "", "city": "Omaha", "state": "NE", "county": "Douglas County"}}, {"geometry": {"type": "Point", "coordinates": [-96.01, 41.26]}, "type": "Feature", "id": "68183", "properties": {"other_cities": "", "city": "Omaha", "state": "NE", "county": "Douglas County"}}, {"geometry": {"type": "Point", "coordinates": [-95.93, 41.26]}, "type": "Feature", "id": "68197", "properties": {"other_cities": "", "city": "Omaha", "state": "NE", "county": "Douglas County"}}, {"geometry": {"type": "Point", "coordinates": [-96.01, 41.26]}, "type": "Feature", "id": "68198", "properties": {"other_cities": "", "city": "Omaha", "state": "NE", "county": "Douglas County"}}, {"geometry": {"type": "Point", "coordinates": [-96.51, 40.45]}, "type": "Feature", "id": "68301", "properties": {"other_cities": "", "city": "Adams", "state": "NE", "county": "Gage County"}}, {"geometry": {"type": "Point", "coordinates": [-97.38, 40.24]}, "type": "Feature", "id": "68303", "properties": {"other_cities": "", "city": "Alexandria", "state": "NE", "county": "Thayer County"}}, {"geometry": {"type": "Point", "coordinates": [-96.38, 40.87]}, "type": "Feature", "id": "68304", "properties": {"other_cities": "", "city": "Alvo", "state": "NE", "county": "Cass County"}}, {"geometry": {"type": "Point", "coordinates": [-95.84, 40.38]}, "type": "Feature", "id": "68305", "properties": {"other_cities": "", "city": "Auburn", "state": "NE", "county": "Nemaha County"}}, {"geometry": {"type": "Point", "coordinates": [-96.11, 40.79]}, "type": "Feature", "id": "68307", "properties": {"other_cities": "", "city": "Avoca", "state": "NE", "county": "Cass County"}}, {"geometry": {"type": "Point", "coordinates": [-96.57, 40.04]}, "type": "Feature", "id": "68309", "properties": {"other_cities": "", "city": "Barneston", "state": "NE", "county": "Gage County"}}, {"geometry": {"type": "Point", "coordinates": [-96.74, 40.26]}, "type": "Feature", "id": "68310", "properties": {"other_cities": "Holmesville", "city": "Beatrice", "state": "NE", "county": "Gage County"}}, {"geometry": {"type": "Point", "coordinates": [-97.28, 40.77]}, "type": "Feature", "id": "68313", "properties": {"other_cities": "Beaver Xing", "city": "Beaver Crossing", "state": "NE", "county": "Seward County"}}, {"geometry": {"type": "Point", "coordinates": [-97.05, 41.0]}, "type": "Feature", "id": "68314", "properties": {"other_cities": "", "city": "Bee", "state": "NE", "county": "Seward County"}}, {"geometry": {"type": "Point", "coordinates": [-97.55, 40.25]}, "type": "Feature", "id": "68315", "properties": {"other_cities": "", "city": "Belvidere", "state": "NE", "county": "Thayer County"}}, {"geometry": {"type": "Point", "coordinates": [-97.6, 41.0]}, "type": "Feature", "id": "68316", "properties": {"other_cities": "", "city": "Benedict", "state": "NE", "county": "York County"}}, {"geometry": {"type": "Point", "coordinates": [-96.5, 40.68]}, "type": "Feature", "id": "68317", "properties": {"other_cities": "", "city": "Bennet", "state": "NE", "county": "Lancaster County"}}, {"geometry": {"type": "Point", "coordinates": [-96.66, 40.13]}, "type": "Feature", "id": "68318", "properties": {"other_cities": "", "city": "Blue Springs", "state": "NE", "county": "Gage County"}}, {"geometry": {"type": "Point", "coordinates": [-97.74, 40.88]}, "type": "Feature", "id": "68319", "properties": {"other_cities": "", "city": "Bradshaw", "state": "NE", "county": "York County"}}, {"geometry": {"type": "Point", "coordinates": [-95.95, 40.48]}, "type": "Feature", "id": "68320", "properties": {"other_cities": "", "city": "Brock", "state": "NE", "county": "Nemaha County"}}, {"geometry": {"type": "Point", "coordinates": [-95.66, 40.39]}, "type": "Feature", "id": "68321", "properties": {"other_cities": "", "city": "Brownville", "state": "NE", "county": "Nemaha County"}}, {"geometry": {"type": "Point", "coordinates": [-97.56, 40.33]}, "type": "Feature", "id": "68322", "properties": {"other_cities": "", "city": "Bruning", "state": "NE", "county": "Thayer County"}}, {"geometry": {"type": "Point", "coordinates": [-96.34, 40.14]}, "type": "Feature", "id": "68323", "properties": {"other_cities": "", "city": "Burchard", "state": "NE", "county": "Pawnee County"}}, {"geometry": {"type": "Point", "coordinates": [-96.29, 40.53]}, "type": "Feature", "id": "68324", "properties": {"other_cities": "", "city": "Burr", "state": "NE", "county": "Otoe County"}}, {"geometry": {"type": "Point", "coordinates": [-97.76, 40.0]}, "type": "Feature", "id": "68325", "properties": {"other_cities": "", "city": "Byron", "state": "NE", "county": "Thayer County"}}, {"geometry": {"type": "Point", "coordinates": [-97.67, 40.3]}, "type": "Feature", "id": "68326", "properties": {"other_cities": "", "city": "Carleton", "state": "NE", "county": "Thayer County"}}, {"geometry": {"type": "Point", "coordinates": [-97.61, 40.0]}, "type": "Feature", "id": "68327", "properties": {"other_cities": "", "city": "Chester", "state": "NE", "county": "Thayer County"}}, {"geometry": {"type": "Point", "coordinates": [-96.85, 40.46]}, "type": "Feature", "id": "68328", "properties": {"other_cities": "", "city": "Clatonia", "state": "NE", "county": "Gage County"}}, {"geometry": {"type": "Point", "coordinates": [-96.16, 40.51]}, "type": "Feature", "id": "68329", "properties": {"other_cities": "", "city": "Cook", "state": "NE", "county": "Johnson County"}}, {"geometry": {"type": "Point", "coordinates": [-97.35, 40.71]}, "type": "Feature", "id": "68330", "properties": {"other_cities": "", "city": "Cordova", "state": "NE", "county": "Seward County"}}, {"geometry": {"type": "Point", "coordinates": [-96.7, 40.5]}, "type": "Feature", "id": "68331", "properties": {"other_cities": "", "city": "Cortland", "state": "NE", "county": "Gage County"}}, {"geometry": {"type": "Point", "coordinates": [-96.42, 40.33]}, "type": "Feature", "id": "68332", "properties": {"other_cities": "", "city": "Crab Orchard", "state": "NE", "county": "Johnson County"}}, {"geometry": {"type": "Point", "coordinates": [-96.95, 40.62]}, "type": "Feature", "id": "68333", "properties": {"other_cities": "", "city": "Crete", "state": "NE", "county": "Saline County"}}, {"geometry": {"type": "Point", "coordinates": [-97.81, 40.31]}, "type": "Feature", "id": "68335", "properties": {"other_cities": "", "city": "Davenport", "state": "NE", "county": "Thayer County"}}, {"geometry": {"type": "Point", "coordinates": [-96.66, 40.98]}, "type": "Feature", "id": "68336", "properties": {"other_cities": "", "city": "Davey", "state": "NE", "county": "Lancaster County"}}, {"geometry": {"type": "Point", "coordinates": [-95.82, 40.13]}, "type": "Feature", "id": "68337", "properties": {"other_cities": "", "city": "Dawson", "state": "NE", "county": "Richardson County"}}, {"geometry": {"type": "Point", "coordinates": [-97.29, 40.32]}, "type": "Feature", "id": "68338", "properties": {"other_cities": "", "city": "Daykin", "state": "NE", "county": "Jefferson County"}}, {"geometry": {"type": "Point", "coordinates": [-96.84, 40.73]}, "type": "Feature", "id": "68339", "properties": {"other_cities": "", "city": "Denton", "state": "NE", "county": "Lancaster County"}}, {"geometry": {"type": "Point", "coordinates": [-97.72, 40.13]}, "type": "Feature", "id": "68340", "properties": {"other_cities": "", "city": "Deshler", "state": "NE", "county": "Thayer County"}}, {"geometry": {"type": "Point", "coordinates": [-96.92, 40.39]}, "type": "Feature", "id": "68341", "properties": {"other_cities": "", "city": "De Witt", "state": "NE", "county": "Saline County"}}, {"geometry": {"type": "Point", "coordinates": [-96.93, 40.1]}, "type": "Feature", "id": "68342", "properties": {"other_cities": "", "city": "Diller", "state": "NE", "county": "Jefferson County"}}, {"geometry": {"type": "Point", "coordinates": [-97.11, 40.64]}, "type": "Feature", "id": "68343", "properties": {"other_cities": "", "city": "Dorchester", "state": "NE", "county": "Saline County"}}, {"geometry": {"type": "Point", "coordinates": [-96.38, 40.59]}, "type": "Feature", "id": "68344", "properties": {"other_cities": "", "city": "Douglas", "state": "NE", "county": "Otoe County"}}, {"geometry": {"type": "Point", "coordinates": [-96.04, 40.03]}, "type": "Feature", "id": "68345", "properties": {"other_cities": "", "city": "Du Bois", "state": "NE", "county": "Pawnee County"}}, {"geometry": {"type": "Point", "coordinates": [-96.03, 40.66]}, "type": "Feature", "id": "68346", "properties": {"other_cities": "Lorton", "city": "Dunbar", "state": "NE", "county": "Otoe County"}}, {"geometry": {"type": "Point", "coordinates": [-96.43, 40.81]}, "type": "Feature", "id": "68347", "properties": {"other_cities": "", "city": "Eagle", "state": "NE", "county": "Cass County"}}, {"geometry": {"type": "Point", "coordinates": [-96.12, 40.28]}, "type": "Feature", "id": "68348", "properties": {"other_cities": "", "city": "Elk Creek", "state": "NE", "county": "Johnson County"}}, {"geometry": {"type": "Point", "coordinates": [-96.29, 40.84]}, "type": "Feature", "id": "68349", "properties": {"other_cities": "", "city": "Elmwood", "state": "NE", "county": "Cass County"}}, {"geometry": {"type": "Point", "coordinates": [-97.09, 40.08]}, "type": "Feature", "id": "68350", "properties": {"other_cities": "", "city": "Endicott", "state": "NE", "county": "Jefferson County"}}, {"geometry": {"type": "Point", "coordinates": [-97.44, 40.64]}, "type": "Feature", "id": "68351", "properties": {"other_cities": "", "city": "Exeter", "state": "NE", "county": "Fillmore County"}}, {"geometry": {"type": "Point", "coordinates": [-97.17, 40.14]}, "type": "Feature", "id": "68352", "properties": {"other_cities": "Gladstone", "city": "Fairbury", "state": "NE", "county": "Jefferson County"}}, {"geometry": {"type": "Point", "coordinates": [-97.58, 40.63]}, "type": "Feature", "id": "68354", "properties": {"other_cities": "", "city": "Fairmont", "state": "NE", "county": "Fillmore County"}}, {"geometry": {"type": "Point", "coordinates": [-95.59, 40.06]}, "type": "Feature", "id": "68355", "properties": {"other_cities": "", "city": "Falls City", "state": "NE", "county": "Richardson County"}}, {"geometry": {"type": "Point", "coordinates": [-96.53, 40.28]}, "type": "Feature", "id": "68357", "properties": {"other_cities": "", "city": "Filley", "state": "NE", "county": "Gage County"}}, {"geometry": {"type": "Point", "coordinates": [-96.6, 40.53]}, "type": "Feature", "id": "68358", "properties": {"other_cities": "", "city": "Firth", "state": "NE", "county": "Lancaster County"}}, {"geometry": {"type": "Point", "coordinates": [-97.28, 40.65]}, "type": "Feature", "id": "68359", "properties": {"other_cities": "", "city": "Friend", "state": "NE", "county": "Saline County"}}, {"geometry": {"type": "Point", "coordinates": [-96.98, 40.94]}, "type": "Feature", "id": "68360", "properties": {"other_cities": "", "city": "Garland", "state": "NE", "county": "Seward County"}}, {"geometry": {"type": "Point", "coordinates": [-97.6, 40.52]}, "type": "Feature", "id": "68361", "properties": {"other_cities": "", "city": "Geneva", "state": "NE", "county": "Fillmore County"}}, {"geometry": {"type": "Point", "coordinates": [-97.41, 40.14]}, "type": "Feature", "id": "68362", "properties": {"other_cities": "", "city": "Gilead", "state": "NE", "county": "Thayer County"}}, {"geometry": {"type": "Point", "coordinates": [-97.21, 40.83]}, "type": "Feature", "id": "68364", "properties": {"other_cities": "", "city": "Goehner", "state": "NE", "county": "Seward County"}}, {"geometry": {"type": "Point", "coordinates": [-97.71, 40.62]}, "type": "Feature", "id": "68365", "properties": {"other_cities": "", "city": "Grafton", "state": "NE", "county": "Fillmore County"}}, {"geometry": {"type": "Point", "coordinates": [-96.44, 40.96]}, "type": "Feature", "id": "68366", "properties": {"other_cities": "", "city": "Greenwood", "state": "NE", "county": "Cass County"}}, {"geometry": {"type": "Point", "coordinates": [-97.4, 41.02]}, "type": "Feature", "id": "68367", "properties": {"other_cities": "", "city": "Gresham", "state": "NE", "county": "York County"}}, {"geometry": {"type": "Point", "coordinates": [-96.78, 40.53]}, "type": "Feature", "id": "68368", "properties": {"other_cities": "", "city": "Hallam", "state": "NE", "county": "Lancaster County"}}, {"geometry": {"type": "Point", "coordinates": [-97.58, 40.16]}, "type": "Feature", "id": "68370", "properties": {"other_cities": "", "city": "Hebron", "state": "NE", "county": "Thayer County"}}, {"geometry": {"type": "Point", "coordinates": [-97.81, 40.77]}, "type": "Feature", "id": "68371", "properties": {"other_cities": "", "city": "Henderson", "state": "NE", "county": "York County"}}, {"geometry": {"type": "Point", "coordinates": [-96.63, 40.62]}, "type": "Feature", "id": "68372", "properties": {"other_cities": "Holland", "city": "Hickman", "state": "NE", "county": "Lancaster County"}}, {"geometry": {"type": "Point", "coordinates": [-97.49, 40.0]}, "type": "Feature", "id": "68375", "properties": {"other_cities": "", "city": "Hubbell", "state": "NE", "county": "Thayer County"}}, {"geometry": {"type": "Point", "coordinates": [-95.94, 40.16]}, "type": "Feature", "id": "68376", "properties": {"other_cities": "", "city": "Humboldt", "state": "NE", "county": "Richardson County"}}, {"geometry": {"type": "Point", "coordinates": [-97.08, 40.18]}, "type": "Feature", "id": "68377", "properties": {"other_cities": "", "city": "Jansen", "state": "NE", "county": "Jefferson County"}}, {"geometry": {"type": "Point", "coordinates": [-95.99, 40.41]}, "type": "Feature", "id": "68378", "properties": {"other_cities": "", "city": "Johnson", "state": "NE", "county": "Nemaha County"}}, {"geometry": {"type": "Point", "coordinates": [-95.99, 40.41]}, "type": "Feature", "id": "68379", "properties": {"other_cities": "Johnson", "city": "Julian", "state": "NE", "county": "Nemaha County"}}, {"geometry": {"type": "Point", "coordinates": [-96.4, 40.24]}, "type": "Feature", "id": "68380", "properties": {"other_cities": "", "city": "Lewiston", "state": "NE", "county": "Pawnee County"}}, {"geometry": {"type": "Point", "coordinates": [-96.48, 40.08]}, "type": "Feature", "id": "68381", "properties": {"other_cities": "", "city": "Liberty", "state": "NE", "county": "Gage County"}}, {"geometry": {"type": "Point", "coordinates": [-96.03, 40.59]}, "type": "Feature", "id": "68382", "properties": {"other_cities": "Dunbar", "city": "Lorton", "state": "NE", "county": "Otoe County"}}, {"geometry": {"type": "Point", "coordinates": [-97.59, 40.74]}, "type": "Feature", "id": "68401", "properties": {"other_cities": "Mc Cool Jct", "city": "Mc Cool Junction", "state": "NE", "county": "York County"}}, {"geometry": {"type": "Point", "coordinates": [-96.86, 40.9]}, "type": "Feature", "id": "68402", "properties": {"other_cities": "", "city": "Malcolm", "state": "NE", "county": "Lancaster County"}}, {"geometry": {"type": "Point", "coordinates": [-96.16, 40.91]}, "type": "Feature", "id": "68403", "properties": {"other_cities": "", "city": "Manley", "state": "NE", "county": "Cass County"}}, {"geometry": {"type": "Point", "coordinates": [-96.74, 40.65]}, "type": "Feature", "id": "68404", "properties": {"other_cities": "", "city": "Martell", "state": "NE", "county": "Lancaster County"}}, {"geometry": {"type": "Point", "coordinates": [-97.05, 40.77]}, "type": "Feature", "id": "68405", "properties": {"other_cities": "", "city": "Milford", "state": "NE", "county": "Seward County"}}, {"geometry": {"type": "Point", "coordinates": [-97.38, 40.49]}, "type": "Feature", "id": "68406", "properties": {"other_cities": "", "city": "Milligan", "state": "NE", "county": "Fillmore County"}}, {"geometry": {"type": "Point", "coordinates": [-96.28, 40.92]}, "type": "Feature", "id": "68407", "properties": {"other_cities": "", "city": "Murdock", "state": "NE", "county": "Cass County"}}, {"geometry": {"type": "Point", "coordinates": [-95.92, 40.91]}, "type": "Feature", "id": "68409", "properties": {"other_cities": "", "city": "Murray", "state": "NE", "county": "Cass County"}}, {"geometry": {"type": "Point", "coordinates": [-95.86, 40.67]}, "type": "Feature", "id": "68410", "properties": {"other_cities": "", "city": "Nebraska City", "state": "NE", "county": "Otoe County"}}, {"geometry": {"type": "Point", "coordinates": [-95.98, 40.82]}, "type": "Feature", "id": "68413", "properties": {"other_cities": "", "city": "Nehawka", "state": "NE", "county": "Cass County"}}, {"geometry": {"type": "Point", "coordinates": [-95.67, 40.33]}, "type": "Feature", "id": "68414", "properties": {"other_cities": "", "city": "Nemaha", "state": "NE", "county": "Nemaha County"}}, {"geometry": {"type": "Point", "coordinates": [-96.8, 40.05]}, "type": "Feature", "id": "68415", "properties": {"other_cities": "", "city": "Odell", "state": "NE", "county": "Gage County"}}, {"geometry": {"type": "Point", "coordinates": [-97.45, 40.41]}, "type": "Feature", "id": "68416", "properties": {"other_cities": "", "city": "Ohiowa", "state": "NE", "county": "Fillmore County"}}, {"geometry": {"type": "Point", "coordinates": [-96.12, 40.72]}, "type": "Feature", "id": "68417", "properties": {"other_cities": "", "city": "Otoe", "state": "NE", "county": "Otoe County"}}, {"geometry": {"type": "Point", "coordinates": [-96.39, 40.7]}, "type": "Feature", "id": "68418", "properties": {"other_cities": "", "city": "Palmyra", "state": "NE", "county": "Otoe County"}}, {"geometry": {"type": "Point", "coordinates": [-96.51, 40.59]}, "type": "Feature", "id": "68419", "properties": {"other_cities": "", "city": "Panama", "state": "NE", "county": "Lancaster County"}}, {"geometry": {"type": "Point", "coordinates": [-96.15, 40.11]}, "type": "Feature", "id": "68420", "properties": {"other_cities": "", "city": "Pawnee City", "state": "NE", "county": "Pawnee County"}}, {"geometry": {"type": "Point", "coordinates": [-95.73, 40.47]}, "type": "Feature", "id": "68421", "properties": {"other_cities": "", "city": "Peru", "state": "NE", "county": "Nemaha County"}}, {"geometry": {"type": "Point", "coordinates": [-96.72, 40.37]}, "type": "Feature", "id": "68422", "properties": {"other_cities": "", "city": "Pickrell", "state": "NE", "county": "Gage County"}}, {"geometry": {"type": "Point", "coordinates": [-96.93, 40.79]}, "type": "Feature", "id": "68423", "properties": {"other_cities": "", "city": "Pleasant Dale", "state": "NE", "county": "Seward County"}}, {"geometry": {"type": "Point", "coordinates": [-96.98, 40.3]}, "type": "Feature", "id": "68424", "properties": {"other_cities": "", "city": "Plymouth", "state": "NE", "county": "Jefferson County"}}, {"geometry": {"type": "Point", "coordinates": [-96.78, 40.95]}, "type": "Feature", "id": "68428", "properties": {"other_cities": "Agnew", "city": "Raymond", "state": "NE", "county": "Lancaster County"}}, {"geometry": {"type": "Point", "coordinates": [-97.31, 40.04]}, "type": "Feature", "id": "68429", "properties": {"other_cities": "", "city": "Reynolds", "state": "NE", "county": "Jefferson County"}}, {"geometry": {"type": "Point", "coordinates": [-96.66, 40.65]}, "type": "Feature", "id": "68430", "properties": {"other_cities": "", "city": "Roca", "state": "NE", "county": "Lancaster County"}}, {"geometry": {"type": "Point", "coordinates": [-95.43, 40.05]}, "type": "Feature", "id": "68431", "properties": {"other_cities": "", "city": "Rulo", "state": "NE", "county": "Richardson County"}}, {"geometry": {"type": "Point", "coordinates": [-95.72, 40.07]}, "type": "Feature", "id": "68433", "properties": {"other_cities": "", "city": "Salem", "state": "NE", "county": "Richardson County"}}, {"geometry": {"type": "Point", "coordinates": [-97.09, 40.91]}, "type": "Feature", "id": "68434", "properties": {"other_cities": "", "city": "Seward", "state": "NE", "county": "Seward County"}}, {"geometry": {"type": "Point", "coordinates": [-97.72, 40.41]}, "type": "Feature", "id": "68436", "properties": {"other_cities": "", "city": "Shickley", "state": "NE", "county": "Fillmore County"}}, {"geometry": {"type": "Point", "coordinates": [-95.68, 40.23]}, "type": "Feature", "id": "68437", "properties": {"other_cities": "", "city": "Shubert", "state": "NE", "county": "Richardson County"}}, {"geometry": {"type": "Point", "coordinates": [-96.74, 40.62]}, "type": "Feature", "id": "68438", "properties": {"other_cities": "", "city": "Sprague", "state": "NE", "county": "Lancaster County"}}, {"geometry": {"type": "Point", "coordinates": [-97.17, 40.97]}, "type": "Feature", "id": "68439", "properties": {"other_cities": "", "city": "Staplehurst", "state": "NE", "county": "Seward County"}}, {"geometry": {"type": "Point", "coordinates": [-97.02, 40.03]}, "type": "Feature", "id": "68440", "properties": {"other_cities": "", "city": "Steele City", "state": "NE", "county": "Jefferson County"}}, {"geometry": {"type": "Point", "coordinates": [-96.23, 40.2]}, "type": "Feature", "id": "68441", "properties": {"other_cities": "", "city": "Steinauer", "state": "NE", "county": "Pawnee County"}}, {"geometry": {"type": "Point", "coordinates": [-95.77, 40.23]}, "type": "Feature", "id": "68442", "properties": {"other_cities": "", "city": "Stella", "state": "NE", "county": "Richardson County"}}, {"geometry": {"type": "Point", "coordinates": [-96.37, 40.46]}, "type": "Feature", "id": "68443", "properties": {"other_cities": "Saint Mary", "city": "Sterling", "state": "NE", "county": "Johnson County"}}, {"geometry": {"type": "Point", "coordinates": [-97.58, 40.41]}, "type": "Feature", "id": "68444", "properties": {"other_cities": "", "city": "Strang", "state": "NE", "county": "Fillmore County"}}, {"geometry": {"type": "Point", "coordinates": [-97.07, 40.37]}, "type": "Feature", "id": "68445", "properties": {"other_cities": "", "city": "Swanton", "state": "NE", "county": "Saline County"}}, {"geometry": {"type": "Point", "coordinates": [-96.18, 40.66]}, "type": "Feature", "id": "68446", "properties": {"other_cities": "", "city": "Syracuse", "state": "NE", "county": "Otoe County"}}, {"geometry": {"type": "Point", "coordinates": [-96.08, 40.17]}, "type": "Feature", "id": "68447", "properties": {"other_cities": "", "city": "Table Rock", "state": "NE", "county": "Pawnee County"}}, {"geometry": {"type": "Point", "coordinates": [-96.02, 40.53]}, "type": "Feature", "id": "68448", "properties": {"other_cities": "", "city": "Talmage", "state": "NE", "county": "Otoe County"}}, {"geometry": {"type": "Point", "coordinates": [-96.18, 40.37]}, "type": "Feature", "id": "68450", "properties": {"other_cities": "", "city": "Tecumseh", "state": "NE", "county": "Johnson County"}}, {"geometry": {"type": "Point", "coordinates": [-97.83, 40.39]}, "type": "Feature", "id": "68452", "properties": {"other_cities": "", "city": "Ong", "state": "NE", "county": "Clay County"}}, {"geometry": {"type": "Point", "coordinates": [-97.33, 40.41]}, "type": "Feature", "id": "68453", "properties": {"other_cities": "", "city": "Tobias", "state": "NE", "county": "Saline County"}}, {"geometry": {"type": "Point", "coordinates": [-96.27, 40.68]}, "type": "Feature", "id": "68454", "properties": {"other_cities": "", "city": "Unadilla", "state": "NE", "county": "Otoe County"}}, {"geometry": {"type": "Point", "coordinates": [-95.92, 40.81]}, "type": "Feature", "id": "68455", "properties": {"other_cities": "", "city": "Union", "state": "NE", "county": "Cass County"}}, {"geometry": {"type": "Point", "coordinates": [-97.34, 40.89]}, "type": "Feature", "id": "68456", "properties": {"other_cities": "", "city": "Utica", "state": "NE", "county": "Seward County"}}, {"geometry": {"type": "Point", "coordinates": [-95.71, 40.14]}, "type": "Feature", "id": "68457", "properties": {"other_cities": "", "city": "Verdon", "state": "NE", "county": "Richardson County"}}, {"geometry": {"type": "Point", "coordinates": [-96.49, 40.24]}, "type": "Feature", "id": "68458", "properties": {"other_cities": "", "city": "Virginia", "state": "NE", "county": "Gage County"}}, {"geometry": {"type": "Point", "coordinates": [-97.46, 40.89]}, "type": "Feature", "id": "68460", "properties": {"other_cities": "", "city": "Waco", "state": "NE", "county": "York County"}}, {"geometry": {"type": "Point", "coordinates": [-96.51, 40.74]}, "type": "Feature", "id": "68461", "properties": {"other_cities": "", "city": "Walton", "state": "NE", "county": "Lancaster County"}}, {"geometry": {"type": "Point", "coordinates": [-96.53, 40.91]}, "type": "Feature", "id": "68462", "properties": {"other_cities": "", "city": "Waverly", "state": "NE", "county": "Lancaster County"}}, {"geometry": {"type": "Point", "coordinates": [-96.13, 40.86]}, "type": "Feature", "id": "68463", "properties": {"other_cities": "", "city": "Weeping Water", "state": "NE", "county": "Cass County"}}, {"geometry": {"type": "Point", "coordinates": [-97.19, 40.39]}, "type": "Feature", "id": "68464", "properties": {"other_cities": "", "city": "Western", "state": "NE", "county": "Saline County"}}, {"geometry": {"type": "Point", "coordinates": [-96.96, 40.48]}, "type": "Feature", "id": "68465", "properties": {"other_cities": "", "city": "Wilber", "state": "NE", "county": "Saline County"}}, {"geometry": {"type": "Point", "coordinates": [-96.66, 40.12]}, "type": "Feature", "id": "68466", "properties": {"other_cities": "", "city": "Wymore", "state": "NE", "county": "Gage County"}}, {"geometry": {"type": "Point", "coordinates": [-97.59, 40.87]}, "type": "Feature", "id": "68467", "properties": {"other_cities": "", "city": "York", "state": "NE", "county": "York County"}}, {"geometry": {"type": "Point", "coordinates": [-96.68, 40.81]}, "type": "Feature", "id": "68501", "properties": {"other_cities": "", "city": "Lincoln", "state": "NE", "county": "Lancaster County"}}, {"geometry": {"type": "Point", "coordinates": [-96.68, 40.81]}, "type": "Feature", "id": "68502", "properties": {"other_cities": "", "city": "Lincoln", "state": "NE", "county": "Lancaster County"}}, {"geometry": {"type": "Point", "coordinates": [-96.68, 40.81]}, "type": "Feature", "id": "68503", "properties": {"other_cities": "", "city": "Lincoln", "state": "NE", "county": "Lancaster County"}}, {"geometry": {"type": "Point", "coordinates": [-96.68, 40.81]}, "type": "Feature", "id": "68504", "properties": {"other_cities": "", "city": "Lincoln", "state": "NE", "county": "Lancaster County"}}, {"geometry": {"type": "Point", "coordinates": [-96.68, 40.81]}, "type": "Feature", "id": "68505", "properties": {"other_cities": "", "city": "Lincoln", "state": "NE", "county": "Lancaster County"}}, {"geometry": {"type": "Point", "coordinates": [-96.68, 40.81]}, "type": "Feature", "id": "68506", "properties": {"other_cities": "", "city": "Lincoln", "state": "NE", "county": "Lancaster County"}}, {"geometry": {"type": "Point", "coordinates": [-96.68, 40.81]}, "type": "Feature", "id": "68507", "properties": {"other_cities": "", "city": "Lincoln", "state": "NE", "county": "Lancaster County"}}, {"geometry": {"type": "Point", "coordinates": [-96.68, 40.81]}, "type": "Feature", "id": "68508", "properties": {"other_cities": "", "city": "Lincoln", "state": "NE", "county": "Lancaster County"}}, {"geometry": {"type": "Point", "coordinates": [-96.68, 40.81]}, "type": "Feature", "id": "68509", "properties": {"other_cities": "", "city": "Lincoln", "state": "NE", "county": "Lancaster County"}}, {"geometry": {"type": "Point", "coordinates": [-96.68, 40.81]}, "type": "Feature", "id": "68510", "properties": {"other_cities": "", "city": "Lincoln", "state": "NE", "county": "Lancaster County"}}, {"geometry": {"type": "Point", "coordinates": [-96.68, 40.81]}, "type": "Feature", "id": "68512", "properties": {"other_cities": "", "city": "Lincoln", "state": "NE", "county": "Lancaster County"}}, {"geometry": {"type": "Point", "coordinates": [-96.68, 40.81]}, "type": "Feature", "id": "68514", "properties": {"other_cities": "", "city": "Lincoln", "state": "NE", "county": "Lancaster County"}}, {"geometry": {"type": "Point", "coordinates": [-96.68, 40.81]}, "type": "Feature", "id": "68516", "properties": {"other_cities": "", "city": "Lincoln", "state": "NE", "county": "Lancaster County"}}, {"geometry": {"type": "Point", "coordinates": [-96.68, 40.81]}, "type": "Feature", "id": "68517", "properties": {"other_cities": "", "city": "Lincoln", "state": "NE", "county": "Lancaster County"}}, {"geometry": {"type": "Point", "coordinates": [-96.68, 40.81]}, "type": "Feature", "id": "68520", "properties": {"other_cities": "", "city": "Lincoln", "state": "NE", "county": "Lancaster County"}}, {"geometry": {"type": "Point", "coordinates": [-96.68, 40.81]}, "type": "Feature", "id": "68521", "properties": {"other_cities": "", "city": "Lincoln", "state": "NE", "county": "Lancaster County"}}, {"geometry": {"type": "Point", "coordinates": [-96.68, 40.81]}, "type": "Feature", "id": "68522", "properties": {"other_cities": "", "city": "Lincoln", "state": "NE", "county": "Lancaster County"}}, {"geometry": {"type": "Point", "coordinates": [-96.68, 40.81]}, "type": "Feature", "id": "68523", "properties": {"other_cities": "", "city": "Lincoln", "state": "NE", "county": "Lancaster County"}}, {"geometry": {"type": "Point", "coordinates": [-96.68, 40.81]}, "type": "Feature", "id": "68524", "properties": {"other_cities": "", "city": "Lincoln", "state": "NE", "county": "Lancaster County"}}, {"geometry": {"type": "Point", "coordinates": [-96.68, 40.81]}, "type": "Feature", "id": "68526", "properties": {"other_cities": "", "city": "Lincoln", "state": "NE", "county": "Lancaster County"}}, {"geometry": {"type": "Point", "coordinates": [-96.68, 40.81]}, "type": "Feature", "id": "68527", "properties": {"other_cities": "", "city": "Lincoln", "state": "NE", "county": "Lancaster County"}}, {"geometry": {"type": "Point", "coordinates": [-96.68, 40.81]}, "type": "Feature", "id": "68528", "properties": {"other_cities": "", "city": "Lincoln", "state": "NE", "county": "Lancaster County"}}, {"geometry": {"type": "Point", "coordinates": [-96.68, 40.81]}, "type": "Feature", "id": "68529", "properties": {"other_cities": "", "city": "Lincoln", "state": "NE", "county": "Lancaster County"}}, {"geometry": {"type": "Point", "coordinates": [-96.68, 40.81]}, "type": "Feature", "id": "68531", "properties": {"other_cities": "", "city": "Lincoln", "state": "NE", "county": "Lancaster County"}}, {"geometry": {"type": "Point", "coordinates": [-96.68, 40.81]}, "type": "Feature", "id": "68532", "properties": {"other_cities": "", "city": "Lincoln", "state": "NE", "county": "Lancaster County"}}, {"geometry": {"type": "Point", "coordinates": [-96.68, 40.81]}, "type": "Feature", "id": "68542", "properties": {"other_cities": "", "city": "Lincoln", "state": "NE", "county": "Lancaster County"}}, {"geometry": {"type": "Point", "coordinates": [-96.68, 40.81]}, "type": "Feature", "id": "68583", "properties": {"other_cities": "", "city": "Lincoln", "state": "NE", "county": "Lancaster County"}}, {"geometry": {"type": "Point", "coordinates": [-96.68, 40.81]}, "type": "Feature", "id": "68588", "properties": {"other_cities": "", "city": "Lincoln", "state": "NE", "county": "Lancaster County"}}, {"geometry": {"type": "Point", "coordinates": [-97.35, 41.43]}, "type": "Feature", "id": "68601", "properties": {"other_cities": "Richland", "city": "Columbus", "state": "NE", "county": "Platte County"}}, {"geometry": {"type": "Point", "coordinates": [-97.35, 41.43]}, "type": "Feature", "id": "68602", "properties": {"other_cities": "", "city": "Columbus", "state": "NE", "county": "Platte County"}}, {"geometry": {"type": "Point", "coordinates": [-98.0, 41.68]}, "type": "Feature", "id": "68620", "properties": {"other_cities": "Boone", "city": "Albion", "state": "NE", "county": "Boone County"}}, {"geometry": {"type": "Point", "coordinates": [-96.63, 41.45]}, "type": "Feature", "id": "68621", "properties": {"other_cities": "", "city": "Ames", "state": "NE", "county": "Dodge County"}}, {"geometry": {"type": "Point", "coordinates": [-98.55, 41.88]}, "type": "Feature", "id": "68622", "properties": {"other_cities": "", "city": "Bartlett", "state": "NE", "county": "Wheeler County"}}, {"geometry": {"type": "Point", "coordinates": [-98.06, 41.47]}, "type": "Feature", "id": "68623", "properties": {"other_cities": "", "city": "Belgrade", "state": "NE", "county": "Nance County"}}, {"geometry": {"type": "Point", "coordinates": [-97.24, 41.34]}, "type": "Feature", "id": "68624", "properties": {"other_cities": "", "city": "Bellwood", "state": "NE", "county": "Butler County"}}, {"geometry": {"type": "Point", "coordinates": [-97.0, 41.18]}, "type": "Feature", "id": "68626", "properties": {"other_cities": "", "city": "Brainard", "state": "NE", "county": "Butler County"}}, {"geometry": {"type": "Point", "coordinates": [-98.14, 41.55]}, "type": "Feature", "id": "68627", "properties": {"other_cities": "", "city": "Cedar Rapids", "state": "NE", "county": "Boone County"}}, {"geometry": {"type": "Point", "coordinates": [-97.83, 41.21]}, "type": "Feature", "id": "68628", "properties": {"other_cities": "", "city": "Clarks", "state": "NE", "county": "Merrick County"}}, {"geometry": {"type": "Point", "coordinates": [-97.12, 41.72]}, "type": "Feature", "id": "68629", "properties": {"other_cities": "", "city": "Clarkson", "state": "NE", "county": "Colfax County"}}, {"geometry": {"type": "Point", "coordinates": [-97.36, 41.7]}, "type": "Feature", "id": "68631", "properties": {"other_cities": "", "city": "Creston", "state": "NE", "county": "Platte County"}}, {"geometry": {"type": "Point", "coordinates": [-97.12, 41.25]}, "type": "Feature", "id": "68632", "properties": {"other_cities": "Garrison, Octavia", "city": "David City", "state": "NE", "county": "Butler County"}}, {"geometry": {"type": "Point", "coordinates": [-96.87, 41.72]}, "type": "Feature", "id": "68633", "properties": {"other_cities": "", "city": "Dodge", "state": "NE", "county": "Dodge County"}}, {"geometry": {"type": "Point", "coordinates": [-97.49, 41.39]}, "type": "Feature", "id": "68634", "properties": {"other_cities": "", "city": "Duncan", "state": "NE", "county": "Platte County"}}, {"geometry": {"type": "Point", "coordinates": [-97.01, 41.08]}, "type": "Feature", "id": "68635", "properties": {"other_cities": "", "city": "Dwight", "state": "NE", "county": "Butler County"}}, {"geometry": {"type": "Point", "coordinates": [-98.08, 41.98]}, "type": "Feature", "id": "68636", "properties": {"other_cities": "", "city": "Elgin", "state": "NE", "county": "Antelope County"}}, {"geometry": {"type": "Point", "coordinates": [-98.67, 41.78]}, "type": "Feature", "id": "68637", "properties": {"other_cities": "", "city": "Ericson", "state": "NE", "county": "Wheeler County"}}, {"geometry": {"type": "Point", "coordinates": [-97.97, 41.36]}, "type": "Feature", "id": "68638", "properties": {"other_cities": "", "city": "Fullerton", "state": "NE", "county": "Nance County"}}, {"geometry": {"type": "Point", "coordinates": [-97.73, 41.44]}, "type": "Feature", "id": "68640", "properties": {"other_cities": "", "city": "Genoa", "state": "NE", "county": "Nance County"}}, {"geometry": {"type": "Point", "coordinates": [-97.0, 41.72]}, "type": "Feature", "id": "68641", "properties": {"other_cities": "", "city": "Howells", "state": "NE", "county": "Colfax County"}}, {"geometry": {"type": "Point", "coordinates": [-97.48, 41.68]}, "type": "Feature", "id": "68642", "properties": {"other_cities": "Cornlea, Tarnov", "city": "Humphrey", "state": "NE", "county": "Platte County"}}, {"geometry": {"type": "Point", "coordinates": [-97.23, 41.7]}, "type": "Feature", "id": "68643", "properties": {"other_cities": "", "city": "Leigh", "state": "NE", "county": "Colfax County"}}, {"geometry": {"type": "Point", "coordinates": [-97.69, 41.7]}, "type": "Feature", "id": "68644", "properties": {"other_cities": "", "city": "Lindsay", "state": "NE", "county": "Platte County"}}, {"geometry": {"type": "Point", "coordinates": [-97.6, 41.47]}, "type": "Feature", "id": "68647", "properties": {"other_cities": "", "city": "Monroe", "state": "NE", "county": "Platte County"}}, {"geometry": {"type": "Point", "coordinates": [-96.76, 41.43]}, "type": "Feature", "id": "68648", "properties": {"other_cities": "", "city": "Morse Bluff", "state": "NE", "county": "Saunders County"}}, {"geometry": {"type": "Point", "coordinates": [-96.78, 41.46]}, "type": "Feature", "id": "68649", "properties": {"other_cities": "", "city": "North Bend", "state": "NE", "county": "Dodge County"}}, {"geometry": {"type": "Point", "coordinates": [-97.54, 41.17]}, "type": "Feature", "id": "68651", "properties": {"other_cities": "", "city": "Osceola", "state": "NE", "county": "Polk County"}}, {"geometry": {"type": "Point", "coordinates": [-98.07, 41.85]}, "type": "Feature", "id": "68652", "properties": {"other_cities": "", "city": "Petersburg", "state": "NE", "county": "Boone County"}}, {"geometry": {"type": "Point", "coordinates": [-97.48, 41.53]}, "type": "Feature", "id": "68653", "properties": {"other_cities": "", "city": "Platte Center", "state": "NE", "county": "Platte County"}}, {"geometry": {"type": "Point", "coordinates": [-97.78, 41.07]}, "type": "Feature", "id": "68654", "properties": {"other_cities": "", "city": "Polk", "state": "NE", "county": "Polk County"}}, {"geometry": {"type": "Point", "coordinates": [-98.23, 41.62]}, "type": "Feature", "id": "68655", "properties": {"other_cities": "", "city": "Primrose", "state": "NE", "county": "Boone County"}}, {"geometry": {"type": "Point", "coordinates": [-97.29, 41.19]}, "type": "Feature", "id": "68658", "properties": {"other_cities": "", "city": "Rising City", "state": "NE", "county": "Butler County"}}, {"geometry": {"type": "Point", "coordinates": [-96.91, 41.46]}, "type": "Feature", "id": "68659", "properties": {"other_cities": "", "city": "Rogers", "state": "NE", "county": "Colfax County"}}, {"geometry": {"type": "Point", "coordinates": [-97.86, 41.57]}, "type": "Feature", "id": "68660", "properties": {"other_cities": "", "city": "Saint Edward", "state": "NE", "county": "Boone County"}}, {"geometry": {"type": "Point", "coordinates": [-97.05, 41.44]}, "type": "Feature", "id": "68661", "properties": {"other_cities": "", "city": "Schuyler", "state": "NE", "county": "Colfax County"}}, {"geometry": {"type": "Point", "coordinates": [-97.42, 41.19]}, "type": "Feature", "id": "68662", "properties": {"other_cities": "", "city": "Shelby", "state": "NE", "county": "Polk County"}}, {"geometry": {"type": "Point", "coordinates": [-97.66, 41.33]}, "type": "Feature", "id": "68663", "properties": {"other_cities": "", "city": "Silver Creek", "state": "NE", "county": "Merrick County"}}, {"geometry": {"type": "Point", "coordinates": [-96.78, 41.7]}, "type": "Feature", "id": "68664", "properties": {"other_cities": "", "city": "Snyder", "state": "NE", "county": "Dodge County"}}, {"geometry": {"type": "Point", "coordinates": [-98.36, 41.68]}, "type": "Feature", "id": "68665", "properties": {"other_cities": "", "city": "Spalding", "state": "NE", "county": "Greeley County"}}, {"geometry": {"type": "Point", "coordinates": [-97.59, 41.11]}, "type": "Feature", "id": "68666", "properties": {"other_cities": "", "city": "Stromsburg", "state": "NE", "county": "Polk County"}}, {"geometry": {"type": "Point", "coordinates": [-97.3, 41.1]}, "type": "Feature", "id": "68667", "properties": {"other_cities": "Ulysses", "city": "Surprise", "state": "NE", "county": "Butler County"}}, {"geometry": {"type": "Point", "coordinates": [-97.2, 41.07]}, "type": "Feature", "id": "68669", "properties": {"other_cities": "", "city": "Ulysses", "state": "NE", "county": "Butler County"}}, {"geometry": {"type": "Point", "coordinates": [-97.41, 42.03]}, "type": "Feature", "id": "68701", "properties": {"other_cities": "Hadar", "city": "Norfolk", "state": "NE", "county": "Madison County"}}, {"geometry": {"type": "Point", "coordinates": [-97.41, 42.03]}, "type": "Feature", "id": "68702", "properties": {"other_cities": "", "city": "Norfolk", "state": "NE", "county": "Madison County"}}, {"geometry": {"type": "Point", "coordinates": [-96.84, 42.41]}, "type": "Feature", "id": "68710", "properties": {"other_cities": "", "city": "Allen", "state": "NE", "county": "Dixon County"}}, {"geometry": {"type": "Point", "coordinates": [-98.96, 42.23]}, "type": "Feature", "id": "68711", "properties": {"other_cities": "", "city": "Amelia", "state": "NE", "county": "Holt County"}}, {"geometry": {"type": "Point", "coordinates": [-98.97, 42.53]}, "type": "Feature", "id": "68713", "properties": {"other_cities": "", "city": "Atkinson", "state": "NE", "county": "Holt County"}}, {"geometry": {"type": "Point", "coordinates": [-99.53, 42.58]}, "type": "Feature", "id": "68714", "properties": {"other_cities": "Rose", "city": "Bassett", "state": "NE", "county": "Rock County"}}, {"geometry": {"type": "Point", "coordinates": [-97.59, 41.99]}, "type": "Feature", "id": "68715", "properties": {"other_cities": "", "city": "Battle Creek", "state": "NE", "county": "Madison County"}}, {"geometry": {"type": "Point", "coordinates": [-96.8, 41.93]}, "type": "Feature", "id": "68716", "properties": {"other_cities": "", "city": "Beemer", "state": "NE", "county": "Cuming County"}}, {"geometry": {"type": "Point", "coordinates": [-97.2, 42.41]}, "type": "Feature", "id": "68717", "properties": {"other_cities": "", "city": "Belden", "state": "NE", "county": "Cedar County"}}, {"geometry": {"type": "Point", "coordinates": [-97.64, 42.59]}, "type": "Feature", "id": "68718", "properties": {"other_cities": "", "city": "Bloomfield", "state": "NE", "county": "Knox County"}}, {"geometry": {"type": "Point", "coordinates": [-98.58, 42.83]}, "type": "Feature", "id": "68719", "properties": {"other_cities": "Gross", "city": "Bristow", "state": "NE", "county": "Boyd County"}}, {"geometry": {"type": "Point", "coordinates": [-97.97, 42.33]}, "type": "Feature", "id": "68720", "properties": {"other_cities": "", "city": "Brunswick", "state": "NE", "county": "Antelope County"}}, {"geometry": {"type": "Point", "coordinates": [-98.84, 42.91]}, "type": "Feature", "id": "68722", "properties": {"other_cities": "Anoka", "city": "Butte", "state": "NE", "county": "Boyd County"}}, {"geometry": {"type": "Point", "coordinates": [-97.19, 42.27]}, "type": "Feature", "id": "68723", "properties": {"other_cities": "", "city": "Carroll", "state": "NE", "county": "Wayne County"}}, {"geometry": {"type": "Point", "coordinates": [-97.87, 42.6]}, "type": "Feature", "id": "68724", "properties": {"other_cities": "", "city": "Center", "state": "NE", "county": "Knox County"}}, {"geometry": {"type": "Point", "coordinates": [-98.74, 42.2]}, "type": "Feature", "id": "68725", "properties": {"other_cities": "", "city": "Chambers", "state": "NE", "county": "Holt County"}}, {"geometry": {"type": "Point", "coordinates": [-98.18, 42.17]}, "type": "Feature", "id": "68726", "properties": {"other_cities": "", "city": "Clearwater", "state": "NE", "county": "Antelope County"}}, {"geometry": {"type": "Point", "coordinates": [-97.2, 42.5]}, "type": "Feature", "id": "68727", "properties": {"other_cities": "", "city": "Coleridge", "state": "NE", "county": "Cedar County"}}, {"geometry": {"type": "Point", "coordinates": [-96.98, 42.38]}, "type": "Feature", "id": "68728", "properties": {"other_cities": "", "city": "Concord", "state": "NE", "county": "Dixon County"}}, {"geometry": {"type": "Point", "coordinates": [-97.9, 42.46]}, "type": "Feature", "id": "68729", "properties": {"other_cities": "Bazile Mills", "city": "Creighton", "state": "NE", "county": "Knox County"}}, {"geometry": {"type": "Point", "coordinates": [-97.49, 42.73]}, "type": "Feature", "id": "68730", "properties": {"other_cities": "", "city": "Crofton", "state": "NE", "county": "Knox County"}}, {"geometry": {"type": "Point", "coordinates": [-96.41, 42.41]}, "type": "Feature", "id": "68731", "properties": {"other_cities": "", "city": "Dakota City", "state": "NE", "county": "Dakota County"}}, {"geometry": {"type": "Point", "coordinates": [-96.99, 42.41]}, "type": "Feature", "id": "68732", "properties": {"other_cities": "", "city": "Dixon", "state": "NE", "county": "Dixon County"}}, {"geometry": {"type": "Point", "coordinates": [-96.72, 42.27]}, "type": "Feature", "id": "68733", "properties": {"other_cities": "", "city": "Emerson", "state": "NE", "county": "Dakota County"}}, {"geometry": {"type": "Point", "coordinates": [-98.8, 42.47]}, "type": "Feature", "id": "68734", "properties": {"other_cities": "", "city": "Emmet", "state": "NE", "county": "Holt County"}}, {"geometry": {"type": "Point", "coordinates": [-98.34, 42.25]}, "type": "Feature", "id": "68735", "properties": {"other_cities": "", "city": "Ewing", "state": "NE", "county": "Holt County"}}, {"geometry": {"type": "Point", "coordinates": [-97.36, 42.69]}, "type": "Feature", "id": "68736", "properties": {"other_cities": "", "city": "Fordyce", "state": "NE", "county": "Cedar County"}}, {"geometry": {"type": "Point", "coordinates": [-97.45, 42.1]}, "type": "Feature", "id": "68738", "properties": {"other_cities": "", "city": "Hadar", "state": "NE", "county": "Pierce County"}}, {"geometry": {"type": "Point", "coordinates": [-97.26, 42.62]}, "type": "Feature", "id": "68739", "properties": {"other_cities": "", "city": "Hartington", "state": "NE", "county": "Cedar County"}}, {"geometry": {"type": "Point", "coordinates": [-97.3, 42.11]}, "type": "Feature", "id": "68740", "properties": {"other_cities": "", "city": "Hoskins", "state": "NE", "county": "Wayne County"}}, {"geometry": {"type": "Point", "coordinates": [-96.59, 42.38]}, "type": "Feature", "id": "68741", "properties": {"other_cities": "", "city": "Hubbard", "state": "NE", "county": "Dakota County"}}, {"geometry": {"type": "Point", "coordinates": [-98.52, 42.38]}, "type": "Feature", "id": "68742", "properties": {"other_cities": "", "city": "Inman", "state": "NE", "county": "Holt County"}}, {"geometry": {"type": "Point", "coordinates": [-96.56, 42.44]}, "type": "Feature", "id": "68743", "properties": {"other_cities": "", "city": "Jackson", "state": "NE", "county": "Dakota County"}}, {"geometry": {"type": "Point", "coordinates": [-97.09, 42.42]}, "type": "Feature", "id": "68745", "properties": {"other_cities": "", "city": "Laurel", "state": "NE", "county": "Cedar County"}}, {"geometry": {"type": "Point", "coordinates": [-98.46, 42.83]}, "type": "Feature", "id": "68746", "properties": {"other_cities": "Monowi", "city": "Lynch", "state": "NE", "county": "Boyd County"}}, {"geometry": {"type": "Point", "coordinates": [-97.46, 42.38]}, "type": "Feature", "id": "68747", "properties": {"other_cities": "", "city": "Mclean", "state": "NE", "county": "Pierce County"}}, {"geometry": {"type": "Point", "coordinates": [-97.45, 41.82]}, "type": "Feature", "id": "68748", "properties": {"other_cities": "", "city": "Madison", "state": "NE", "county": "Madison County"}}, {"geometry": {"type": "Point", "coordinates": [-97.46, 42.45]}, "type": "Feature", "id": "68749", "properties": {"other_cities": "", "city": "Magnet", "state": "NE", "county": "Cedar County"}}, {"geometry": {"type": "Point", "coordinates": [-96.98, 42.69]}, "type": "Feature", "id": "68751", "properties": {"other_cities": "", "city": "Maskell", "state": "NE", "county": "Dixon County"}}, {"geometry": {"type": "Point", "coordinates": [-97.73, 42.02]}, "type": "Feature", "id": "68752", "properties": {"other_cities": "", "city": "Meadow Grove", "state": "NE", "county": "Madison County"}}, {"geometry": {"type": "Point", "coordinates": [-99.4, 42.94]}, "type": "Feature", "id": "68753", "properties": {"other_cities": "", "city": "Mills", "state": "NE", "county": "Keya Paha County"}}, {"geometry": {"type": "Point", "coordinates": [-99.09, 42.96]}, "type": "Feature", "id": "68755", "properties": {"other_cities": "", "city": "Naper", "state": "NE", "county": "Boyd County"}}, {"geometry": {"type": "Point", "coordinates": [-98.02, 42.13]}, "type": "Feature", "id": "68756", "properties": {"other_cities": "", "city": "Neligh", "state": "NE", "county": "Antelope County"}}, {"geometry": {"type": "Point", "coordinates": [-96.87, 42.65]}, "type": "Feature", "id": "68757", "properties": {"other_cities": "Obert", "city": "Newcastle", "state": "NE", "county": "Dixon County"}}, {"geometry": {"type": "Point", "coordinates": [-97.77, 41.74]}, "type": "Feature", "id": "68758", "properties": {"other_cities": "", "city": "Newman Grove", "state": "NE", "county": "Madison County"}}, {"geometry": {"type": "Point", "coordinates": [-99.32, 42.6]}, "type": "Feature", "id": "68759", "properties": {"other_cities": "", "city": "Newport", "state": "NE", "county": "Rock County"}}, {"geometry": {"type": "Point", "coordinates": [-98.03, 42.75]}, "type": "Feature", "id": "68760", "properties": {"other_cities": "Verdel", "city": "Niobrara", "state": "NE", "county": "Knox County"}}, {"geometry": {"type": "Point", "coordinates": [-97.96, 42.07]}, "type": "Feature", "id": "68761", "properties": {"other_cities": "", "city": "Oakdale", "state": "NE", "county": "Antelope County"}}, {"geometry": {"type": "Point", "coordinates": [-98.64, 42.46]}, "type": "Feature", "id": "68763", "properties": {"other_cities": "O' Neill", "city": "Oneill", "state": "NE", "county": "Holt County"}}, {"geometry": {"type": "Point", "coordinates": [-98.24, 42.33]}, "type": "Feature", "id": "68764", "properties": {"other_cities": "", "city": "Orchard", "state": "NE", "county": "Antelope County"}}, {"geometry": {"type": "Point", "coordinates": [-97.59, 42.35]}, "type": "Feature", "id": "68765", "properties": {"other_cities": "Foster", "city": "Osmond", "state": "NE", "county": "Pierce County"}}, {"geometry": {"type": "Point", "coordinates": [-98.41, 42.39]}, "type": "Feature", "id": "68766", "properties": {"other_cities": "", "city": "Page", "state": "NE", "county": "Holt County"}}, {"geometry": {"type": "Point", "coordinates": [-97.52, 42.19]}, "type": "Feature", "id": "68767", "properties": {"other_cities": "", "city": "Pierce", "state": "NE", "county": "Pierce County"}}, {"geometry": {"type": "Point", "coordinates": [-97.05, 42.0]}, "type": "Feature", "id": "68768", "properties": {"other_cities": "", "city": "Pilger", "state": "NE", "county": "Stanton County"}}, {"geometry": {"type": "Point", "coordinates": [-97.78, 42.35]}, "type": "Feature", "id": "68769", "properties": {"other_cities": "", "city": "Plainview", "state": "NE", "county": "Pierce County"}}, {"geometry": {"type": "Point", "coordinates": [-96.7, 42.56]}, "type": "Feature", "id": "68770", "properties": {"other_cities": "", "city": "Ponca", "state": "NE", "county": "Dixon County"}}, {"geometry": {"type": "Point", "coordinates": [-97.35, 42.37]}, "type": "Feature", "id": "68771", "properties": {"other_cities": "Sholes", "city": "Randolph", "state": "NE", "county": "Cedar County"}}, {"geometry": {"type": "Point", "coordinates": [-98.12, 42.33]}, "type": "Feature", "id": "68773", "properties": {"other_cities": "", "city": "Royal", "state": "NE", "county": "Antelope County"}}, {"geometry": {"type": "Point", "coordinates": [-97.24, 42.8]}, "type": "Feature", "id": "68774", "properties": {"other_cities": "", "city": "Saint Helena", "state": "NE", "county": "Cedar County"}}, {"geometry": {"type": "Point", "coordinates": [-96.41, 42.46]}, "type": "Feature", "id": "68776", "properties": {"other_cities": "S Sioux City", "city": "South Sioux City", "state": "NE", "county": "Dakota County"}}, {"geometry": {"type": "Point", "coordinates": [-98.7, 42.87]}, "type": "Feature", "id": "68777", "properties": {"other_cities": "", "city": "Spencer", "state": "NE", "county": "Boyd County"}}, {"geometry": {"type": "Point", "coordinates": [-99.74, 42.82]}, "type": "Feature", "id": "68778", "properties": {"other_cities": "", "city": "Springview", "state": "NE", "county": "Keya Paha County"}}, {"geometry": {"type": "Point", "coordinates": [-97.22, 41.94]}, "type": "Feature", "id": "68779", "properties": {"other_cities": "", "city": "Stanton", "state": "NE", "county": "Stanton County"}}, {"geometry": {"type": "Point", "coordinates": [-99.14, 42.6]}, "type": "Feature", "id": "68780", "properties": {"other_cities": "", "city": "Stuart", "state": "NE", "county": "Holt County"}}, {"geometry": {"type": "Point", "coordinates": [-97.83, 42.04]}, "type": "Feature", "id": "68781", "properties": {"other_cities": "", "city": "Tilden", "state": "NE", "county": "Madison County"}}, {"geometry": {"type": "Point", "coordinates": [-98.03, 42.59]}, "type": "Feature", "id": "68783", "properties": {"other_cities": "", "city": "Verdigre", "state": "NE", "county": "Knox County"}}, {"geometry": {"type": "Point", "coordinates": [-96.86, 42.26]}, "type": "Feature", "id": "68784", "properties": {"other_cities": "", "city": "Wakefield", "state": "NE", "county": "Dixon County"}}, {"geometry": {"type": "Point", "coordinates": [-96.73, 42.45]}, "type": "Feature", "id": "68785", "properties": {"other_cities": "", "city": "Waterbury", "state": "NE", "county": "Dixon County"}}, {"geometry": {"type": "Point", "coordinates": [-97.53, 42.49]}, "type": "Feature", "id": "68786", "properties": {"other_cities": "", "city": "Wausa", "state": "NE", "county": "Knox County"}}, {"geometry": {"type": "Point", "coordinates": [-97.01, 42.23]}, "type": "Feature", "id": "68787", "properties": {"other_cities": "", "city": "Wayne", "state": "NE", "county": "Wayne County"}}, {"geometry": {"type": "Point", "coordinates": [-96.7, 41.83]}, "type": "Feature", "id": "68788", "properties": {"other_cities": "", "city": "West Point", "state": "NE", "county": "Cuming County"}}, {"geometry": {"type": "Point", "coordinates": [-97.96, 42.51]}, "type": "Feature", "id": "68789", "properties": {"other_cities": "", "city": "Winnetoon", "state": "NE", "county": "Knox County"}}, {"geometry": {"type": "Point", "coordinates": [-97.17, 42.17]}, "type": "Feature", "id": "68790", "properties": {"other_cities": "", "city": "Winside", "state": "NE", "county": "Wayne County"}}, {"geometry": {"type": "Point", "coordinates": [-96.91, 41.98]}, "type": "Feature", "id": "68791", "properties": {"other_cities": "", "city": "Wisner", "state": "NE", "county": "Cuming County"}}, {"geometry": {"type": "Point", "coordinates": [-97.16, 42.73]}, "type": "Feature", "id": "68792", "properties": {"other_cities": "", "city": "Wynot", "state": "NE", "county": "Cedar County"}}, {"geometry": {"type": "Point", "coordinates": [-98.36, 40.92]}, "type": "Feature", "id": "68801", "properties": {"other_cities": "", "city": "Grand Island", "state": "NE", "county": "Hall County"}}, {"geometry": {"type": "Point", "coordinates": [-98.36, 40.92]}, "type": "Feature", "id": "68802", "properties": {"other_cities": "", "city": "Grand Island", "state": "NE", "county": "Hall County"}}, {"geometry": {"type": "Point", "coordinates": [-98.36, 40.92]}, "type": "Feature", "id": "68803", "properties": {"other_cities": "", "city": "Grand Island", "state": "NE", "county": "Hall County"}}, {"geometry": {"type": "Point", "coordinates": [-98.46, 40.86]}, "type": "Feature", "id": "68810", "properties": {"other_cities": "", "city": "Alda", "state": "NE", "county": "Hall County"}}, {"geometry": {"type": "Point", "coordinates": [-99.26, 40.83]}, "type": "Feature", "id": "68812", "properties": {"other_cities": "", "city": "Amherst", "state": "NE", "county": "Buffalo County"}}, {"geometry": {"type": "Point", "coordinates": [-99.86, 41.61]}, "type": "Feature", "id": "68813", "properties": {"other_cities": "Milburn", "city": "Anselmo", "state": "NE", "county": "Custer County"}}, {"geometry": {"type": "Point", "coordinates": [-99.38, 41.28]}, "type": "Feature", "id": "68814", "properties": {"other_cities": "Berwyn, Weissert", "city": "Ansley", "state": "NE", "county": "Custer County"}}, {"geometry": {"type": "Point", "coordinates": [-99.12, 41.42]}, "type": "Feature", "id": "68815", "properties": {"other_cities": "", "city": "Arcadia", "state": "NE", "county": "Valley County"}}, {"geometry": {"type": "Point", "coordinates": [-98.13, 41.16]}, "type": "Feature", "id": "68816", "properties": {"other_cities": "", "city": "Archer", "state": "NE", "county": "Merrick County"}}, {"geometry": {"type": "Point", "coordinates": [-98.79, 41.24]}, "type": "Feature", "id": "68817", "properties": {"other_cities": "", "city": "Ashton", "state": "NE", "county": "Sherman County"}}, {"geometry": {"type": "Point", "coordinates": [-98.0, 40.86]}, "type": "Feature", "id": "68818", "properties": {"other_cities": "", "city": "Aurora", "state": "NE", "county": "Hamilton County"}}, {"geometry": {"type": "Point", "coordinates": [-98.71, 41.07]}, "type": "Feature", "id": "68820", "properties": {"other_cities": "", "city": "Boelus", "state": "NE", "county": "Howard County"}}, {"geometry": {"type": "Point", "coordinates": [-99.86, 41.93]}, "type": "Feature", "id": "68821", "properties": {"other_cities": "", "city": "Brewster", "state": "NE", "county": "Blaine County"}}, {"geometry": {"type": "Point", "coordinates": [-99.63, 41.4]}, "type": "Feature", "id": "68822", "properties": {"other_cities": "", "city": "Broken Bow", "state": "NE", "county": "Custer County"}}, {"geometry": {"type": "Point", "coordinates": [-99.13, 41.78]}, "type": "Feature", "id": "68823", "properties": {"other_cities": "", "city": "Burwell", "state": "NE", "county": "Garfield County"}}, {"geometry": {"type": "Point", "coordinates": [-98.6, 41.0]}, "type": "Feature", "id": "68824", "properties": {"other_cities": "", "city": "Cairo", "state": "NE", "county": "Hall County"}}, {"geometry": {"type": "Point", "coordinates": [-99.92, 41.29]}, "type": "Feature", "id": "68825", "properties": {"other_cities": "", "city": "Callaway", "state": "NE", "county": "Custer County"}}, {"geometry": {"type": "Point", "coordinates": [-98.0, 41.11]}, "type": "Feature", "id": "68826", "properties": {"other_cities": "", "city": "Central City", "state": "NE", "county": "Merrick County"}}, {"geometry": {"type": "Point", "coordinates": [-98.15, 41.02]}, "type": "Feature", "id": "68827", "properties": {"other_cities": "", "city": "Chapman", "state": "NE", "county": "Merrick County"}}, {"geometry": {"type": "Point", "coordinates": [-99.24, 41.55]}, "type": "Feature", "id": "68828", "properties": {"other_cities": "", "city": "Comstock", "state": "NE", "county": "Custer County"}}, {"geometry": {"type": "Point", "coordinates": [-98.54, 41.11]}, "type": "Feature", "id": "68831", "properties": {"other_cities": "", "city": "Dannebrog", "state": "NE", "county": "Howard County"}}, {"geometry": {"type": "Point", "coordinates": [-98.37, 40.77]}, "type": "Feature", "id": "68832", "properties": {"other_cities": "", "city": "Doniphan", "state": "NE", "county": "Hall County"}}, {"geometry": {"type": "Point", "coordinates": [-100.1, 41.82]}, "type": "Feature", "id": "68833", "properties": {"other_cities": "", "city": "Dunning", "state": "NE", "county": "Blaine County"}}, {"geometry": {"type": "Point", "coordinates": [-99.62, 41.01]}, "type": "Feature", "id": "68834", "properties": {"other_cities": "", "city": "Eddyville", "state": "NE", "county": "Dawson County"}}, {"geometry": {"type": "Point", "coordinates": [-98.56, 41.28]}, "type": "Feature", "id": "68835", "properties": {"other_cities": "Cotesfield", "city": "Elba", "state": "NE", "county": "Howard County"}}, {"geometry": {"type": "Point", "coordinates": [-99.37, 40.71]}, "type": "Feature", "id": "68836", "properties": {"other_cities": "", "city": "Elm Creek", "state": "NE", "county": "Buffalo County"}}, {"geometry": {"type": "Point", "coordinates": [-99.0, 41.67]}, "type": "Feature", "id": "68837", "properties": {"other_cities": "", "city": "Elyria", "state": "NE", "county": "Valley County"}}, {"geometry": {"type": "Point", "coordinates": [-98.62, 41.21]}, "type": "Feature", "id": "68838", "properties": {"other_cities": "", "city": "Farwell", "state": "NE", "county": "Howard County"}}, {"geometry": {"type": "Point", "coordinates": [-98.84, 40.74]}, "type": "Feature", "id": "68840", "properties": {"other_cities": "", "city": "Gibbon", "state": "NE", "county": "Buffalo County"}}, {"geometry": {"type": "Point", "coordinates": [-98.15, 40.77]}, "type": "Feature", "id": "68841", "properties": {"other_cities": "", "city": "Giltner", "state": "NE", "county": "Hamilton County"}}, {"geometry": {"type": "Point", "coordinates": [-98.53, 41.54]}, "type": "Feature", "id": "68842", "properties": {"other_cities": "", "city": "Greeley", "state": "NE", "county": "Greeley County"}}, {"geometry": {"type": "Point", "coordinates": [-97.88, 40.88]}, "type": "Feature", "id": "68843", "properties": {"other_cities": "", "city": "Hampton", "state": "NE", "county": "Hamilton County"}}, {"geometry": {"type": "Point", "coordinates": [-99.07, 41.09]}, "type": "Feature", "id": "68844", "properties": {"other_cities": "", "city": "Hazard", "state": "NE", "county": "Sherman County"}}, {"geometry": {"type": "Point", "coordinates": [-99.08, 40.7]}, "type": "Feature", "id": "68845", "properties": {"other_cities": "", "city": "Kearney", "state": "NE", "county": "Buffalo County"}}, {"geometry": {"type": "Point", "coordinates": [-97.89, 41.07]}, "type": "Feature", "id": "68846", "properties": {"other_cities": "", "city": "Hordville", "state": "NE", "county": "Hamilton County"}}, {"geometry": {"type": "Point", "coordinates": [-99.08, 40.7]}, "type": "Feature", "id": "68847", "properties": {"other_cities": "", "city": "Kearney", "state": "NE", "county": "Buffalo County"}}, {"geometry": {"type": "Point", "coordinates": [-99.08, 40.7]}, "type": "Feature", "id": "68848", "properties": {"other_cities": "", "city": "Kearney", "state": "NE", "county": "Buffalo County"}}, {"geometry": {"type": "Point", "coordinates": [-99.08, 40.7]}, "type": "Feature", "id": "68849", "properties": {"other_cities": "", "city": "Kearney", "state": "NE", "county": "Buffalo County"}}, {"geometry": {"type": "Point", "coordinates": [-99.74, 40.77]}, "type": "Feature", "id": "68850", "properties": {"other_cities": "", "city": "Lexington", "state": "NE", "county": "Dawson County"}}, {"geometry": {"type": "Point", "coordinates": [-99.15, 41.15]}, "type": "Feature", "id": "68852", "properties": {"other_cities": "", "city": "Litchfield", "state": "NE", "county": "Sherman County"}}, {"geometry": {"type": "Point", "coordinates": [-98.96, 41.27]}, "type": "Feature", "id": "68853", "properties": {"other_cities": "", "city": "Loup City", "state": "NE", "county": "Sherman County"}}, {"geometry": {"type": "Point", "coordinates": [-98.0, 41.0]}, "type": "Feature", "id": "68854", "properties": {"other_cities": "", "city": "Marquette", "state": "NE", "county": "Hamilton County"}}, {"geometry": {"type": "Point", "coordinates": [-99.29, 41.22]}, "type": "Feature", "id": "68855", "properties": {"other_cities": "", "city": "Mason City", "state": "NE", "county": "Custer County"}}, {"geometry": {"type": "Point", "coordinates": [-99.76, 41.48]}, "type": "Feature", "id": "68856", "properties": {"other_cities": "", "city": "Merna", "state": "NE", "county": "Custer County"}}, {"geometry": {"type": "Point", "coordinates": [-99.39, 40.92]}, "type": "Feature", "id": "68858", "properties": {"other_cities": "", "city": "Miller", "state": "NE", "county": "Buffalo County"}}, {"geometry": {"type": "Point", "coordinates": [-98.77, 41.49]}, "type": "Feature", "id": "68859", "properties": {"other_cities": "", "city": "North Loup", "state": "NE", "county": "Valley County"}}, {"geometry": {"type": "Point", "coordinates": [-99.76, 41.14]}, "type": "Feature", "id": "68860", "properties": {"other_cities": "", "city": "Oconto", "state": "NE", "county": "Custer County"}}, {"geometry": {"type": "Point", "coordinates": [-99.25, 40.7]}, "type": "Feature", "id": "68861", "properties": {"other_cities": "", "city": "Odessa", "state": "NE", "county": "Buffalo County"}}, {"geometry": {"type": "Point", "coordinates": [-98.92, 41.6]}, "type": "Feature", "id": "68862", "properties": {"other_cities": "", "city": "Ord", "state": "NE", "county": "Valley County"}}, {"geometry": {"type": "Point", "coordinates": [-99.53, 40.74]}, "type": "Feature", "id": "68863", "properties": {"other_cities": "", "city": "Overton", "state": "NE", "county": "Dawson County"}}, {"geometry": {"type": "Point", "coordinates": [-98.21, 41.22]}, "type": "Feature", "id": "68864", "properties": {"other_cities": "", "city": "Palmer", "state": "NE", "county": "Merrick County"}}, {"geometry": {"type": "Point", "coordinates": [-98.21, 40.89]}, "type": "Feature", "id": "68865", "properties": {"other_cities": "", "city": "Phillips", "state": "NE", "county": "Hamilton County"}}, {"geometry": {"type": "Point", "coordinates": [-99.08, 40.97]}, "type": "Feature", "id": "68866", "properties": {"other_cities": "", "city": "Pleasanton", "state": "NE", "county": "Buffalo County"}}, {"geometry": {"type": "Point", "coordinates": [-98.91, 41.02]}, "type": "Feature", "id": "68869", "properties": {"other_cities": "", "city": "Ravenna", "state": "NE", "county": "Buffalo County"}}, {"geometry": {"type": "Point", "coordinates": [-99.16, 40.78]}, "type": "Feature", "id": "68870", "properties": {"other_cities": "", "city": "Riverdale", "state": "NE", "county": "Buffalo County"}}, {"geometry": {"type": "Point", "coordinates": [-98.83, 41.11]}, "type": "Feature", "id": "68871", "properties": {"other_cities": "", "city": "Rockville", "state": "NE", "county": "Sherman County"}}, {"geometry": {"type": "Point", "coordinates": [-98.36, 41.09]}, "type": "Feature", "id": "68872", "properties": {"other_cities": "", "city": "Saint Libory", "state": "NE", "county": "Howard County"}}, {"geometry": {"type": "Point", "coordinates": [-98.45, 41.21]}, "type": "Feature", "id": "68873", "properties": {"other_cities": "", "city": "Saint Paul", "state": "NE", "county": "Howard County"}}, {"geometry": {"type": "Point", "coordinates": [-99.37, 41.64]}, "type": "Feature", "id": "68874", "properties": {"other_cities": "", "city": "Sargent", "state": "NE", "county": "Custer County"}}, {"geometry": {"type": "Point", "coordinates": [-98.7, 41.46]}, "type": "Feature", "id": "68875", "properties": {"other_cities": "", "city": "Scotia", "state": "NE", "county": "Greeley County"}}, {"geometry": {"type": "Point", "coordinates": [-98.73, 40.77]}, "type": "Feature", "id": "68876", "properties": {"other_cities": "", "city": "Shelton", "state": "NE", "county": "Buffalo County"}}, {"geometry": {"type": "Point", "coordinates": [-99.5, 40.94]}, "type": "Feature", "id": "68878", "properties": {"other_cities": "", "city": "Sumner", "state": "NE", "county": "Dawson County"}}, {"geometry": {"type": "Point", "coordinates": [-99.38, 41.76]}, "type": "Feature", "id": "68879", "properties": {"other_cities": "Almeria", "city": "Taylor", "state": "NE", "county": "Loup County"}}, {"geometry": {"type": "Point", "coordinates": [-99.39, 41.39]}, "type": "Feature", "id": "68881", "properties": {"other_cities": "", "city": "Westerville", "state": "NE", "county": "Custer County"}}, {"geometry": {"type": "Point", "coordinates": [-98.39, 41.4]}, "type": "Feature", "id": "68882", "properties": {"other_cities": "", "city": "Wolbach", "state": "NE", "county": "Greeley County"}}, {"geometry": {"type": "Point", "coordinates": [-98.59, 40.82]}, "type": "Feature", "id": "68883", "properties": {"other_cities": "Prosser", "city": "Wood River", "state": "NE", "county": "Hall County"}}, {"geometry": {"type": "Point", "coordinates": [-98.39, 40.58]}, "type": "Feature", "id": "68901", "properties": {"other_cities": "", "city": "Hastings", "state": "NE", "county": "Adams County"}}, {"geometry": {"type": "Point", "coordinates": [-98.39, 40.58]}, "type": "Feature", "id": "68902", "properties": {"other_cities": "", "city": "Hastings", "state": "NE", "county": "Adams County"}}, {"geometry": {"type": "Point", "coordinates": [-99.36, 40.1]}, "type": "Feature", "id": "68920", "properties": {"other_cities": "", "city": "Alma", "state": "NE", "county": "Harlan County"}}, {"geometry": {"type": "Point", "coordinates": [-99.89, 40.3]}, "type": "Feature", "id": "68922", "properties": {"other_cities": "", "city": "Arapahoe", "state": "NE", "county": "Furnas County"}}, {"geometry": {"type": "Point", "coordinates": [-99.47, 40.36]}, "type": "Feature", "id": "68923", "properties": {"other_cities": "", "city": "Atlanta", "state": "NE", "county": "Phelps County"}}, {"geometry": {"type": "Point", "coordinates": [-99.12, 40.47]}, "type": "Feature", "id": "68924", "properties": {"other_cities": "", "city": "Axtell", "state": "NE", "county": "Kearney County"}}, {"geometry": {"type": "Point", "coordinates": [-98.44, 40.43]}, "type": "Feature", "id": "68925", "properties": {"other_cities": "", "city": "Ayr", "state": "NE", "county": "Adams County"}}, {"geometry": {"type": "Point", "coordinates": [-99.82, 40.13]}, "type": "Feature", "id": "68926", "properties": {"other_cities": "", "city": "Beaver City", "state": "NE", "county": "Furnas County"}}, {"geometry": {"type": "Point", "coordinates": [-99.63, 40.52]}, "type": "Feature", "id": "68927", "properties": {"other_cities": "", "city": "Bertrand", "state": "NE", "county": "Phelps County"}}, {"geometry": {"type": "Point", "coordinates": [-98.59, 40.32]}, "type": "Feature", "id": "68928", "properties": {"other_cities": "", "city": "Bladen", "state": "NE", "county": "Webster County"}}, {"geometry": {"type": "Point", "coordinates": [-99.03, 40.09]}, "type": "Feature", "id": "68929", "properties": {"other_cities": "", "city": "Bloomington", "state": "NE", "county": "Franklin County"}}, {"geometry": {"type": "Point", "coordinates": [-98.44, 40.33]}, "type": "Feature", "id": "68930", "properties": {"other_cities": "Cowles, Rosemont", "city": "Blue Hill", "state": "NE", "county": "Webster County"}}, {"geometry": {"type": "Point", "coordinates": [-98.73, 40.29]}, "type": "Feature", "id": "68932", "properties": {"other_cities": "", "city": "Campbell", "state": "NE", "county": "Franklin County"}}, {"geometry": {"type": "Point", "coordinates": [-98.05, 40.52]}, "type": "Feature", "id": "68933", "properties": {"other_cities": "", "city": "Clay Center", "state": "NE", "county": "Clay County"}}, {"geometry": {"type": "Point", "coordinates": [-98.13, 40.35]}, "type": "Feature", "id": "68934", "properties": {"other_cities": "", "city": "Deweese", "state": "NE", "county": "Clay County"}}, {"geometry": {"type": "Point", "coordinates": [-97.97, 40.36]}, "type": "Feature", "id": "68935", "properties": {"other_cities": "", "city": "Edgar", "state": "NE", "county": "Clay County"}}, {"geometry": {"type": "Point", "coordinates": [-99.77, 40.27]}, "type": "Feature", "id": "68936", "properties": {"other_cities": "", "city": "Edison", "state": "NE", "county": "Furnas County"}}, {"geometry": {"type": "Point", "coordinates": [-99.86, 40.58]}, "type": "Feature", "id": "68937", "properties": {"other_cities": "Johnson Lake", "city": "Elwood", "state": "NE", "county": "Gosper County"}}, {"geometry": {"type": "Point", "coordinates": [-98.1, 40.43]}, "type": "Feature", "id": "68938", "properties": {"other_cities": "", "city": "Fairfield", "state": "NE", "county": "Clay County"}}, {"geometry": {"type": "Point", "coordinates": [-98.95, 40.09]}, "type": "Feature", "id": "68939", "properties": {"other_cities": "", "city": "Franklin", "state": "NE", "county": "Franklin County"}}, {"geometry": {"type": "Point", "coordinates": [-99.24, 40.46]}, "type": "Feature", "id": "68940", "properties": {"other_cities": "", "city": "Funk", "state": "NE", "county": "Phelps County"}}, {"geometry": {"type": "Point", "coordinates": [-98.25, 40.5]}, "type": "Feature", "id": "68941", "properties": {"other_cities": "", "city": "Glenvil", "state": "NE", "county": "Clay County"}}, {"geometry": {"type": "Point", "coordinates": [-98.32, 40.07]}, "type": "Feature", "id": "68942", "properties": {"other_cities": "", "city": "Guide Rock", "state": "NE", "county": "Webster County"}}, {"geometry": {"type": "Point", "coordinates": [-97.92, 40.01]}, "type": "Feature", "id": "68943", "properties": {"other_cities": "", "city": "Hardy", "state": "NE", "county": "Nuckolls County"}}, {"geometry": {"type": "Point", "coordinates": [-98.09, 40.61]}, "type": "Feature", "id": "68944", "properties": {"other_cities": "", "city": "Harvard", "state": "NE", "county": "Clay County"}}, {"geometry": {"type": "Point", "coordinates": [-98.78, 40.56]}, "type": "Feature", "id": "68945", "properties": {"other_cities": "", "city": "Heartwell", "state": "NE", "county": "Kearney County"}}, {"geometry": {"type": "Point", "coordinates": [-99.97, 40.13]}, "type": "Feature", "id": "68946", "properties": {"other_cities": "", "city": "Hendley", "state": "NE", "county": "Furnas County"}}, {"geometry": {"type": "Point", "coordinates": [-99.04, 40.33]}, "type": "Feature", "id": "68947", "properties": {"other_cities": "", "city": "Hildreth", "state": "NE", "county": "Franklin County"}}, {"geometry": {"type": "Point", "coordinates": [-100.01, 40.3]}, "type": "Feature", "id": "68948", "properties": {"other_cities": "", "city": "Holbrook", "state": "NE", "county": "Furnas County"}}, {"geometry": {"type": "Point", "coordinates": [-99.37, 40.44]}, "type": "Feature", "id": "68949", "properties": {"other_cities": "", "city": "Holdrege", "state": "NE", "county": "Phelps County"}}, {"geometry": {"type": "Point", "coordinates": [-98.65, 40.46]}, "type": "Feature", "id": "68950", "properties": {"other_cities": "", "city": "Holstein", "state": "NE", "county": "Adams County"}}, {"geometry": {"type": "Point", "coordinates": [-98.63, 40.09]}, "type": "Feature", "id": "68952", "properties": {"other_cities": "", "city": "Inavale", "state": "NE", "county": "Webster County"}}, {"geometry": {"type": "Point", "coordinates": [-98.22, 40.59]}, "type": "Feature", "id": "68954", "properties": {"other_cities": "", "city": "Inland", "state": "NE", "county": "Clay County"}}, {"geometry": {"type": "Point", "coordinates": [-98.5, 40.58]}, "type": "Feature", "id": "68955", "properties": {"other_cities": "", "city": "Juniata", "state": "NE", "county": "Adams County"}}, {"geometry": {"type": "Point", "coordinates": [-98.65, 40.61]}, "type": "Feature", "id": "68956", "properties": {"other_cities": "", "city": "Kenesaw", "state": "NE", "county": "Adams County"}}, {"geometry": {"type": "Point", "coordinates": [-98.25, 40.29]}, "type": "Feature", "id": "68957", "properties": {"other_cities": "", "city": "Lawrence", "state": "NE", "county": "Nuckolls County"}}, {"geometry": {"type": "Point", "coordinates": [-99.5, 40.47]}, "type": "Feature", "id": "68958", "properties": {"other_cities": "", "city": "Loomis", "state": "NE", "county": "Phelps County"}}, {"geometry": {"type": "Point", "coordinates": [-98.95, 40.5]}, "type": "Feature", "id": "68959", "properties": {"other_cities": "Norman", "city": "Minden", "state": "NE", "county": "Kearney County"}}, {"geometry": {"type": "Point", "coordinates": [-99.13, 40.07]}, "type": "Feature", "id": "68960", "properties": {"other_cities": "", "city": "Naponee", "state": "NE", "county": "Franklin County"}}, {"geometry": {"type": "Point", "coordinates": [-98.06, 40.2]}, "type": "Feature", "id": "68961", "properties": {"other_cities": "Nora", "city": "Nelson", "state": "NE", "county": "Nuckolls County"}}, {"geometry": {"type": "Point", "coordinates": [-97.9, 40.23]}, "type": "Feature", "id": "68964", "properties": {"other_cities": "", "city": "Oak", "state": "NE", "county": "Nuckolls County"}}, {"geometry": {"type": "Point", "coordinates": [-99.45, 40.13]}, "type": "Feature", "id": "68966", "properties": {"other_cities": "", "city": "Orleans", "state": "NE", "county": "Harlan County"}}, {"geometry": {"type": "Point", "coordinates": [-99.63, 40.25]}, "type": "Feature", "id": "68967", "properties": {"other_cities": "", "city": "Oxford", "state": "NE", "county": "Harlan County"}}, {"geometry": {"type": "Point", "coordinates": [-99.29, 40.31]}, "type": "Feature", "id": "68969", "properties": {"other_cities": "Holdrege", "city": "Ragan", "state": "NE", "county": "Harlan County"}}, {"geometry": {"type": "Point", "coordinates": [-98.52, 40.08]}, "type": "Feature", "id": "68970", "properties": {"other_cities": "", "city": "Red Cloud", "state": "NE", "county": "Webster County"}}, {"geometry": {"type": "Point", "coordinates": [-99.22, 40.1]}, "type": "Feature", "id": "68971", "properties": {"other_cities": "Huntley, Repub City", "city": "Republican City", "state": "NE", "county": "Harlan County"}}, {"geometry": {"type": "Point", "coordinates": [-98.75, 40.08]}, "type": "Feature", "id": "68972", "properties": {"other_cities": "", "city": "Riverton", "state": "NE", "county": "Franklin County"}}, {"geometry": {"type": "Point", "coordinates": [-98.55, 40.47]}, "type": "Feature", "id": "68973", "properties": {"other_cities": "", "city": "Roseland", "state": "NE", "county": "Adams County"}}, {"geometry": {"type": "Point", "coordinates": [-97.86, 40.14]}, "type": "Feature", "id": "68974", "properties": {"other_cities": "", "city": "Ruskin", "state": "NE", "county": "Nuckolls County"}}, {"geometry": {"type": "Point", "coordinates": [-97.93, 40.6]}, "type": "Feature", "id": "68975", "properties": {"other_cities": "", "city": "Saronville", "state": "NE", "county": "Clay County"}}, {"geometry": {"type": "Point", "coordinates": [-99.74, 40.57]}, "type": "Feature", "id": "68976", "properties": {"other_cities": "", "city": "Smithfield", "state": "NE", "county": "Gosper County"}}, {"geometry": {"type": "Point", "coordinates": [-99.59, 40.13]}, "type": "Feature", "id": "68977", "properties": {"other_cities": "", "city": "Stamford", "state": "NE", "county": "Harlan County"}}, {"geometry": {"type": "Point", "coordinates": [-98.06, 40.02]}, "type": "Feature", "id": "68978", "properties": {"other_cities": "", "city": "Superior", "state": "NE", "county": "Nuckolls County"}}, {"geometry": {"type": "Point", "coordinates": [-97.85, 40.6]}, "type": "Feature", "id": "68979", "properties": {"other_cities": "", "city": "Sutton", "state": "NE", "county": "Clay County"}}, {"geometry": {"type": "Point", "coordinates": [-98.27, 40.68]}, "type": "Feature", "id": "68980", "properties": {"other_cities": "", "city": "Trumbull", "state": "NE", "county": "Clay County"}}, {"geometry": {"type": "Point", "coordinates": [-98.9, 40.31]}, "type": "Feature", "id": "68981", "properties": {"other_cities": "", "city": "Upland", "state": "NE", "county": "Franklin County"}}, {"geometry": {"type": "Point", "coordinates": [-99.16, 40.36]}, "type": "Feature", "id": "68982", "properties": {"other_cities": "", "city": "Wilcox", "state": "NE", "county": "Kearney County"}}, {"geometry": {"type": "Point", "coordinates": [-100.62, 40.2]},