{"type": "FeatureCollection", "features": [{"geometry": {"type": "Point", "coordinates": [-106.47, 35.38]}, "type": "Feature", "id": "87001", "properties": {"other_cities": "Budaghers, San Felipe Pb", "city": "Algodones", "state": "NM", "county": "Sandoval County"}}, {"geometry": {"type": "Point", "coordinates": [-106.77, 34.65]}, "type": "Feature", "id": "87002", "properties": {"other_cities": "", "city": "Belen", "state": "NM", "county": "Valencia County"}}, {"geometry": {"type": "Point", "coordinates": [-106.55, 35.31]}, "type": "Feature", "id": "87004", "properties": {"other_cities": "Sandia Pueblo, Santa Ana Pue, Santa Ana Pueblo, Tamaya", "city": "Bernalillo", "state": "NM", "county": "Sandoval County"}}, {"geometry": {"type": "Point", "coordinates": [-108.23, 35.14]}, "type": "Feature", "id": "87005", "properties": {"other_cities": "", "city": "Bluewater", "state": "NM", "county": "Cibola County"}}, {"geometry": {"type": "Point", "coordinates": [-106.8, 34.47]}, "type": "Feature", "id": "87006", "properties": {"other_cities": "", "city": "Bosque", "state": "NM", "county": "Socorro County"}}, {"geometry": {"type": "Point", "coordinates": [-107.41, 35.0]}, "type": "Feature", "id": "87007", "properties": {"other_cities": "Paraje, Seama", "city": "Casa Blanca", "state": "NM", "county": "Cibola County"}}, {"geometry": {"type": "Point", "coordinates": [-106.37, 35.1]}, "type": "Feature", "id": "87008", "properties": {"other_cities": "", "city": "Cedar Crest", "state": "NM", "county": "Bernalillo County"}}, {"geometry": {"type": "Point", "coordinates": [-105.7, 34.37]}, "type": "Feature", "id": "87009", "properties": {"other_cities": "", "city": "Cedarvale", "state": "NM", "county": "Torrance County"}}, {"geometry": {"type": "Point", "coordinates": [-106.14, 35.37]}, "type": "Feature", "id": "87010", "properties": {"other_cities": "Madrid", "city": "Cerrillos", "state": "NM", "county": "Santa Fe County"}}, {"geometry": {"type": "Point", "coordinates": [-105.99, 34.14]}, "type": "Feature", "id": "87011", "properties": {"other_cities": "", "city": "Claunch", "state": "NM", "county": "Socorro County"}}, {"geometry": {"type": "Point", "coordinates": [-106.61, 36.16]}, "type": "Feature", "id": "87012", "properties": {"other_cities": "", "city": "Coyote", "state": "NM", "county": "Rio Arriba County"}}, {"geometry": {"type": "Point", "coordinates": [-106.95, 36.02]}, "type": "Feature", "id": "87013", "properties": {"other_cities": "Ojo Encino", "city": "Cuba", "state": "NM", "county": "Sandoval County"}}, {"geometry": {"type": "Point", "coordinates": [-107.51, 35.08]}, "type": "Feature", "id": "87014", "properties": {"other_cities": "Seboyeta", "city": "Cubero", "state": "NM", "county": "Cibola County"}}, {"geometry": {"type": "Point", "coordinates": [-106.17, 35.08]}, "type": "Feature", "id": "87015", "properties": {"other_cities": "", "city": "Edgewood", "state": "NM", "county": "Santa Fe County"}}, {"geometry": {"type": "Point", "coordinates": [-106.06, 34.76]}, "type": "Feature", "id": "87016", "properties": {"other_cities": "Tajique", "city": "Estancia", "state": "NM", "county": "Torrance County"}}, {"geometry": {"type": "Point", "coordinates": [-106.85, 36.23]}, "type": "Feature", "id": "87017", "properties": {"other_cities": "", "city": "Gallina", "state": "NM", "county": "Rio Arriba County"}}, {"geometry": {"type": "Point", "coordinates": [-106.93, 36.13]}, "type": "Feature", "id": "87018", "properties": {"other_cities": "", "city": "Counselor", "state": "NM", "county": "Sandoval County"}}, {"geometry": {"type": "Point", "coordinates": [-107.83, 35.15]}, "type": "Feature", "id": "87020", "properties": {"other_cities": "San Mateo", "city": "Grants", "state": "NM", "county": "Cibola County"}}, {"geometry": {"type": "Point", "coordinates": [-107.89, 35.18]}, "type": "Feature", "id": "87021", "properties": {"other_cities": "", "city": "Milan", "state": "NM", "county": "Cibola County"}}, {"geometry": {"type": "Point", "coordinates": [-106.82, 34.91]}, "type": "Feature", "id": "87022", "properties": {"other_cities": "", "city": "Isleta", "state": "NM", "county": "Bernalillo County"}}, {"geometry": {"type": "Point", "coordinates": [-106.76, 34.61]}, "type": "Feature", "id": "87023", "properties": {"other_cities": "", "city": "Jarales", "state": "NM", "county": "Valencia County"}}, {"geometry": {"type": "Point", "coordinates": [-106.72, 35.61]}, "type": "Feature", "id": "87024", "properties": {"other_cities": "", "city": "Jemez Pueblo", "state": "NM", "county": "Sandoval County"}}, {"geometry": {"type": "Point", "coordinates": [-106.68, 35.77]}, "type": "Feature", "id": "87025", "properties": {"other_cities": "", "city": "Jemez Springs", "state": "NM", "county": "Sandoval County"}}, {"geometry": {"type": "Point", "coordinates": [-107.39, 35.03]}, "type": "Feature", "id": "87026", "properties": {"other_cities": "Canoncito, Mesita, Old Laguna, Tohajiilee", "city": "Laguna", "state": "NM", "county": "Cibola County"}}, {"geometry": {"type": "Point", "coordinates": [-106.97, 36.08]}, "type": "Feature", "id": "87027", "properties": {"other_cities": "Llaves", "city": "La Jara", "state": "NM", "county": "Sandoval County"}}, {"geometry": {"type": "Point", "coordinates": [-106.84, 34.34]}, "type": "Feature", "id": "87028", "properties": {"other_cities": "", "city": "La Joya", "state": "NM", "county": "Socorro County"}}, {"geometry": {"type": "Point", "coordinates": [-107.04, 36.3]}, "type": "Feature", "id": "87029", "properties": {"other_cities": "", "city": "Lindrith", "state": "NM", "county": "Rio Arriba County"}}, {"geometry": {"type": "Point", "coordinates": [-106.73, 34.81]}, "type": "Feature", "id": "87031", "properties": {"other_cities": "", "city": "Los Lunas", "state": "NM", "county": "Valencia County"}}, {"geometry": {"type": "Point", "coordinates": [-106.04, 34.85]}, "type": "Feature", "id": "87032", "properties": {"other_cities": "", "city": "Mcintosh", "state": "NM", "county": "Torrance County"}}, {"geometry": {"type": "Point", "coordinates": [-107.58, 34.9]}, "type": "Feature", "id": "87034", "properties": {"other_cities": "Acoma, Pblo Of Acoma", "city": "Pueblo Of Acoma", "state": "NM", "county": "Cibola County"}}, {"geometry": {"type": "Point", "coordinates": [-106.04, 35.0]}, "type": "Feature", "id": "87035", "properties": {"other_cities": "", "city": "Moriarty", "state": "NM", "county": "Torrance County"}}, {"geometry": {"type": "Point", "coordinates": [-106.24, 34.52]}, "type": "Feature", "id": "87036", "properties": {"other_cities": "", "city": "Mountainair", "state": "NM", "county": "Torrance County"}}, {"geometry": {"type": "Point", "coordinates": [-107.74, 36.26]}, "type": "Feature", "id": "87037", "properties": {"other_cities": "", "city": "Nageezi", "state": "NM", "county": "San Juan County"}}, {"geometry": {"type": "Point", "coordinates": [-107.42, 35.04]}, "type": "Feature", "id": "87038", "properties": {"other_cities": "Encinal", "city": "New Laguna", "state": "NM", "county": "Cibola County"}}, {"geometry": {"type": "Point", "coordinates": [-107.37, 35.13]}, "type": "Feature", "id": "87040", "properties": {"other_cities": "", "city": "Paguate", "state": "NM", "county": "Cibola County"}}, {"geometry": {"type": "Point", "coordinates": [-106.33, 35.57]}, "type": "Feature", "id": "87041", "properties": {"other_cities": "", "city": "Pena Blanca", "state": "NM", "county": "Sandoval County"}}, {"geometry": {"type": "Point", "coordinates": [-106.68, 34.82]}, "type": "Feature", "id": "87042", "properties": {"other_cities": "Bosque Farms", "city": "Peralta", "state": "NM", "county": "Valencia County"}}, {"geometry": {"type": "Point", "coordinates": [-106.46, 35.32]}, "type": "Feature", "id": "87043", "properties": {"other_cities": "", "city": "Placitas", "state": "NM", "county": "Sandoval County"}}, {"geometry": {"type": "Point", "coordinates": [-106.3, 34.98]}, "type": "Feature", "id": "87044", "properties": {"other_cities": "", "city": "Ponderosa", "state": "NM", "county": "Sandoval County"}}, {"geometry": {"type": "Point", "coordinates": [-108.04, 35.36]}, "type": "Feature", "id": "87045", "properties": {"other_cities": "", "city": "Prewitt", "state": "NM", "county": "McKinley County"}}, {"geometry": {"type": "Point", "coordinates": [-106.95, 36.18]}, "type": "Feature", "id": "87046", "properties": {"other_cities": "", "city": "Regina", "state": "NM", "county": "Sandoval County"}}, {"geometry": {"type": "Point", "coordinates": [-106.36, 35.16]}, "type": "Feature", "id": "87047", "properties": {"other_cities": "Golden, San Antonito", "city": "Sandia Park", "state": "NM", "county": "Bernalillo County"}}, {"geometry": {"type": "Point", "coordinates": [-106.62, 35.23]}, "type": "Feature", "id": "87048", "properties": {"other_cities": "", "city": "Corrales", "state": "NM", "county": "Sandoval County"}}, {"geometry": {"type": "Point", "coordinates": [-107.59, 35.08]}, "type": "Feature", "id": "87049", "properties": {"other_cities": "", "city": "San Fidel", "state": "NM", "county": "Cibola County"}}, {"geometry": {"type": "Point", "coordinates": [-107.88, 35.11]}, "type": "Feature", "id": "87051", "properties": {"other_cities": "", "city": "San Rafael", "state": "NM", "county": "Cibola County"}}, {"geometry": {"type": "Point", "coordinates": [-106.36, 35.51]}, "type": "Feature", "id": "87052", "properties": {"other_cities": "Kewa, St Dmng Pblo", "city": "Santo Domingo Pueblo", "state": "NM", "county": "Sandoval County"}}, {"geometry": {"type": "Point", "coordinates": [-106.77, 35.55]}, "type": "Feature", "id": "87053", "properties": {"other_cities": "Zia Pueblo", "city": "San Ysidro", "state": "NM", "county": "Sandoval County"}}, {"geometry": {"type": "Point", "coordinates": [-105.97, 35.14]}, "type": "Feature", "id": "87056", "properties": {"other_cities": "", "city": "Stanley", "state": "NM", "county": "Santa Fe County"}}, {"geometry": {"type": "Point", "coordinates": [-106.37, 35.08]}, "type": "Feature", "id": "87059", "properties": {"other_cities": "", "city": "Tijeras", "state": "NM", "county": "Bernalillo County"}}, {"geometry": {"type": "Point", "coordinates": [-106.71, 34.74]}, "type": "Feature", "id": "87060", "properties": {"other_cities": "", "city": "Tome", "state": "NM", "county": "Valencia County"}}, {"geometry": {"type": "Point", "coordinates": [-106.29, 34.72]}, "type": "Feature", "id": "87061", "properties": {"other_cities": "", "city": "Torreon", "state": "NM", "county": "Torrance County"}}, {"geometry": {"type": "Point", "coordinates": [-106.76, 34.51]}, "type": "Feature", "id": "87062", "properties": {"other_cities": "", "city": "Veguita", "state": "NM", "county": "Socorro County"}}, {"geometry": {"type": "Point", "coordinates": [-106.03, 34.59]}, "type": "Feature", "id": "87063", "properties": {"other_cities": "", "city": "Willard", "state": "NM", "county": "Torrance County"}}, {"geometry": {"type": "Point", "coordinates": [-106.55, 36.18]}, "type": "Feature", "id": "87064", "properties": {"other_cities": "", "city": "Youngsville", "state": "NM", "county": "Rio Arriba County"}}, {"geometry": {"type": "Point", "coordinates": [-106.7, 34.85]}, "type": "Feature", "id": "87068", "properties": {"other_cities": "Peralta", "city": "Bosque Farms", "state": "NM", "county": "Valencia County"}}, {"geometry": {"type": "Point", "coordinates": [-105.66, 35.0]}, "type": "Feature", "id": "87070", "properties": {"other_cities": "Clines Cors", "city": "Clines Corners", "state": "NM", "county": "Torrance County"}}, {"geometry": {"type": "Point", "coordinates": [-106.34, 35.6]}, "type": "Feature", "id": "87072", "properties": {"other_cities": "Cochiti Publo", "city": "Cochiti Pueblo", "state": "NM", "county": "Sandoval County"}}, {"geometry": {"type": "Point", "coordinates": [-106.33, 35.64]}, "type": "Feature", "id": "87083", "properties": {"other_cities": "", "city": "Cochiti Lake", "state": "NM", "county": "Sandoval County"}}, {"geometry": {"type": "Point", "coordinates": [-106.62, 35.11]}, "type": "Feature", "id": "87101", "properties": {"other_cities": "", "city": "Albuquerque", "state": "NM", "county": "Bernalillo County"}}, {"geometry": {"type": "Point", "coordinates": [-106.62, 35.11]}, "type": "Feature", "id": "87102", "properties": {"other_cities": "", "city": "Albuquerque", "state": "NM", "county": "Bernalillo County"}}, {"geometry": {"type": "Point", "coordinates": [-106.62, 35.11]}, "type": "Feature", "id": "87103", "properties": {"other_cities": "", "city": "Albuquerque", "state": "NM", "county": "Bernalillo County"}}, {"geometry": {"type": "Point", "coordinates": [-106.62, 35.11]}, "type": "Feature", "id": "87104", "properties": {"other_cities": "", "city": "Albuquerque", "state": "NM", "county": "Bernalillo County"}}, {"geometry": {"type": "Point", "coordinates": [-106.62, 35.11]}, "type": "Feature", "id": "87105", "properties": {"other_cities": "", "city": "Albuquerque", "state": "NM", "county": "Bernalillo County"}}, {"geometry": {"type": "Point", "coordinates": [-106.62, 35.11]}, "type": "Feature", "id": "87106", "properties": {"other_cities": "Unm", "city": "Albuquerque", "state": "NM", "county": "Bernalillo County"}}, {"geometry": {"type": "Point", "coordinates": [-106.62, 35.11]}, "type": "Feature", "id": "87107", "properties": {"other_cities": "Los Ranchos, Los Ranchos De Abq, Los Ranchos De Albuquerque, Los Rnchs Abq, Village Of Los Ranchos", "city": "Albuquerque", "state": "NM", "county": "Bernalillo County"}}, {"geometry": {"type": "Point", "coordinates": [-106.62, 35.11]}, "type": "Feature", "id": "87108", "properties": {"other_cities": "", "city": "Albuquerque", "state": "NM", "county": "Bernalillo County"}}, {"geometry": {"type": "Point", "coordinates": [-106.62, 35.11]}, "type": "Feature", "id": "87109", "properties": {"other_cities": "", "city": "Albuquerque", "state": "NM", "county": "Bernalillo County"}}, {"geometry": {"type": "Point", "coordinates": [-106.62, 35.11]}, "type": "Feature", "id": "87110", "properties": {"other_cities": "", "city": "Albuquerque", "state": "NM", "county": "Bernalillo County"}}, {"geometry": {"type": "Point", "coordinates": [-106.62, 35.11]}, "type": "Feature", "id": "87111", "properties": {"other_cities": "", "city": "Albuquerque", "state": "NM", "county": "Bernalillo County"}}, {"geometry": {"type": "Point", "coordinates": [-106.62, 35.11]}, "type": "Feature", "id": "87112", "properties": {"other_cities": "", "city": "Albuquerque", "state": "NM", "county": "Bernalillo County"}}, {"geometry": {"type": "Point", "coordinates": [-106.62, 35.11]}, "type": "Feature", "id": "87113", "properties": {"other_cities": "", "city": "Albuquerque", "state": "NM", "county": "Bernalillo County"}}, {"geometry": {"type": "Point", "coordinates": [-106.62, 35.11]}, "type": "Feature", "id": "87114", "properties": {"other_cities": "Alameda, Los Ranchos, Los Ranchos De Abq, Los Ranchos De Albuquerque, Los Rnchs Abq, Village Of Los Ranchos", "city": "Albuquerque", "state": "NM", "county": "Bernalillo County"}}, {"geometry": {"type": "Point", "coordinates": [-106.62, 35.11]}, "type": "Feature", "id": "87115", "properties": {"other_cities": "", "city": "Albuquerque", "state": "NM", "county": "Bernalillo County"}}, {"geometry": {"type": "Point", "coordinates": [-106.62, 35.11]}, "type": "Feature", "id": "87116", "properties": {"other_cities": "", "city": "Albuquerque", "state": "NM", "county": "Bernalillo County"}}, {"geometry": {"type": "Point", "coordinates": [-106.59, 35.05]}, "type": "Feature", "id": "87117", "properties": {"other_cities": "Albuquerque", "city": "Kirtland Afb", "state": "NM", "county": "Bernalillo County"}}, {"geometry": {"type": "Point", "coordinates": [-106.62, 35.11]}, "type": "Feature", "id": "87119", "properties": {"other_cities": "", "city": "Albuquerque", "state": "NM", "county": "Bernalillo County"}}, {"geometry": {"type": "Point", "coordinates": [-106.62, 35.11]}, "type": "Feature", "id": "87120", "properties": {"other_cities": "", "city": "Albuquerque", "state": "NM", "county": "Bernalillo County"}}, {"geometry": {"type": "Point", "coordinates": [-106.62, 35.11]}, "type": "Feature", "id": "87121", "properties": {"other_cities": "", "city": "Albuquerque", "state": "NM", "county": "Bernalillo County"}}, {"geometry": {"type": "Point", "coordinates": [-106.62, 35.11]}, "type": "Feature", "id": "87122", "properties": {"other_cities": "", "city": "Albuquerque", "state": "NM", "county": "Bernalillo County"}}, {"geometry": {"type": "Point", "coordinates": [-106.62, 35.11]}, "type": "Feature", "id": "87123", "properties": {"other_cities": "", "city": "Albuquerque", "state": "NM", "county": "Bernalillo County"}}, {"geometry": {"type": "Point", "coordinates": [-106.66, 35.27]}, "type": "Feature", "id": "87124", "properties": {"other_cities": "Albuquerque", "city": "Rio Rancho", "state": "NM", "county": "Sandoval County"}}, {"geometry": {"type": "Point", "coordinates": [-106.62, 35.11]}, "type": "Feature", "id": "87125", "properties": {"other_cities": "", "city": "Albuquerque", "state": "NM", "county": "Bernalillo County"}}, {"geometry": {"type": "Point", "coordinates": [-106.62, 35.11]}, "type": "Feature", "id": "87131", "properties": {"other_cities": "", "city": "Albuquerque", "state": "NM", "county": "Bernalillo County"}}, {"geometry": {"type": "Point", "coordinates": [-106.71, 35.32]}, "type": "Feature", "id": "87144", "properties": {"other_cities": "", "city": "Rio Rancho", "state": "NM", "county": "Sandoval County"}}, {"geometry": {"type": "Point", "coordinates": [-106.65, 35.08]}, "type": "Feature", "id": "87151", "properties": {"other_cities": "", "city": "Albuquerque", "state": "NM", "county": "Bernalillo County"}}, {"geometry": {"type": "Point", "coordinates": [-106.62, 35.11]}, "type": "Feature", "id": "87153", "properties": {"other_cities": "", "city": "Albuquerque", "state": "NM", "county": "Bernalillo County"}}, {"geometry": {"type": "Point", "coordinates": [-106.62, 35.11]}, "type": "Feature", "id": "87154", "properties": {"other_cities": "", "city": "Albuquerque", "state": "NM", "county": "Bernalillo County"}}, {"geometry": {"type": "Point", "coordinates": [-106.62, 35.11]}, "type": "Feature", "id": "87158", "properties": {"other_cities": "", "city": "Albuquerque", "state": "NM", "county": "Bernalillo County"}}, {"geometry": {"type": "Point", "coordinates": [-106.64, 35.08]}, "type": "Feature", "id": "87165", "properties": {"other_cities": "", "city": "Albuquerque", "state": "NM", "county": "Bernalillo County"}}, {"geometry": {"type": "Point", "coordinates": [-106.66, 35.27]}, "type": "Feature", "id": "87174", "properties": {"other_cities": "Albuquerque", "city": "Rio Rancho", "state": "NM", "county": "Sandoval County"}}, {"geometry": {"type": "Point", "coordinates": [-106.62, 35.11]}, "type": "Feature", "id": "87176", "properties": {"other_cities": "", "city": "Albuquerque", "state": "NM", "county": "Bernalillo County"}}, {"geometry": {"type": "Point", "coordinates": [-106.62, 35.11]}, "type": "Feature", "id": "87181", "properties": {"other_cities": "", "city": "Albuquerque", "state": "NM", "county": "Bernalillo County"}}, {"geometry": {"type": "Point", "coordinates": [-106.62, 35.11]}, "type": "Feature", "id": "87184", "properties": {"other_cities": "Alameda", "city": "Albuquerque", "state": "NM", "county": "Bernalillo County"}}, {"geometry": {"type": "Point", "coordinates": [-106.62, 35.11]}, "type": "Feature", "id": "87185", "properties": {"other_cities": "", "city": "Albuquerque", "state": "NM", "county": "Bernalillo County"}}, {"geometry": {"type": "Point", "coordinates": [-106.62, 35.11]}, "type": "Feature", "id": "87187", "properties": {"other_cities": "", "city": "Albuquerque", "state": "NM", "county": "Bernalillo County"}}, {"geometry": {"type": "Point", "coordinates": [-106.62, 35.11]}, "type": "Feature", "id": "87190", "properties": {"other_cities": "", "city": "Albuquerque", "state": "NM", "county": "Bernalillo County"}}, {"geometry": {"type": "Point", "coordinates": [-106.62, 35.11]}, "type": "Feature", "id": "87191", "properties": {"other_cities": "", "city": "Albuquerque", "state": "NM", "county": "Bernalillo County"}}, {"geometry": {"type": "Point", "coordinates": [-106.62, 35.11]}, "type": "Feature", "id": "87192", "properties": {"other_cities": "", "city": "Albuquerque", "state": "NM", "county": "Bernalillo County"}}, {"geometry": {"type": "Point", "coordinates": [-106.62, 35.11]}, "type": "Feature", "id": "87193", "properties": {"other_cities": "", "city": "Albuquerque", "state": "NM", "county": "Bernalillo County"}}, {"geometry": {"type": "Point", "coordinates": [-106.62, 35.11]}, "type": "Feature", "id": "87194", "properties": {"other_cities": "", "city": "Albuquerque", "state": "NM", "county": "Bernalillo County"}}, {"geometry": {"type": "Point", "coordinates": [-106.62, 35.11]}, "type": "Feature", "id": "87195", "properties": {"other_cities": "", "city": "Albuquerque", "state": "NM", "county": "Bernalillo County"}}, {"geometry": {"type": "Point", "coordinates": [-106.62, 35.11]}, "type": "Feature", "id": "87196", "properties": {"other_cities": "Univ Of New Mexico, Univ Of Nm, Unm", "city": "Albuquerque", "state": "NM", "county": "Bernalillo County"}}, {"geometry": {"type": "Point", "coordinates": [-106.62, 35.11]}, "type": "Feature", "id": "87197", "properties": {"other_cities": "", "city": "Albuquerque", "state": "NM", "county": "Bernalillo County"}}, {"geometry": {"type": "Point", "coordinates": [-106.62, 35.11]}, "type": "Feature", "id": "87198", "properties": {"other_cities": "", "city": "Albuquerque", "state": "NM", "county": "Bernalillo County"}}, {"geometry": {"type": "Point", "coordinates": [-106.62, 35.11]}, "type": "Feature", "id": "87199", "properties": {"other_cities": "", "city": "Albuquerque", "state": "NM", "county": "Bernalillo County"}}, {"geometry": {"type": "Point", "coordinates": [-108.73, 35.52]}, "type": "Feature", "id": "87301", "properties": {"other_cities": "Manuelito", "city": "Gallup", "state": "NM", "county": "McKinley County"}}, {"geometry": {"type": "Point", "coordinates": [-108.73, 35.52]}, "type": "Feature", "id": "87302", "properties": {"other_cities": "", "city": "Gallup", "state": "NM", "county": "Mckinley County"}}, {"geometry": {"type": "Point", "coordinates": [-108.73, 35.52]}, "type": "Feature", "id": "87305", "properties": {"other_cities": "", "city": "Gallup", "state": "NM", "county": "Mckinley County"}}, {"geometry": {"type": "Point", "coordinates": [-108.57, 35.8]}, "type": "Feature", "id": "87310", "properties": {"other_cities": "Gallup", "city": "Brimhall", "state": "NM", "county": "McKinley County"}}, {"geometry": {"type": "Point", "coordinates": [-108.59, 35.53]}, "type": "Feature", "id": "87311", "properties": {"other_cities": "", "city": "Church Rock", "state": "NM", "county": "McKinley County"}}, {"geometry": {"type": "Point", "coordinates": [-108.45, 35.47]}, "type": "Feature", "id": "87312", "properties": {"other_cities": "Contnental Dv", "city": "Continental Divide", "state": "NM", "county": "McKinley County"}}, {"geometry": {"type": "Point", "coordinates": [-108.14, 35.68]}, "type": "Feature", "id": "87313", "properties": {"other_cities": "", "city": "Crownpoint", "state": "NM", "county": "McKinley County"}}, {"geometry": {"type": "Point", "coordinates": [-108.67, 34.65]}, "type": "Feature", "id": "87315", "properties": {"other_cities": "", "city": "Fence Lake", "state": "NM", "county": "Cibola County"}}, {"geometry": {"type": "Point", "coordinates": [-108.54, 35.46]}, "type": "Feature", "id": "87316", "properties": {"other_cities": "", "city": "Fort Wingate", "state": "NM", "county": "McKinley County"}}, {"geometry": {"type": "Point", "coordinates": [-108.76, 35.57]}, "type": "Feature", "id": "87317", "properties": {"other_cities": "Gallup", "city": "Gamerco", "state": "NM", "county": "McKinley County"}}, {"geometry": {"type": "Point", "coordinates": [-108.84, 35.51]}, "type": "Feature", "id": "87319", "properties": {"other_cities": "Gallup", "city": "Mentmore", "state": "NM", "county": "McKinley County"}}, {"geometry": {"type": "Point", "coordinates": [-108.8, 35.78]}, "type": "Feature", "id": "87320", "properties": {"other_cities": "Mexican Spgs", "city": "Mexican Springs", "state": "NM", "county": "McKinley County"}}, {"geometry": {"type": "Point", "coordinates": [-108.49, 35.13]}, "type": "Feature", "id": "87321", "properties": {"other_cities": "", "city": "Ramah", "state": "NM", "county": "McKinley County"}}, {"geometry": {"type": "Point", "coordinates": [-108.65, 35.49]}, "type": "Feature", "id": "87322", "properties": {"other_cities": "", "city": "Rehoboth", "state": "NM", "county": "McKinley County"}}, {"geometry": {"type": "Point", "coordinates": [-108.22, 35.4]}, "type": "Feature", "id": "87323", "properties": {"other_cities": "", "city": "Thoreau", "state": "NM", "county": "McKinley County"}}, {"geometry": {"type": "Point", "coordinates": [-108.75, 35.85]}, "type": "Feature", "id": "87325", "properties": {"other_cities": "", "city": "Tohatchi", "state": "NM", "county": "McKinley County"}}, {"geometry": {"type": "Point", "coordinates": [-108.8, 35.26]}, "type": "Feature", "id": "87326", "properties": {"other_cities": "Gallup", "city": "Vanderwagen", "state": "NM", "county": "McKinley County"}}, {"geometry": {"type": "Point", "coordinates": [-108.76, 35.08]}, "type": "Feature", "id": "87327", "properties": {"other_cities": "", "city": "Zuni", "state": "NM", "county": "McKinley County"}}, {"geometry": {"type": "Point", "coordinates": [-109.03, 35.89]}, "type": "Feature", "id": "87328", "properties": {"other_cities": "", "city": "Navajo", "state": "NM", "county": "McKinley County"}}, {"geometry": {"type": "Point", "coordinates": [-108.44, 35.35]}, "type": "Feature", "id": "87347", "properties": {"other_cities": "Continental Divide, Contnental Dv", "city": "Jamestown", "state": "NM", "county": "Mckinley County"}}, {"geometry": {"type": "Point", "coordinates": [-108.45, 34.81]}, "type": "Feature", "id": "87357", "properties": {"other_cities": "Ramah", "city": "Pinehill", "state": "NM", "county": "Cibola County"}}, {"geometry": {"type": "Point", "coordinates": [-108.7, 36.14]}, "type": "Feature", "id": "87364", "properties": {"other_cities": "", "city": "Sheep Springs", "state": "NM", "county": "San Juan County"}}, {"geometry": {"type": "Point", "coordinates": [-107.98, 35.77]}, "type": "Feature", "id": "87365", "properties": {"other_cities": "", "city": "Smith Lake", "state": "NM", "county": "McKinley County"}}, {"geometry": {"type": "Point", "coordinates": [-108.71, 35.61]}, "type": "Feature", "id": "87375", "properties": {"other_cities": "Gallup", "city": "Yatahey", "state": "NM", "county": "Mckinley County"}}, {"geometry": {"type": "Point", "coordinates": [-108.18, 36.75]}, "type": "Feature", "id": "87401", "properties": {"other_cities": "", "city": "Farmington", "state": "NM", "county": "San Juan County"}}, {"geometry": {"type": "Point", "coordinates": [-108.18, 36.75]}, "type": "Feature", "id": "87402", "properties": {"other_cities": "", "city": "Farmington", "state": "NM", "county": "San Juan County"}}, {"geometry": {"type": "Point", "coordinates": [-108.0, 36.82]}, "type": "Feature", "id": "87410", "properties": {"other_cities": "", "city": "Aztec", "state": "NM", "county": "San Juan County"}}, {"geometry": {"type": "Point", "coordinates": [-107.73, 36.61]}, "type": "Feature", "id": "87412", "properties": {"other_cities": "", "city": "Blanco", "state": "NM", "county": "San Juan County"}}, {"geometry": {"type": "Point", "coordinates": [-107.97, 36.71]}, "type": "Feature", "id": "87413", "properties": {"other_cities": "", "city": "Bloomfield", "state": "NM", "county": "San Juan County"}}, {"geometry": {"type": "Point", "coordinates": [-108.08, 36.8]}, "type": "Feature", "id": "87415", "properties": {"other_cities": "", "city": "Flora Vista", "state": "NM", "county": "San Juan County"}}, {"geometry": {"type": "Point", "coordinates": [-108.39, 36.73]}, "type": "Feature", "id": "87416", "properties": {"other_cities": "", "city": "Fruitland", "state": "NM", "county": "San Juan County"}}, {"geometry": {"type": "Point", "coordinates": [-108.34, 36.73]}, "type": "Feature", "id": "87417", "properties": {"other_cities": "", "city": "Kirtland", "state": "NM", "county": "San Juan County"}}, {"geometry": {"type": "Point", "coordinates": [-108.19, 36.92]}, "type": "Feature", "id": "87418", "properties": {"other_cities": "", "city": "La Plata", "state": "NM", "county": "San Juan County"}}, {"geometry": {"type": "Point", "coordinates": [-107.61, 36.8]}, "type": "Feature", "id": "87419", "properties": {"other_cities": "", "city": "Navajo Dam", "state": "NM", "county": "San Juan County"}}, {"geometry": {"type": "Point", "coordinates": [-108.69, 36.79]}, "type": "Feature", "id": "87420", "properties": {"other_cities": "", "city": "Shiprock", "state": "NM", "county": "San Juan County"}}, {"geometry": {"type": "Point", "coordinates": [-108.41, 36.81]}, "type": "Feature", "id": "87421", "properties": {"other_cities": "", "city": "Waterflow", "state": "NM", "county": "San Juan County"}}, {"geometry": {"type": "Point", "coordinates": [-108.7, 36.28]}, "type": "Feature", "id": "87455", "properties": {"other_cities": "", "city": "Newcomb", "state": "NM", "county": "San Juan County"}}, {"geometry": {"type": "Point", "coordinates": [-108.87, 36.43]}, "type": "Feature", "id": "87461", "properties": {"other_cities": "", "city": "Sanostee", "state": "NM", "county": "San Juan County"}}, {"geometry": {"type": "Point", "coordinates": [-108.18, 36.75]}, "type": "Feature", "id": "87499", "properties": {"other_cities": "", "city": "Farmington", "state": "NM", "county": "San Juan County"}}, {"geometry": {"type": "Point", "coordinates": [-105.95, 35.67]}, "type": "Feature", "id": "87501", "properties": {"other_cities": "Pojoaque", "city": "Santa Fe", "state": "NM", "county": "Santa Fe County"}}, {"geometry": {"type": "Point", "coordinates": [-105.95, 35.67]}, "type": "Feature", "id": "87502", "properties": {"other_cities": "", "city": "Santa Fe", "state": "NM", "county": "Santa Fe County"}}, {"geometry": {"type": "Point", "coordinates": [-105.95, 35.67]}, "type": "Feature", "id": "87503", "properties": {"other_cities": "", "city": "Santa Fe", "state": "NM", "county": "Santa Fe County"}}, {"geometry": {"type": "Point", "coordinates": [-105.95, 35.67]}, "type": "Feature", "id": "87504", "properties": {"other_cities": "", "city": "Santa Fe", "state": "NM", "county": "Santa Fe County"}}, {"geometry": {"type": "Point", "coordinates": [-105.95, 35.67]}, "type": "Feature", "id": "87505", "properties": {"other_cities": "", "city": "Santa Fe", "state": "NM", "county": "Santa Fe County"}}, {"geometry": {"type": "Point", "coordinates": [-105.95, 35.67]}, "type": "Feature", "id": "87506", "properties": {"other_cities": "Jaconita, Nambe, San Ildefonso, San Ildefonso Pueblo", "city": "Santa Fe", "state": "NM", "county": "Santa Fe County"}}, {"geometry": {"type": "Point", "coordinates": [-105.95, 35.67]}, "type": "Feature", "id": "87507", "properties": {"other_cities": "", "city": "Santa Fe", "state": "NM", "county": "Santa Fe County"}}, {"geometry": {"type": "Point", "coordinates": [-106.11, 35.57]}, "type": "Feature", "id": "87508", "properties": {"other_cities": "", "city": "Santa Fe", "state": "NM", "county": "Santa Fe County"}}, {"geometry": {"type": "Point", "coordinates": [-105.95, 35.67]}, "type": "Feature", "id": "87509", "properties": {"other_cities": "", "city": "Santa Fe", "state": "NM", "county": "Santa Fe County"}}, {"geometry": {"type": "Point", "coordinates": [-106.31, 36.2]}, "type": "Feature", "id": "87510", "properties": {"other_cities": "", "city": "Abiquiu", "state": "NM", "county": "Rio Arriba County"}}, {"geometry": {"type": "Point", "coordinates": [-106.05, 36.08]}, "type": "Feature", "id": "87511", "properties": {"other_cities": "", "city": "Alcalde", "state": "NM", "county": "Rio Arriba County"}}, {"geometry": {"type": "Point", "coordinates": [-105.45, 36.94]}, "type": "Feature", "id": "87512", "properties": {"other_cities": "", "city": "Amalia", "state": "NM", "county": "Taos County"}}, {"geometry": {"type": "Point", "coordinates": [-105.66, 36.53]}, "type": "Feature", "id": "87513", "properties": {"other_cities": "", "city": "Arroyo Hondo", "state": "NM", "county": "Taos County"}}, {"geometry": {"type": "Point", "coordinates": [-105.56, 36.51]}, "type": "Feature", "id": "87514", "properties": {"other_cities": "", "city": "Arroyo Seco", "state": "NM", "county": "Taos County"}}, {"geometry": {"type": "Point", "coordinates": [-106.43, 36.47]}, "type": "Feature", "id": "87515", "properties": {"other_cities": "", "city": "Canjilon", "state": "NM", "county": "Rio Arriba County"}}, {"geometry": {"type": "Point", "coordinates": [-106.43, 36.18]}, "type": "Feature", "id": "87516", "properties": {"other_cities": "", "city": "Canones", "state": "NM", "county": "Rio Arriba County"}}, {"geometry": {"type": "Point", "coordinates": [-105.83, 36.69]}, "type": "Feature", "id": "87517", "properties": {"other_cities": "", "city": "Carson", "state": "NM", "county": "Taos County"}}, {"geometry": {"type": "Point", "coordinates": [-106.48, 36.53]}, "type": "Feature", "id": "87518", "properties": {"other_cities": "", "city": "Cebolla", "state": "NM", "county": "Rio Arriba County"}}, {"geometry": {"type": "Point", "coordinates": [-105.61, 36.75]}, "type": "Feature", "id": "87519", "properties": {"other_cities": "", "city": "Cerro", "state": "NM", "county": "Taos County"}}, {"geometry": {"type": "Point", "coordinates": [-106.58, 36.89]}, "type": "Feature", "id": "87520", "properties": {"other_cities": "", "city": "Chama", "state": "NM", "county": "Rio Arriba County"}}, {"geometry": {"type": "Point", "coordinates": [-105.74, 36.17]}, "type": "Feature", "id": "87521", "properties": {"other_cities": "Ojo Sarco", "city": "Chamisal", "state": "NM", "county": "Taos County"}}, {"geometry": {"type": "Point", "coordinates": [-105.92, 35.99]}, "type": "Feature", "id": "87522", "properties": {"other_cities": "Cundiyo", "city": "Chimayo", "state": "NM", "county": "Rio Arriba County"}}, {"geometry": {"type": "Point", "coordinates": [-105.86, 36.0]}, "type": "Feature", "id": "87523", "properties": {"other_cities": "", "city": "Cordova", "state": "NM", "county": "Rio Arriba County"}}, {"geometry": {"type": "Point", "coordinates": [-105.53, 36.97]}, "type": "Feature", "id": "87524", "properties": {"other_cities": "", "city": "Costilla", "state": "NM", "county": "Taos County"}}, {"geometry": {"type": "Point", "coordinates": [-105.45, 36.6]}, "type": "Feature", "id": "87525", "properties": {"other_cities": "Taos Ski Vly", "city": "Taos Ski Valley", "state": "NM", "county": "Taos County"}}, {"geometry": {"type": "Point", "coordinates": [-105.88, 36.19]}, "type": "Feature", "id": "87527", "properties": {"other_cities": "", "city": "Dixon", "state": "NM", "county": "Rio Arriba County"}}, {"geometry": {"type": "Point", "coordinates": [-106.99, 36.93]}, "type": "Feature", "id": "87528", "properties": {"other_cities": "Lumberton", "city": "Dulce", "state": "NM", "county": "Rio Arriba County"}}, {"geometry": {"type": "Point", "coordinates": [-105.65, 36.43]}, "type": "Feature", "id": "87529", "properties": {"other_cities": "", "city": "El Prado", "state": "NM", "county": "Taos County"}}, {"geometry": {"type": "Point", "coordinates": [-106.18, 36.34]}, "type": "Feature", "id": "87530", "properties": {"other_cities": "", "city": "El Rito", "state": "NM", "county": "Rio Arriba County"}}, {"geometry": {"type": "Point", "coordinates": [-105.96, 36.2]}, "type": "Feature", "id": "87531", "properties": {"other_cities": "", "city": "Embudo", "state": "NM", "county": "Rio Arriba County"}}, {"geometry": {"type": "Point", "coordinates": [-106.06, 36.0]}, "type": "Feature", "id": "87532", "properties": {"other_cities": "", "city": "Espanola", "state": "NM", "county": "Rio Arriba County"}}, {"geometry": {"type": "Point", "coordinates": [-106.06, 36.0]}, "type": "Feature", "id": "87533", "properties": {"other_cities": "Fairview", "city": "Espanola", "state": "NM", "county": "Rio Arriba County"}}, {"geometry": {"type": "Point", "coordinates": [-105.76, 35.58]}, "type": "Feature", "id": "87535", "properties": {"other_cities": "", "city": "Glorieta", "state": "NM", "county": "Santa Fe County"}}, {"geometry": {"type": "Point", "coordinates": [-106.11, 36.06]}, "type": "Feature", "id": "87537", "properties": {"other_cities": "", "city": "Hernandez", "state": "NM", "county": "Rio Arriba County"}}, {"geometry": {"type": "Point", "coordinates": [-105.4, 35.48]}, "type": "Feature", "id": "87538", "properties": {"other_cities": "", "city": "Ilfeld", "state": "NM", "county": "San Miguel County"}}, {"geometry": {"type": "Point", "coordinates": [-106.04, 36.38]}, "type": "Feature", "id": "87539", "properties": {"other_cities": "", "city": "La Madera", "state": "NM", "county": "Rio Arriba County"}}, {"geometry": {"type": "Point", "coordinates": [-105.87, 35.48]}, "type": "Feature", "id": "87540", "properties": {"other_cities": "Galisteo, Santa Fe", "city": "Lamy", "state": "NM", "county": "Santa Fe County"}}, {"geometry": {"type": "Point", "coordinates": [-105.68, 36.14]}, "type": "Feature", "id": "87543", "properties": {"other_cities": "", "city": "Llano", "state": "NM", "county": "Taos County"}}, {"geometry": {"type": "Point", "coordinates": [-106.28, 35.89]}, "type": "Feature", "id": "87544", "properties": {"other_cities": "White Rock", "city": "Los Alamos", "state": "NM", "county": "Los Alamos County"}}, {"geometry": {"type": "Point", "coordinates": [-106.28, 35.89]}, "type": "Feature", "id": "87545", "properties": {"other_cities": "", "city": "Los Alamos", "state": "NM", "county": "Los Alamos County"}}, {"geometry": {"type": "Point", "coordinates": [-106.18, 36.17]}, "type": "Feature", "id": "87548", "properties": {"other_cities": "", "city": "Medanales", "state": "NM", "county": "Rio Arriba County"}}, {"geometry": {"type": "Point", "coordinates": [-106.04, 36.3]}, "type": "Feature", "id": "87549", "properties": {"other_cities": "", "city": "Ojo Caliente", "state": "NM", "county": "Taos County"}}, {"geometry": {"type": "Point", "coordinates": [-106.56, 36.72]}, "type": "Feature", "id": "87551", "properties": {"other_cities": "Rutheron", "city": "Los Ojos", "state": "NM", "county": "Rio Arriba County"}}, {"geometry": {"type": "Point", "coordinates": [-105.67, 35.57]}, "type": "Feature", "id": "87552", "properties": {"other_cities": "", "city": "Pecos", "state": "NM", "county": "San Miguel County"}}, {"geometry": {"type": "Point", "coordinates": [-105.69, 36.17]}, "type": "Feature", "id": "87553", "properties": {"other_cities": "", "city": "Penasco", "state": "NM", "county": "Taos County"}}, {"geometry": {"type": "Point", "coordinates": [-106.01, 36.5]}, "type": "Feature", "id": "87554", "properties": {"other_cities": "", "city": "Petaca", "state": "NM", "county": "Rio Arriba County"}}, {"geometry": {"type": "Point", "coordinates": [-105.59, 36.71]}, "type": "Feature", "id": "87556", "properties": {"other_cities": "", "city": "Questa", "state": "NM", "county": "Taos County"}}, {"geometry": {"type": "Point", "coordinates": [-105.6, 36.36]}, "type": "Feature", "id": "87557", "properties": {"other_cities": "Rnch De Taos", "city": "Ranchos De Taos", "state": "NM", "county": "Taos County"}}, {"geometry": {"type": "Point", "coordinates": [-105.4, 36.7]}, "type": "Feature", "id": "87558", "properties": {"other_cities": "", "city": "Red River", "state": "NM", "county": "Taos County"}}, {"geometry": {"type": "Point", "coordinates": [-105.44, 35.37]}, "type": "Feature", "id": "87560", "properties": {"other_cities": "Gonzales Ranch, Gonzales Rnch, Sena", "city": "Ribera", "state": "NM", "county": "San Miguel County"}}, {"geometry": {"type": "Point", "coordinates": [-105.67, 35.49]}, "type": "Feature", "id": "87562", "properties": {"other_cities": "", "city": "Rowe", "state": "NM", "county": "San Miguel County"}}, {"geometry": {"type": "Point", "coordinates": [-105.63, 36.59]}, "type": "Feature", "id": "87564", "properties": {"other_cities": "", "city": "San Cristobal", "state": "NM", "county": "Taos County"}}, {"geometry": {"type": "Point", "coordinates": [-106.09, 36.03]}, "type": "Feature", "id": "87565", "properties": {"other_cities": "", "city": "San Jose", "state": "NM", "county": "San Miguel County"}}, {"geometry": {"type": "Point", "coordinates": [-106.07, 36.05]}, "type": "Feature", "id": "87566", "properties": {"other_cities": "San Juan Pblo, San Juan Pueblo", "city": "Ohkay Owingeh", "state": "NM", "county": "Rio Arriba County"}}, {"geometry": {"type": "Point", "coordinates": [-106.01, 35.98]}, "type": "Feature", "id": "87567", "properties": {"other_cities": "", "city": "Santa Cruz", "state": "NM", "county": "Santa Fe County"}}, {"geometry": {"type": "Point", "coordinates": [-105.4, 35.48]}, "type": "Feature", "id": "87569", "properties": {"other_cities": "", "city": "Serafina", "state": "NM", "county": "San Miguel County"}}, {"geometry": {"type": "Point", "coordinates": [-105.57, 36.38]}, "type": "Feature", "id": "87571", "properties": {"other_cities": "", "city": "Taos", "state": "NM", "county": "Taos County"}}, {"geometry": {"type": "Point", "coordinates": [-105.67, 35.74]}, "type": "Feature", "id": "87573", "properties": {"other_cities": "", "city": "Tererro", "state": "NM", "county": "San Miguel County"}}, {"geometry": {"type": "Point", "coordinates": [-105.92, 35.76]}, "type": "Feature", "id": "87574", "properties": {"other_cities": "", "city": "Tesuque", "state": "NM", "county": "Santa Fe County"}}, {"geometry": {"type": "Point", "coordinates": [-106.54, 36.7]}, "type": "Feature", "id": "87575", "properties": {"other_cities": "Tira Amarilla", "city": "Tierra Amarilla", "state": "NM", "county": "Rio Arriba County"}}, {"geometry": {"type": "Point", "coordinates": [-105.62, 36.15]}, "type": "Feature", "id": "87576", "properties": {"other_cities": "", "city": "Trampas", "state": "NM", "county": "Taos County"}}, {"geometry": {"type": "Point", "coordinates": [-105.96, 36.64]}, "type": "Feature", "id": "87577", "properties": {"other_cities": "", "city": "Tres Piedras", "state": "NM", "county": "Taos County"}}, {"geometry": {"type": "Point", "coordinates": [-105.81, 36.04]}, "type": "Feature", "id": "87578", "properties": {"other_cities": "", "city": "Truchas", "state": "NM", "county": "Rio Arriba County"}}, {"geometry": {"type": "Point", "coordinates": [-105.67, 36.19]}, "type": "Feature", "id": "87579", "properties": {"other_cities": "", "city": "Vadito", "state": "NM", "county": "Taos County"}}, {"geometry": {"type": "Point", "coordinates": [-105.58, 36.53]}, "type": "Feature", "id": "87580", "properties": {"other_cities": "", "city": "Valdez", "state": "NM", "county": "Taos County"}}, {"geometry": {"type": "Point", "coordinates": [-106.12, 36.49]}, "type": "Feature", "id": "87581", "properties": {"other_cities": "Las Tablas", "city": "Vallecitos", "state": "NM", "county": "Rio Arriba County"}}, {"geometry": {"type": "Point", "coordinates": [-105.97, 36.15]}, "type": "Feature", "id": "87582", "properties": {"other_cities": "", "city": "Velarde", "state": "NM", "county": "Rio Arriba County"}}, {"geometry": {"type": "Point", "coordinates": [-105.36, 35.26]}, "type": "Feature", "id": "87583", "properties": {"other_cities": "", "city": "Villanueva", "state": "NM", "county": "San Miguel County"}}, {"geometry": {"type": "Point", "coordinates": [-105.95, 35.67]}, "type": "Feature", "id": "87592", "properties": {"other_cities": "", "city": "Santa Fe", "state": "NM", "county": "Santa Fe County"}}, {"geometry": {"type": "Point", "coordinates": [-105.95, 35.67]}, "type": "Feature", "id": "87594", "properties": {"other_cities": "", "city": "Santa Fe", "state": "NM", "county": "Santa Fe County"}}, {"geometry": {"type": "Point", "coordinates": [-105.22, 35.59]}, "type": "Feature", "id": "87701", "properties": {"other_cities": "", "city": "Las Vegas", "state": "NM", "county": "San Miguel County"}}, {"geometry": {"type": "Point", "coordinates": [-105.27, 36.39]}, "type": "Feature", "id": "87710", "properties": {"other_cities": "Eagle Nest", "city": "Angel Fire", "state": "NM", "county": "Colfax County"}}, {"geometry": {"type": "Point", "coordinates": [-105.14, 35.2]}, "type": "Feature", "id": "87711", "properties": {"other_cities": "", "city": "Anton Chico", "state": "NM", "county": "Guadalupe County"}}, {"geometry": {"type": "Point", "coordinates": [-105.24, 35.91]}, "type": "Feature", "id": "87712", "properties": {"other_cities": "", "city": "Buena Vista", "state": "NM", "county": "Mora County"}}, {"geometry": {"type": "Point", "coordinates": [-105.36, 36.14]}, "type": "Feature", "id": "87713", "properties": {"other_cities": "", "city": "Chacon", "state": "NM", "county": "Mora County"}}, {"geometry": {"type": "Point", "coordinates": [-104.91, 36.5]}, "type": "Feature", "id": "87714", "properties": {"other_cities": "", "city": "Cimarron", "state": "NM", "county": "Colfax County"}}, {"geometry": {"type": "Point", "coordinates": [-105.37, 35.99]}, "type": "Feature", "id": "87715", "properties": {"other_cities": "", "city": "Cleveland", "state": "NM", "county": "Mora County"}}, {"geometry": {"type": "Point", "coordinates": [-105.26, 36.55]}, "type": "Feature", "id": "87718", "properties": {"other_cities": "", "city": "Eagle Nest", "state": "NM", "county": "Colfax County"}}, {"geometry": {"type": "Point", "coordinates": [-105.23, 36.13]}, "type": "Feature", "id": "87722", "properties": {"other_cities": "", "city": "Guadalupita", "state": "NM", "county": "Mora County"}}, {"geometry": {"type": "Point", "coordinates": [-105.38, 36.03]}, "type": "Feature", "id": "87723", "properties": {"other_cities": "", "city": "Holman", "state": "NM", "county": "Mora County"}}, {"geometry": {"type": "Point", "coordinates": [-105.08, 35.19]}, "type": "Feature", "id": "87724", "properties": {"other_cities": "", "city": "La Loma", "state": "NM", "county": "Guadalupe County"}}, {"geometry": {"type": "Point", "coordinates": [-104.54, 36.54]}, "type": "Feature", "id": "87728", "properties": {"other_cities": "", "city": "Maxwell", "state": "NM", "county": "Colfax County"}}, {"geometry": {"type": "Point", "coordinates": [-104.79, 36.35]}, "type": "Feature", "id": "87729", "properties": {"other_cities": "Springer", "city": "Miami", "state": "NM", "county": "Colfax County"}}, {"geometry": {"type": "Point", "coordinates": [-104.25, 36.08]}, "type": "Feature", "id": "87730", "properties": {"other_cities": "", "city": "Mills", "state": "NM", "county": "Harding County"}}, {"geometry": {"type": "Point", "coordinates": [-105.27, 35.65]}, "type": "Feature", "id": "87731", "properties": {"other_cities": "", "city": "Montezuma", "state": "NM", "county": "San Miguel County"}}, {"geometry": {"type": "Point", "coordinates": [-105.32, 35.97]}, "type": "Feature", "id": "87732", "properties": {"other_cities": "Ledoux", "city": "Mora", "state": "NM", "county": "Mora County"}}, {"geometry": {"type": "Point", "coordinates": [-103.95, 35.77]}, "type": "Feature", "id": "87733", "properties": {"other_cities": "Albert", "city": "Mosquero", "state": "NM", "county": "Harding County"}}, {"geometry": {"type": "Point", "coordinates": [-105.04, 36.17]}, "type": "Feature", "id": "87734", "properties": {"other_cities": "", "city": "Ocate", "state": "NM", "county": "Mora County"}}, {"geometry": {"type": "Point", "coordinates": [-105.11, 36.05]}, "type": "Feature", "id": "87735", "properties": {"other_cities": "Wagon Mound", "city": "Ojo Feliz", "state": "NM", "county": "Mora County"}}, {"geometry": {"type": "Point", "coordinates": [-105.2, 35.97]}, "type": "Feature", "id": "87736", "properties": {"other_cities": "", "city": "Rainsville", "state": "NM", "county": "Mora County"}}, {"geometry": {"type": "Point", "coordinates": [-104.44, 36.88]}, "type": "Feature", "id": "87740", "properties": {"other_cities": "", "city": "Raton", "state": "NM", "county": "Colfax County"}}, {"geometry": {"type": "Point", "coordinates": [-105.42, 35.83]}, "type": "Feature", "id": "87742", "properties": {"other_cities": "", "city": "Rociada", "state": "NM", "county": "San Miguel County"}}, {"geometry": {"type": "Point", "coordinates": [-104.19, 35.94]}, "type": "Feature", "id": "87743", "properties": {"other_cities": "", "city": "Roy", "state": "NM", "county": "Harding County"}}, {"geometry": {"type": "Point", "coordinates": [-105.25, 35.77]}, "type": "Feature", "id": "87745", "properties": {"other_cities": "Las Vegas", "city": "Sapello", "state": "NM", "county": "San Miguel County"}}, {"geometry": {"type": "Point", "coordinates": [-104.06, 35.84]}, "type": "Feature", "id": "87746", "properties": {"other_cities": "", "city": "Solano", "state": "NM", "county": "Harding County"}}, {"geometry": {"type": "Point", "coordinates": [-104.59, 36.36]}, "type": "Feature", "id": "87747", "properties": {"other_cities": "", "city": "Springer", "state": "NM", "county": "Colfax County"}}, {"geometry": {"type": "Point", "coordinates": [-105.11, 36.55]}, "type": "Feature", "id": "87749", "properties": {"other_cities": "", "city": "Ute Park", "state": "NM", "county": "Colfax County"}}, {"geometry": {"type": "Point", "coordinates": [-104.92, 35.81]}, "type": "Feature", "id": "87750", "properties": {"other_cities": "Watrous", "city": "Valmora", "state": "NM", "county": "Mora County"}}, {"geometry": {"type": "Point", "coordinates": [-104.71, 36.0]}, "type": "Feature", "id": "87752", "properties": {"other_cities": "", "city": "Wagon Mound", "state": "NM", "county": "Mora County"}}, {"geometry": {"type": "Point", "coordinates": [-104.98, 35.79]}, "type": "Feature", "id": "87753", "properties": {"other_cities": "", "city": "Watrous", "state": "NM", "county": "Mora County"}}, {"geometry": {"type": "Point", "coordinates": [-106.9, 34.05]}, "type": "Feature", "id": "87801", "properties": {"other_cities": "", "city": "Socorro", "state": "NM", "county": "Socorro County"}}, {"geometry": {"type": "Point", "coordinates": [-108.53, 33.88]}, "type": "Feature", "id": "87820", "properties": {"other_cities": "", "city": "Aragon", "state": "NM", "county": "Catron County"}}, {"geometry": {"type": "Point", "coordinates": [-107.84, 34.14]}, "type": "Feature", "id": "87821", "properties": {"other_cities": "", "city": "Datil", "state": "NM", "county": "Catron County"}}, {"geometry": {"type": "Point", "coordinates": [-106.91, 34.16]}, "type": "Feature", "id": "87823", "properties": {"other_cities": "", "city": "Lemitar", "state": "NM", "county": "Socorro County"}}, {"geometry": {"type": "Point", "coordinates": [-108.95, 33.81]}, "type": "Feature", "id": "87824", "properties": {"other_cities": "", "city": "Luna", "state": "NM", "county": "Catron County"}}, {"geometry": {"type": "Point", "coordinates": [-107.23, 34.11]}, "type": "Feature", "id": "87825", "properties": {"other_cities": "Alamo", "city": "Magdalena", "state": "NM", "county": "Socorro County"}}, {"geometry": {"type": "Point", "coordinates": [-108.28, 34.33]}, "type": "Feature", "id": "87827", "properties": {"other_cities": "", "city": "Pie Town", "state": "NM", "county": "Catron County"}}, {"geometry": {"type": "Point", "coordinates": [-106.85, 34.13]}, "type": "Feature", "id": "87828", "properties": {"other_cities": "", "city": "Polvadera", "state": "NM", "county": "Socorro County"}}, {"geometry": {"type": "Point", "coordinates": [-108.79, 34.31]}, "type": "Feature", "id": "87829", "properties": {"other_cities": "", "city": "Quemado", "state": "NM", "county": "Catron County"}}, {"geometry": {"type": "Point", "coordinates": [-108.76, 33.7]}, "type": "Feature", "id": "87830", "properties": {"other_cities": "", "city": "Reserve", "state": "NM", "county": "Catron County"}}, {"geometry": {"type": "Point", "coordinates": [-106.89, 34.25]}, "type": "Feature", "id": "87831", "properties": {"other_cities": "", "city": "San Acacia", "state": "NM", "county": "Socorro County"}}, {"geometry": {"type": "Point", "coordinates": [-106.86, 33.91]}, "type": "Feature", "id": "87832", "properties": {"other_cities": "Bingham", "city": "San Antonio", "state": "NM", "county": "Socorro County"}}, {"geometry": {"type": "Point", "coordinates": [-107.24, 33.13]}, "type": "Feature", "id": "87901", "properties": {"other_cities": "Cuchillo, T Or C, Truth Consq", "city": "Truth Or Consequences", "state": "NM", "county": "Sierra County"}}, {"geometry": {"type": "Point", "coordinates": [-107.31, 32.84]}, "type": "Feature", "id": "87930", "properties": {"other_cities": "", "city": "Arrey", "state": "NM", "county": "Sierra County"}}, {"geometry": {"type": "Point", "coordinates": [-107.3, 32.97]}, "type": "Feature", "id": "87931", "properties": {"other_cities": "", "city": "Caballo", "state": "NM", "county": "Sierra County"}}, {"geometry": {"type": "Point", "coordinates": [-107.28, 32.78]}, "type": "Feature", "id": "87933", "properties": {"other_cities": "", "city": "Derry", "state": "NM", "county": "Sierra County"}}, {"geometry": {"type": "Point", "coordinates": [-107.25, 33.12]}, "type": "Feature", "id": "87935", "properties": {"other_cities": "Elephant Btte", "city": "Elephant Butte", "state": "NM", "county": "Sierra County"}}, {"geometry": {"type": "Point", "coordinates": [-107.26, 32.75]}, "type": "Feature", "id": "87936", "properties": {"other_cities": "", "city": "Garfield", "state": "NM", "county": "Dona Ana County"}}, {"geometry": {"type": "Point", "coordinates": [-107.15, 32.66]}, "type": "Feature", "id": "87937", "properties": {"other_cities": "", "city": "Hatch", "state": "NM", "county": "Dona Ana County"}}, {"geometry": {"type": "Point", "coordinates": [-107.45, 33.39]}, "type": "Feature", "id": "87939", "properties": {"other_cities": "", "city": "Monticello", "state": "NM", "county": "Sierra County"}}, {"geometry": {"type": "Point", "coordinates": [-107.06, 32.67]}, "type": "Feature", "id": "87940", "properties": {"other_cities": "", "city": "Rincon", "state": "NM", "county": "Dona Ana County"}}, {"geometry": {"type": "Point", "coordinates": [-107.21, 32.7]}, "type": "Feature", "id": "87941", "properties": {"other_cities": "", "city": "Salem", "state": "NM", "county": "Dona Ana County"}}, {"geometry": {"type": "Point", "coordinates": [-107.29, 33.11]}, "type": "Feature", "id": "87942", "properties": {"other_cities": "", "city": "Williamsburg", "state": "NM", "county": "Sierra County"}}, {"geometry": {"type": "Point", "coordinates": [-107.51, 33.34]}, "type": "Feature", "id": "87943", "properties": {"other_cities": "", "city": "Winston", "state": "NM", "county": "Sierra County"}}, {"geometry": {"type": "Point", "coordinates": [-106.75, 32.33]}, "type": "Feature", "id": "88001", "properties": {"other_cities": "", "city": "Las Cruces", "state": "NM", "county": "Dona Ana County"}}, {"geometry": {"type": "Point", "coordinates": [-106.47, 32.26]}, "type": "Feature", "id": "88002", "properties": {"other_cities": "Las Cruces, White Sands", "city": "White Sands Missile Range", "state": "NM", "county": "Dona Ana County"}}, {"geometry": {"type": "Point", "coordinates": [-106.75, 32.33]}, "type": "Feature", "id": "88003", "properties": {"other_cities": "", "city": "Las Cruces", "state": "NM", "county": "Dona Ana County"}}, {"geometry": {"type": "Point", "coordinates": [-106.75, 32.33]}, "type": "Feature", "id": "88004", "properties": {"other_cities": "", "city": "Las Cruces", "state": "NM", "county": "Do\u00c3\u00b1a Ana County"}}, {"geometry": {"type": "Point", "coordinates": [-106.75, 32.33]}, "type": "Feature", "id": "88005", "properties": {"other_cities": "", "city": "Las Cruces", "state": "NM", "county": "Dona Ana County"}}, {"geometry": {"type": "Point", "coordinates": [-106.75, 32.33]}, "type": "Feature", "id": "88006", "properties": {"other_cities": "", "city": "Las Cruces", "state": "NM", "county": "Do\u00c3\u00b1a Ana County"}}, {"geometry": {"type": "Point", "coordinates": [-106.75, 32.33]}, "type": "Feature", "id": "88007", "properties": {"other_cities": "", "city": "Las Cruces", "state": "NM", "county": "Dona Ana County"}}, {"geometry": {"type": "Point", "coordinates": [-106.64, 31.87]}, "type": "Feature", "id": "88008", "properties": {"other_cities": "", "city": "Santa Teresa", "state": "NM", "county": "Dona Ana County"}}, {"geometry": {"type": "Point", "coordinates": [-108.68, 32.02]}, "type": "Feature", "id": "88009", "properties": {"other_cities": "Lordsburg", "city": "Playas", "state": "NM", "county": "Hidalgo County"}}, {"geometry": {"type": "Point", "coordinates": [-106.75, 32.33]}, "type": "Feature", "id": "88011", "properties": {"other_cities": "", "city": "Las Cruces", "state": "NM", "county": "Dona Ana County"}}, {"geometry": {"type": "Point", "coordinates": [-106.75, 32.33]}, "type": "Feature", "id": "88012", "properties": {"other_cities": "", "city": "Las Cruces", "state": "NM", "county": "Dona Ana County"}}, {"geometry": {"type": "Point", "coordinates": [-106.79, 32.31]}, "type": "Feature", "id": "88013", "properties": {"other_cities": "", "city": "Las Cruces", "state": "NM", "county": "Do\u00c3\u00b1a Ana County"}}, {"geometry": {"type": "Point", "coordinates": [-108.83, 31.94]}, "type": "Feature", "id": "88020", "properties": {"other_cities": "", "city": "Animas", "state": "NM", "county": "Hidalgo County"}}, {"geometry": {"type": "Point", "coordinates": [-106.59, 32.0]}, "type": "Feature", "id": "88021", "properties": {"other_cities": "Chaparral", "city": "Anthony", "state": "NM", "county": "Dona Ana County"}}, {"geometry": {"type": "Point", "coordinates": [-108.28, 33.01]}, "type": "Feature", "id": "88022", "properties": {"other_cities": "Silver City", "city": "Arenas Valley", "state": "NM", "county": "Grant County"}}, {"geometry": {"type": "Point", "coordinates": [-108.13, 32.75]}, "type": "Feature", "id": "88023", "properties": {"other_cities": "Vanadium", "city": "Bayard", "state": "NM", "county": "Grant County"}}, {"geometry": {"type": "Point", "coordinates": [-106.56, 32.08]}, "type": "Feature", "id": "88024", "properties": {"other_cities": "Anthony", "city": "Berino", "state": "NM", "county": "Dona Ana County"}}, {"geometry": {"type": "Point", "coordinates": [-108.7, 33.03]}, "type": "Feature", "id": "88025", "properties": {"other_cities": "", "city": "Buckhorn", "state": "NM", "county": "Grant County"}}, {"geometry": {"type": "Point", "coordinates": [-108.16, 32.79]}, "type": "Feature", "id": "88026", "properties": {"other_cities": "Central", "city": "Santa Clara", "state": "NM", "county": "Grant County"}}, {"geometry": {"type": "Point", "coordinates": [-106.96, 31.97]}, "type": "Feature", "id": "88027", "properties": {"other_cities": "", "city": "Chamberino", "state": "NM", "county": "Dona Ana County"}}, {"geometry": {"type": "Point", "coordinates": [-108.61, 32.96]}, "type": "Feature", "id": "88028", "properties": {"other_cities": "", "city": "Cliff", "state": "NM", "county": "Grant County"}}, {"geometry": {"type": "Point", "coordinates": [-107.64, 31.82]}, "type": "Feature", "id": "88029", "properties": {"other_cities": "", "city": "Columbus", "state": "NM", "county": "Luna County"}}, {"geometry": {"type": "Point", "coordinates": [-107.75, 32.26]}, "type": "Feature", "id": "88030", "properties": {"other_cities": "", "city": "Deming", "state": "NM", "county": "Luna County"}}, {"geometry": {"type": "Point", "coordinates": [-107.75, 32.26]}, "type": "Feature", "id": "88031", "properties": {"other_cities": "", "city": "Deming", "state": "NM", "county": "Luna County"}}, {"geometry": {"type": "Point", "coordinates": [-106.81, 32.39]}, "type": "Feature", "id": "88032", "properties": {"other_cities": "", "city": "Dona Ana", "state": "NM", "county": "Dona Ana County"}}, {"geometry": {"type": "Point", "coordinates": [-107.06, 32.31]}, "type": "Feature", "id": "88033", "properties": {"other_cities": "", "city": "Fairacres", "state": "NM", "county": "Dona Ana County"}}, {"geometry": {"type": "Point", "coordinates": [-108.02, 32.56]}, "type": "Feature", "id": "88034", "properties": {"other_cities": "", "city": "Faywood", "state": "NM", "county": "Grant County"}}, {"geometry": {"type": "Point", "coordinates": [-108.14, 32.79]}, "type": "Feature", "id": "88036", "properties": {"other_cities": "Silver City", "city": "Fort Bayard", "state": "NM", "county": "Grant County"}}, {"geometry": {"type": "Point", "coordinates": [-108.57, 32.96]}, "type": "Feature", "id": "88038", "properties": {"other_cities": "", "city": "Gila", "state": "NM", "county": "Grant County"}}, {"geometry": {"type": "Point", "coordinates": [-108.88, 33.31]}, "type": "Feature", "id": "88039", "properties": {"other_cities": "Mogollon", "city": "Glenwood", "state": "NM", "county": "Catron County"}}, {"geometry": {"type": "Point", "coordinates": [-108.32, 31.91]}, "type": "Feature", "id": "88040", "properties": {"other_cities": "", "city": "Hachita", "state": "NM", "county": "Grant County"}}, {"geometry": {"type": "Point", "coordinates": [-108.08, 32.88]}, "type": "Feature", "id": "88041", "properties": {"other_cities": "San Lorenzo", "city": "Hanover", "state": "NM", "county": "Grant County"}}, {"geometry": {"type": "Point", "coordinates": [-107.56, 32.92]}, "type": "Feature", "id": "88042", "properties": {"other_cities": "", "city": "Hillsboro", "state": "NM", "county": "Sierra County"}}, {"geometry": {"type": "Point", "coordinates": [-108.13, 32.69]}, "type": "Feature", "id": "88043", "properties": {"other_cities": "", "city": "Hurley", "state": "NM", "county": "Grant County"}}, {"geometry": {"type": "Point", "coordinates": [-106.7, 32.12]}, "type": "Feature", "id": "88044", "properties": {"other_cities": "", "city": "La Mesa", "state": "NM", "county": "Dona Ana County"}}, {"geometry": {"type": "Point", "coordinates": [-108.7, 32.34]}, "type": "Feature", "id": "88045", "properties": {"other_cities": "Road Forks, Virden", "city": "Lordsburg", "state": "NM", "county": "Hidalgo County"}}, {"geometry": {"type": "Point", "coordinates": [-106.8, 32.27]}, "type": "Feature", "id": "88046", "properties": {"other_cities": "", "city": "Mesilla", "state": "NM", "county": "Do\u00c3\u00b1a Ana County"}}, {"geometry": {"type": "Point", "coordinates": [-106.61, 32.27]}, "type": "Feature", "id": "88047", "properties": {"other_cities": "", "city": "Mesilla Park", "state": "NM", "county": "Dona Ana County"}}, {"geometry": {"type": "Point", "coordinates": [-106.69, 32.16]}, "type": "Feature", "id": "88048", "properties": {"other_cities": "", "city": "Mesquite", "state": "NM", "county": "Dona Ana County"}}, {"geometry": {"type": "Point", "coordinates": [-107.97, 32.85]}, "type": "Feature", "id": "88049", "properties": {"other_cities": "", "city": "Mimbres", "state": "NM", "county": "Grant County"}}, {"geometry": {"type": "Point", "coordinates": [-108.95, 33.12]}, "type": "Feature", "id": "88051", "properties": {"other_cities": "", "city": "Mule Creek", "state": "NM", "county": "Grant County"}}, {"geometry": {"type": "Point", "coordinates": [-106.59, 32.42]}, "type": "Feature", "id": "88052", "properties": {"other_cities": "", "city": "Organ", "state": "NM", "county": "Dona Ana County"}}, {"geometry": {"type": "Point", "coordinates": [-108.24, 32.88]}, "type": "Feature", "id": "88053", "properties": {"other_cities": "Silver City", "city": "Pinos Altos", "state": "NM", "county": "Grant County"}}, {"geometry": {"type": "Point", "coordinates": [-106.92, 32.5]}, "type": "Feature", "id": "88054", "properties": {"other_cities": "Radium Sprgs", "city": "Radium Springs", "state": "NM", "county": "Dona Ana County"}}, {"geometry": {"type": "Point", "coordinates": [-108.73, 32.68]}, "type": "Feature", "id": "88055", "properties": {"other_cities": "Lordsburg", "city": "Redrock", "state": "NM", "county": "Grant County"}}, {"geometry": {"type": "Point", "coordinates": [-109.03, 31.83]}, "type": "Feature", "id": "88056", "properties": {"other_cities": "", "city": "Rodeo", "state": "NM", "county": "Hidalgo County"}}, {"geometry": {"type": "Point", "coordinates": [-106.73, 32.15]}, "type": "Feature", "id": "88058", "properties": {"other_cities": "", "city": "San Miguel", "state": "NM", "county": "Dona Ana County"}}, {"geometry": {"type": "Point", "coordinates": [-108.26, 32.78]}, "type": "Feature", "id": "88061", "properties": {"other_cities": "", "city": "Silver City", "state": "NM", "county": "Grant County"}}, {"geometry": {"type": "Point", "coordinates": [-108.26, 32.78]}, "type": "Feature", "id": "88062", "properties": {"other_cities": "", "city": "Silver City", "state": "NM", "county": "Grant County"}}, {"geometry": {"type": "Point", "coordinates": [-106.57, 31.79]}, "type": "Feature", "id": "88063", "properties": {"other_cities": "", "city": "Sunland Park", "state": "NM", "county": "Dona Ana County"}}, {"geometry": {"type": "Point", "coordinates": [-108.35, 32.65]}, "type": "Feature", "id": "88065", "properties": {"other_cities": "", "city": "Tyrone", "state": "NM", "county": "Grant County"}}, {"geometry": {"type": "Point", "coordinates": [-106.66, 32.11]}, "type": "Feature", "id": "88072", "properties": {"other_cities": "", "city": "Vado", "state": "NM", "county": "Dona Ana County"}}, {"geometry": {"type": "Point", "coordinates": [-106.44, 32.04]}, "type": "Feature", "id": "88081", "properties": {"other_cities": "Anthony", "city": "Chaparral", "state": "NM", "county": "Dona Ana County"}}, {"geometry": {"type": "Point", "coordinates": [-103.2, 34.41]}, "type": "Feature", "id": "88101", "properties": {"other_cities": "Cannon Afb", "city": "Clovis", "state": "NM", "county": "Curry County"}}, {"geometry": {"type": "Point", "coordinates": [-103.2, 34.41]}, "type": "Feature", "id": "88102", "properties": {"other_cities": "", "city": "Clovis", "state": "NM", "county": "Curry County"}}, {"geometry": {"type": "Point", "coordinates": [-103.31, 34.38]}, "type": "Feature", "id": "88103", "properties": {"other_cities": "Clovis", "city": "Cannon Afb", "state": "NM", "county": "Curry County"}}, {"geometry": {"type": "Point", "coordinates": [-103.21, 34.81]}, "type": "Feature", "id": "88112", "properties": {"other_cities": "Bellview", "city": "Broadview", "state": "NM", "county": "Curry County"}}, {"geometry": {"type": "Point", "coordinates": [-103.11, 33.86]}, "type": "Feature", "id": "88113", "properties": {"other_cities": "", "city": "Causey", "state": "NM", "county": "Roosevelt County"}}, {"geometry": {"type": "Point", "coordinates": [-103.33, 33.51]}, "type": "Feature", "id": "88114", "properties": {"other_cities": "", "city": "Crossroads", "state": "NM", "county": "Lea County"}}, {"geometry": {"type": "Point", "coordinates": [-103.33, 33.93]}, "type": "Feature", "id": "88115", "properties": {"other_cities": "", "city": "Dora", "state": "NM", "county": "Roosevelt County"}}, {"geometry": {"type": "Point", "coordinates": [-103.65, 33.94]}, "type": "Feature", "id": "88116", "properties": {"other_cities": "", "city": "Elida", "state": "NM", "county": "Roosevelt County"}}, {"geometry": {"type": "Point", "coordinates": [-103.54, 34.21]}, "type": "Feature", "id": "88118", "properties": {"other_cities": "", "city": "Floyd", "state": "NM", "county": "Curry County"}}, {"geometry": {"type": "Point", "coordinates": [-104.23, 34.47]}, "type": "Feature", "id": "88119", "properties": {"other_cities": "Lake Sumner", "city": "Fort Sumner", "state": "NM", "county": "De Baca County"}}, {"geometry": {"type": "Point", "coordinates": [-103.31, 34.82]}, "type": "Feature", "id": "88120", "properties": {"other_cities": "", "city": "Grady", "state": "NM", "county": "Curry County"}}, {"geometry": {"type": "Point", "coordinates": [-103.9, 34.64]}, "type": "Feature", "id": "88121", "properties": {"other_cities": "", "city": "House", "state": "NM", "county": "Quay County"}}, {"geometry": {"type": "Point", "coordinates": [-103.77, 33.84]}, "type": "Feature", "id": "88122", "properties": {"other_cities": "", "city": "Kenna", "state": "NM", "county": "Roosevelt County"}}, {"geometry": {"type": "Point", "coordinates": [-103.11, 33.78]}, "type": "Feature", "id": "88123", "properties": {"other_cities": "Portales", "city": "Lingo", "state": "NM", "county": "Roosevelt County"}}, {"geometry": {"type": "Point", "coordinates": [-103.62, 34.42]}, "type": "Feature", "id": "88124", "properties": {"other_cities": "", "city": "Melrose", "state": "NM", "county": "Curry County"}}, {"geometry": {"type": "Point", "coordinates": [-103.33, 33.64]}, "type": "Feature", "id": "88125", "properties": {"other_cities": "", "city": "Milnesand", "state": "NM", "county": "Roosevelt County"}}, {"geometry": {"type": "Point", "coordinates": [-103.33, 33.83]}, "type": "Feature", "id": "88126", "properties": {"other_cities": "", "city": "Pep", "state": "NM", "county": "Roosevelt County"}}, {"geometry": {"type": "Point", "coordinates": [-103.34, 34.18]}, "type": "Feature", "id": "88130", "properties": {"other_cities": "", "city": "Portales", "state": "NM", "county": "Roosevelt County"}}, {"geometry": {"type": "Point", "coordinates": [-103.23, 33.98]}, "type": "Feature", "id": "88132", "properties": {"other_cities": "", "city": "Rogers", "state": "NM", "county": "Roosevelt County"}}, {"geometry": {"type": "Point", "coordinates": [-103.48, 34.41]}, "type": "Feature", "id": "88133", "properties": {"other_cities": "", "city": "Saint Vrain", "state": "NM", "county": "Curry County"}}, {"geometry": {"type": "Point", "coordinates": [-104.0, 34.44]}, "type": "Feature", "id": "88134", "properties": {"other_cities": "", "city": "Taiban", "state": "NM", "county": "De Baca County"}}, {"geometry": {"type": "Point", "coordinates": [-103.05, 34.38]}, "type": "Feature", "id": "88135", "properties": {"other_cities": "", "city": "Texico", "state": "NM", "county": "Curry County"}}, {"geometry": {"type": "Point", "coordinates": [-104.6, 34.43]}, "type": "Feature", "id": "88136", "properties": {"other_cities": "Lon", "city": "Yeso", "state": "NM", "county": "De Baca County"}}, {"geometry": {"type": "Point", "coordinates": [-104.52, 33.37]}, "type": "Feature", "id": "88201", "properties": {"other_cities": "Border Hill, Pine Lodge", "city": "Roswell", "state": "NM", "county": "Chaves County"}}, {"geometry": {"type": "Point", "coordinates": [-104.52, 33.37]}, "type": "Feature", "id": "88202", "properties": {"other_cities": "", "city": "Roswell", "state": "NM", "county": "Chaves County"}}, {"geometry": {"type": "Point", "coordinates": [-104.52, 33.33]}, "type": "Feature", "id": "88203", "properties": {"other_cities": "", "city": "Roswell", "state": "NM", "county": "Chaves County"}}, {"geometry": {"type": "Point", "coordinates": [-104.43, 32.84]}, "type": "Feature", "id": "88210", "properties": {"other_cities": "", "city": "Artesia", "state": "NM", "county": "Eddy County"}}, {"geometry": {"type": "Point", "coordinates": [-104.43, 32.84]}, "type": "Feature", "id": "88211", "properties": {"other_cities": "", "city": "Artesia", "state": "NM", "county": "Eddy County"}}, {"geometry": {"type": "Point", "coordinates": [-103.71, 33.39]}, "type": "Feature", "id": "88213", "properties": {"other_cities": "Tatum", "city": "Caprock", "state": "NM", "county": "Lea County"}}, {"geometry": {"type": "Point", "coordinates": [-104.23, 32.4]}, "type": "Feature", "id": "88220", "properties": {"other_cities": "", "city": "Carlsbad", "state": "NM", "county": "Eddy County"}}, {"geometry": {"type": "Point", "coordinates": [-104.23, 32.4]}, "type": "Feature", "id": "88221", "properties": {"other_cities": "", "city": "Carlsbad", "state": "NM", "county": "Eddy County"}}, {"geometry": {"type": "Point", "coordinates": [-104.36, 33.19]}, "type": "Feature", "id": "88230", "properties": {"other_cities": "", "city": "Dexter", "state": "NM", "county": "Chaves County"}}, {"geometry": {"type": "Point", "coordinates": [-103.19, 32.44]}, "type": "Feature", "id": "88231", "properties": {"other_cities": "", "city": "Eunice", "state": "NM", "county": "Lea County"}}, {"geometry": {"type": "Point", "coordinates": [-104.32, 33.11]}, "type": "Feature", "id": "88232", "properties": {"other_cities": "", "city": "Hagerman", "state": "NM", "county": "Chaves County"}}, {"geometry": {"type": "Point", "coordinates": [-103.16, 32.73]}, "type": "Feature", "id": "88240", "properties": {"other_cities": "Oil Center", "city": "Hobbs", "state": "NM", "county": "Lea County"}}, {"geometry": {"type": "Point", "coordinates": [-103.16, 32.73]}, "type": "Feature", "id": "88241", "properties": {"other_cities": "", "city": "Hobbs", "state": "NM", "county": "Lea County"}}, {"geometry": {"type": "Point", "coordinates": [-103.16, 32.73]}, "type": "Feature", "id": "88242", "properties": {"other_cities": "", "city": "Hobbs", "state": "NM", "county": "Lea County"}}, {"geometry": {"type": "Point", "coordinates": [-103.16, 32.73]}, "type": "Feature", "id": "88244", "properties": {"other_cities": "", "city": "Hobbs", "state": "NM", "county": "Lea County"}}, {"geometry": {"type": "Point", "coordinates": [-104.73, 32.81]}, "type": "Feature", "id": "88250", "properties": {"other_cities": "", "city": "Hope", "state": "NM", "county": "Eddy County"}}, {"geometry": {"type": "Point", "coordinates": [-103.18, 32.11]}, "type": "Feature", "id": "88252", "properties": {"other_cities": "", "city": "Jal", "state": "NM", "county": "Lea County"}}, {"geometry": {"type": "Point", "coordinates": [-104.36, 32.99]}, "type": "Feature", "id": "88253", "properties": {"other_cities": "", "city": "Lake Arthur", "state": "NM", "county": "Chaves County"}}, {"geometry": {"type": "Point", "coordinates": [-104.35, 32.61]}, "type": "Feature", "id": "88254", "properties": {"other_cities": "", "city": "Lakewood", "state": "NM", "county": "Eddy County"}}, {"geometry": {"type": "Point", "coordinates": [-103.97, 32.81]}, "type": "Feature", "id": "88255", "properties": {"other_cities": "", "city": "Loco Hills", "state": "NM", "county": "Eddy County"}}, {"geometry": {"type": "Point", "coordinates": [-104.09, 32.28]}, "type": "Feature", "id": "88256", "properties": {"other_cities": "", "city": "Loving", "state": "NM", "county": "Eddy County"}}, {"geometry": {"type": "Point", "coordinates": [-103.35, 32.94]}, "type": "Feature", "id": "88260", "properties": {"other_cities": "", "city": "Lovington", "state": "NM", "county": "Lea County"}}, {"geometry": {"type": "Point", "coordinates": [-103.21, 33.07]}, "type": "Feature", "id": "88262", "properties": {"other_cities": "", "city": "Mcdonald", "state": "NM", "county": "Lea County"}}, {"geometry": {"type": "Point", "coordinates": [-104.07, 32.22]}, "type": "Feature", "id": "88263", "properties": {"other_cities": "", "city": "Malaga", "state": "NM", "county": "Eddy County"}}, {"geometry": {"type": "Point", "coordinates": [-103.76, 32.85]}, "type": "Feature", "id": "88264", "properties": {"other_cities": "", "city": "Maljamar", "state": "NM", "county": "Lea County"}}, {"geometry": {"type": "Point", "coordinates": [-103.26, 32.62]}, "type": "Feature", "id": "88265", "properties": {"other_cities": "", "city": "Monument", "state": "NM", "county": "Lea County"}}, {"geometry": {"type": "Point", "coordinates": [-103.31, 33.25]}, "type": "Feature", "id": "88267", "properties": {"other_cities": "", "city": "Tatum", "state": "NM", "county": "Lea County"}}, {"geometry": {"type": "Point", "coordinates": [-104.37, 32.17]}, "type": "Feature", "id": "88268", "properties": {"other_cities": "", "city": "Whites City", "state": "NM", "county": "Eddy County"}}, {"geometry": {"type": "Point", "coordinates": [-105.88, 33.64]}, "type": "Feature", "id": "88301", "properties": {"other_cities": "Ancho, Duran, Oscuro, White Oaks", "city": "Carrizozo", "state": "NM", "county": "Lincoln County"}}, {"geometry": {"type": "Point", "coordinates": [-105.95, 32.88]}, "type": "Feature", "id": "88310", "properties": {"other_cities": "", "city": "Alamogordo", "state": "NM", "county": "Otero County"}}, {"geometry": {"type": "Point", "coordinates": [-105.95, 32.88]}, "type": "Feature", "id": "88311", "properties": {"other_cities": "", "city": "Alamogordo", "state": "NM", "county": "Otero County"}}, {"geometry": {"type": "Point", "coordinates": [-105.68, 33.39]}, "type": "Feature", "id": "88312", "properties": {"other_cities": "", "city": "Alto", "state": "NM", "county": "Lincoln County"}}, {"geometry": {"type": "Point", "coordinates": [-105.88, 33.15]}, "type": "Feature", "id": "88314", "properties": {"other_cities": "", "city": "Bent", "state": "NM", "county": "Otero County"}}, {"geometry": {"type": "Point", "coordinates": [-105.59, 33.54]}, "type": "Feature", "id": "88316", "properties": {"other_cities": "Angus", "city": "Capitan", "state": "NM", "county": "Lincoln County"}}, {"geometry": {"type": "Point", "coordinates": [-105.73, 32.95]}, "type": "Feature", "id": "88317", "properties": {"other_cities": "", "city": "Cloudcroft", "state": "NM", "county": "Otero County"}}, {"geometry": {"type": "Point", "coordinates": [-105.59, 34.24]}, "type": "Feature", "id": "88318", "properties": {"other_cities": "", "city": "Corona", "state": "NM", "county": "Lincoln County"}}, {"geometry": {"type": "Point", "coordinates": [-105.45, 34.65]}, "type": "Feature", "id": "88321", "properties": {"other_cities": "", "city": "Encino", "state": "NM", "county": "Torrance County"}}, {"geometry": {"type": "Point", "coordinates": [-105.52, 33.49]}, "type": "Feature", "id": "88323", "properties": {"other_cities": "", "city": "Fort Stanton", "state": "NM", "county": "Lincoln County"}}, {"geometry": {"type": "Point", "coordinates": [-105.44, 33.4]}, "type": "Feature", "id": "88324", "properties": {"other_cities": "", "city": "Glencoe", "state": "NM", "county": "Lincoln County"}}, {"geometry": {"type": "Point", "coordinates": [-105.79, 32.97]}, "type": "Feature", "id": "88325", "properties": {"other_cities": "Hi Rls Mtn Pk", "city": "High Rolls Mountain Park", "state": "NM", "county": "Otero County"}}, {"geometry": {"type": "Point", "coordinates": [-106.11, 32.83]}, "type": "Feature", "id": "88330", "properties": {"other_cities": "Holloman Afb", "city": "Holloman Air Force Base", "state": "NM", "county": "Otero County"}}, {"geometry": {"type": "Point", "coordinates": [-105.27, 33.38]}, "type": "Feature", "id": "88336", "properties": {"other_cities": "", "city": "Hondo", "state": "NM", "county": "Lincoln County"}}, {"geometry": {"type": "Point", "coordinates": [-105.93, 32.97]}, "type": "Feature", "id": "88337", "properties": {"other_cities": "", "city": "La Luz", "state": "NM", "county": "Otero County"}}, {"geometry": {"type": "Point", "coordinates": [-105.38, 33.49]}, "type": "Feature", "id": "88338", "properties": {"other_cities": "", "city": "Lincoln", "state": "NM", "county": "Lincoln County"}}, {"geometry": {"type": "Point", "coordinates": [-105.47, 32.88]}, "type": "Feature", "id": "88339", "properties": {"other_cities": "Flying H", "city": "Mayhill", "state": "NM", "county": "Otero County"}}, {"geometry": {"type": "Point", "coordinates": [-105.79, 33.15]}, "type": "Feature", "id": "88340", "properties": {"other_cities": "", "city": "Mescalero", "state": "NM", "county": "Otero County"}}, {"geometry": {"type": "Point", "coordinates": [-105.7, 33.55]}, "type": "Feature", "id": "88341", "properties": {"other_cities": "", "city": "Nogal", "state": "NM", "county": "Lincoln County"}}, {"geometry": {"type": "Point", "coordinates": [-106.08, 32.37]}, "type": "Feature", "id": "88342", "properties": {"other_cities": "", "city": "Orogrande", "state": "NM", "county": "Otero County"}}, {"geometry": {"type": "Point", "coordinates": [-105.14, 33.35]}, "type": "Feature", "id": "88343", "properties": {"other_cities": "", "city": "Picacho", "state": "NM", "county": "Lincoln County"}}, {"geometry": {"type": "Point", "coordinates": [-105.39, 32.61]}, "type": "Feature", "id": "88344", "properties": {"other_cities": "", "city": "Pinon", "state": "NM", "county": "Chaves County"}}, {"geometry": {"type": "Point", "coordinates": [-105.64, 33.36]}, "type": "Feature", "id": "88345", "properties": {"other_cities": "", "city": "Ruidoso", "state": "NM", "county": "Lincoln County"}}, {"geometry": {"type": "Point", "coordinates": [-105.6, 33.33]}, "type": "Feature", "id": "88346", "properties": {"other_cities": "", "city": "Ruidoso Downs", "state": "NM", "county": "Lincoln County"}}, {"geometry": {"type": "Point", "coordinates": [-105.56, 32.79]}, "type": "Feature", "id": "88347", "properties": {"other_cities": "", "city": "Sacramento", "state": "NM", "county": "Otero County"}}, {"geometry": {"type": "Point", "coordinates": [-105.32, 33.4]}, "type": "Feature", "id": "88348", "properties": {"other_cities": "", "city": "San Patricio", "state": "NM", "county": "Lincoln County"}}, {"geometry": {"type": "Point", "coordinates": [-105.78, 32.8]}, "type": "Feature", "id": "88349", "properties": {"other_cities": "", "city": "Sunspot", "state": "NM", "county": "Otero County"}}, {"geometry": {"type": "Point", "coordinates": [-105.69, 32.63]}, "type": "Feature", "id": "88350", "properties": {"other_cities": "Cloudcroft", "city": "Timberon", "state": "NM", "county": "Otero County"}}, {"geometry": {"type": "Point", "coordinates": [-105.13, 33.27]}, "type": "Feature", "id": "88351", "properties": {"other_cities": "Arabela", "city": "Tinnie", "state": "NM", "county": "Lincoln County"}}, {"geometry": {"type": "Point", "coordinates": [-106.02, 33.07]}, "type": "Feature", "id": "88352", "properties": {"other_cities": "", "city": "Tularosa", "state": "NM", "county": "Otero County"}}, {"geometry": {"type": "Point", "coordinates": [-105.21, 34.6]}, "type": "Feature", "id": "88353", "properties": {"other_cities": "", "city": "Vaughn", "state": "NM", "county": "Guadalupe County"}}, {"geometry": {"type": "Point", "coordinates": [-105.51, 32.8]}, "type": "Feature", "id": "88354", "properties": {"other_cities": "", "city": "Weed", "state": "NM", "county": "Otero County"}}, {"geometry": {"type": "Point", "coordinates": [-105.64, 33.36]}, "type": "Feature", "id": "88355", "properties": {"other_cities": "", "city": "Ruidoso", "state": "NM", "county": "Lincoln County"}}, {"geometry": {"type": "Point", "coordinates": [-103.72, 35.16]}, "type": "Feature", "id": "88401", "properties": {"other_cities": "", "city": "Tucumcari", "state": "NM", "county": "Quay County"}}, {"geometry": {"type": "Point", "coordinates": [-103.15, 35.91]}, "type": "Feature", "id": "88410", "properties": {"other_cities": "", "city": "Amistad", "state": "NM", "county": "Union County"}}, {"geometry": {"type": "Point", "coordinates": [-103.3, 35.12]}, "type": "Feature", "id": "88411", "properties": {"other_cities": "San Jon", "city": "Bard", "state": "NM", "county": "Quay County"}}, {"geometry": {"type": "Point", "coordinates": [-103.99, 36.74]}, "type": "Feature", "id": "88414", "properties": {"other_cities": "", "city": "Capulin", "state": "NM", "county": "Union County"}}, {"geometry": {"type": "Point", "coordinates": [-103.17, 36.45]}, "type": "Feature", "id": "88415", "properties": {"other_cities": "Bueyeros, Seneca, Stead", "city": "Clayton", "state": "NM", "county": "Union County"}}, {"geometry": {"type": "Point", "coordinates": [-103.98, 35.34]}, "type": "Feature", "id": "88416", "properties": {"other_cities": "Tucumcari", "city": "Conchas Dam", "state": "NM", "county": "San Miguel County"}}, {"geometry": {"type": "Point", "coordinates": [-104.4, 35.03]}, "type": "Feature", "id": "88417", "properties": {"other_cities": "", "city": "Cuervo", "state": "NM", "county": "Guadalupe County"}}, {"geometry": {"type": "Point", "coordinates": [-103.83, 36.76]}, "type": "Feature", "id": "88418", "properties": {"other_cities": "", "city": "Des Moines", "state": "NM", "county": "Union County"}}, {"geometry": {"type": "Point", "coordinates": [-103.91, 36.84]}, "type": "Feature", "id": "88419", "properties": {"other_cities": "", "city": "Folsom", "state": "NM", "county": "Union County"}}, {"geometry": {"type": "Point", "coordinates": [-104.48, 35.35]}, "type": "Feature", "id": "88421", "properties": {"other_cities": "", "city": "Garita", "state": "NM", "county": "San Miguel County"}}, {"geometry": {"type": "Point", "coordinates": [-103.97, 36.3]}, "type": "Feature", "id": "88422", "properties": {"other_cities": "", "city": "Gladstone", "state": "NM", "county": "Union County"}}, {"geometry": {"type": "Point", "coordinates": [-103.61, 36.59]}, "type": "Feature", "id": "88424", "properties": {"other_cities": "Mount Dora", "city": "Grenville", "state": "NM", "county": "Union County"}}, {"geometry": {"type": "Point", "coordinates": [-103.44, 35.36]}, "type": "Feature", "id": "88426", "properties": {"other_cities": "", "city": "Logan", "state": "NM", "county": "Quay County"}}, {"geometry": {"type": "Point", "coordinates": [-103.66, 34.74]}, "type": "Feature", "id": "88427", "properties": {"other_cities": "", "city": "Mcalister", "state": "NM", "county": "Quay County"}}, {"geometry": {"type": "Point", "coordinates": [-103.09, 35.6]}, "type": "Feature", "id": "88430", "properties": {"other_cities": "", "city": "Nara Visa", "state": "NM", "county": "Quay County"}}, {"geometry": {"type": "Point", "coordinates": [-104.26, 35.06]}, "type": "Feature", "id": "88431", "properties": {"other_cities": "Bell Ranch", "city": "Newkirk", "state": "NM", "county": "San Miguel County"}}, {"geometry": {"type": "Point", "coordinates": [-103.76, 34.93]}, "type": "Feature", "id": "88433", "properties": {"other_cities": "", "city": "Quay", "state": "NM", "county": "Quay County"}}, {"geometry": {"type": "Point", "coordinates": [-103.32, 35.11]}, "type": "Feature", "id": "88434", "properties": {"other_cities": "Glenrio", "city": "San Jon", "state": "NM", "county": "Quay County"}}, {"geometry": {"type": "Point", "coordinates": [-104.67, 34.94]}, "type": "Feature", "id": "88435", "properties": {"other_cities": "Pastura, Puerta D Luna, Puerta De Luna", "city": "Santa Rosa", "state": "NM", "county": "Guadalupe County"}}, {"geometry": {"type": "Point", "coordinates": [-103.13, 36.14]}, "type": "Feature", "id": "88436", "properties": {"other_cities": "", "city": "Sedan", "state": "NM", "county": "Union County"}}, {"geometry": {"type": "Point", "coordinates": [-104.52, 35.47]}, "type": "Feature", "id": "88439", "properties": {"other_cities": "", "city": "Trementina", "state": "NM", "county": "San Miguel County"}}]}