{"type": "FeatureCollection", "features": [{"geometry": {"type": "Point", "coordinates": [-87.06, 36.58]}, "type": "Feature", "id": "37010", "properties": {"other_cities": "", "city": "Adams", "state": "TN", "county": "Robertson County"}}, {"geometry": {"type": "Point", "coordinates": [-86.64, 36.04]}, "type": "Feature", "id": "37011", "properties": {"other_cities": "", "city": "Antioch", "state": "TN", "county": "Davidson County"}}, {"geometry": {"type": "Point", "coordinates": [-86.03, 36.07]}, "type": "Feature", "id": "37012", "properties": {"other_cities": "", "city": "Alexandria", "state": "TN", "county": "De Kalb County"}}, {"geometry": {"type": "Point", "coordinates": [-86.64, 36.04]}, "type": "Feature", "id": "37013", "properties": {"other_cities": "Cane Ridge", "city": "Antioch", "state": "TN", "county": "Davidson County"}}, {"geometry": {"type": "Point", "coordinates": [-86.65, 35.86]}, "type": "Feature", "id": "37014", "properties": {"other_cities": "", "city": "Arrington", "state": "TN", "county": "Williamson County"}}, {"geometry": {"type": "Point", "coordinates": [-87.05, 36.27]}, "type": "Feature", "id": "37015", "properties": {"other_cities": "", "city": "Ashland City", "state": "TN", "county": "Cheatham County"}}, {"geometry": {"type": "Point", "coordinates": [-86.09, 35.94]}, "type": "Feature", "id": "37016", "properties": {"other_cities": "", "city": "Auburntown", "state": "TN", "county": "Cannon County"}}, {"geometry": {"type": "Point", "coordinates": [-86.2, 35.64]}, "type": "Feature", "id": "37018", "properties": {"other_cities": "", "city": "Beechgrove", "state": "TN", "county": "Coffee County"}}, {"geometry": {"type": "Point", "coordinates": [-86.71, 35.4]}, "type": "Feature", "id": "37019", "properties": {"other_cities": "", "city": "Belfast", "state": "TN", "county": "Marshall County"}}, {"geometry": {"type": "Point", "coordinates": [-86.35, 35.59]}, "type": "Feature", "id": "37020", "properties": {"other_cities": "", "city": "Bell Buckle", "state": "TN", "county": "Bedford County"}}, {"geometry": {"type": "Point", "coordinates": [-86.3, 36.5]}, "type": "Feature", "id": "37022", "properties": {"other_cities": "Rock Bridge", "city": "Bethpage", "state": "TN", "county": "Sumner County"}}, {"geometry": {"type": "Point", "coordinates": [-87.69, 36.59]}, "type": "Feature", "id": "37023", "properties": {"other_cities": "", "city": "Big Rock", "state": "TN", "county": "Stewart County"}}, {"geometry": {"type": "Point", "coordinates": [-86.78, 35.99]}, "type": "Feature", "id": "37024", "properties": {"other_cities": "", "city": "Brentwood", "state": "TN", "county": "Williamson County"}}, {"geometry": {"type": "Point", "coordinates": [-87.34, 35.94]}, "type": "Feature", "id": "37025", "properties": {"other_cities": "", "city": "Bon Aqua", "state": "TN", "county": "Hickman County"}}, {"geometry": {"type": "Point", "coordinates": [-86.1, 35.69]}, "type": "Feature", "id": "37026", "properties": {"other_cities": "", "city": "Bradyville", "state": "TN", "county": "Cannon County"}}, {"geometry": {"type": "Point", "coordinates": [-86.78, 35.99]}, "type": "Feature", "id": "37027", "properties": {"other_cities": "", "city": "Brentwood", "state": "TN", "county": "Williamson County"}}, {"geometry": {"type": "Point", "coordinates": [-87.85, 36.62]}, "type": "Feature", "id": "37028", "properties": {"other_cities": "", "city": "Bumpus Mills", "state": "TN", "county": "Stewart County"}}, {"geometry": {"type": "Point", "coordinates": [-87.31, 36.05]}, "type": "Feature", "id": "37029", "properties": {"other_cities": "", "city": "Burns", "state": "TN", "county": "Dickson County"}}, {"geometry": {"type": "Point", "coordinates": [-85.94, 36.25]}, "type": "Feature", "id": "37030", "properties": {"other_cities": "Defeated, So Carthage, South Carthage", "city": "Carthage", "state": "TN", "county": "Smith County"}}, {"geometry": {"type": "Point", "coordinates": [-86.31, 36.38]}, "type": "Feature", "id": "37031", "properties": {"other_cities": "Castalin Spgs", "city": "Castalian Springs", "state": "TN", "county": "Sumner County"}}, {"geometry": {"type": "Point", "coordinates": [-87.0, 36.55]}, "type": "Feature", "id": "37032", "properties": {"other_cities": "", "city": "Cedar Hill", "state": "TN", "county": "Robertson County"}}, {"geometry": {"type": "Point", "coordinates": [-87.44, 35.79]}, "type": "Feature", "id": "37033", "properties": {"other_cities": "Pleasantville", "city": "Centerville", "state": "TN", "county": "Hickman County"}}, {"geometry": {"type": "Point", "coordinates": [-86.69, 35.62]}, "type": "Feature", "id": "37034", "properties": {"other_cities": "", "city": "Chapel Hill", "state": "TN", "county": "Marshall County"}}, {"geometry": {"type": "Point", "coordinates": [-87.11, 36.37]}, "type": "Feature", "id": "37035", "properties": {"other_cities": "", "city": "Chapmansboro", "state": "TN", "county": "Cheatham County"}}, {"geometry": {"type": "Point", "coordinates": [-87.34, 36.18]}, "type": "Feature", "id": "37036", "properties": {"other_cities": "", "city": "Charlotte", "state": "TN", "county": "Dickson County"}}, {"geometry": {"type": "Point", "coordinates": [-86.34, 35.7]}, "type": "Feature", "id": "37037", "properties": {"other_cities": "", "city": "Christiana", "state": "TN", "county": "Rutherford County"}}, {"geometry": {"type": "Point", "coordinates": [-87.34, 36.56]}, "type": "Feature", "id": "37040", "properties": {"other_cities": "", "city": "Clarksville", "state": "TN", "county": "Montgomery County"}}, {"geometry": {"type": "Point", "coordinates": [-87.34, 36.56]}, "type": "Feature", "id": "37041", "properties": {"other_cities": "", "city": "Clarksville", "state": "TN", "county": "Montgomery County"}}, {"geometry": {"type": "Point", "coordinates": [-87.34, 36.56]}, "type": "Feature", "id": "37042", "properties": {"other_cities": "", "city": "Clarksville", "state": "TN", "county": "Montgomery County"}}, {"geometry": {"type": "Point", "coordinates": [-87.34, 36.56]}, "type": "Feature", "id": "37043", "properties": {"other_cities": "", "city": "Clarksville", "state": "TN", "county": "Montgomery County"}}, {"geometry": {"type": "Point", "coordinates": [-87.34, 36.56]}, "type": "Feature", "id": "37044", "properties": {"other_cities": "", "city": "Clarksville", "state": "TN", "county": "Montgomery County"}}, {"geometry": {"type": "Point", "coordinates": [-86.74, 35.77]}, "type": "Feature", "id": "37046", "properties": {"other_cities": "", "city": "College Grove", "state": "TN", "county": "Williamson County"}}, {"geometry": {"type": "Point", "coordinates": [-86.84, 35.35]}, "type": "Feature", "id": "37047", "properties": {"other_cities": "", "city": "Cornersville", "state": "TN", "county": "Marshall County"}}, {"geometry": {"type": "Point", "coordinates": [-86.59, 36.48]}, "type": "Feature", "id": "37048", "properties": {"other_cities": "Walnut Grove", "city": "Cottontown", "state": "TN", "county": "Sumner County"}}, {"geometry": {"type": "Point", "coordinates": [-86.68, 36.54]}, "type": "Feature", "id": "37049", "properties": {"other_cities": "", "city": "Cross Plains", "state": "TN", "county": "Robertson County"}}, {"geometry": {"type": "Point", "coordinates": [-87.64, 36.38]}, "type": "Feature", "id": "37050", "properties": {"other_cities": "Cumberlnd Cty", "city": "Cumberland City", "state": "TN", "county": "Stewart County"}}, {"geometry": {"type": "Point", "coordinates": [-87.4, 36.3]}, "type": "Feature", "id": "37051", "properties": {"other_cities": "Cmbrlnd Frnce", "city": "Cumberland Furnace", "state": "TN", "county": "Dickson County"}}, {"geometry": {"type": "Point", "coordinates": [-87.43, 36.37]}, "type": "Feature", "id": "37052", "properties": {"other_cities": "", "city": "Cunningham", "state": "TN", "county": "Montgomery County"}}, {"geometry": {"type": "Point", "coordinates": [-87.37, 36.07]}, "type": "Feature", "id": "37055", "properties": {"other_cities": "", "city": "Dickson", "state": "TN", "county": "Dickson County"}}, {"geometry": {"type": "Point", "coordinates": [-87.37, 36.07]}, "type": "Feature", "id": "37056", "properties": {"other_cities": "", "city": "Dickson", "state": "TN", "county": "Dickson County"}}, {"geometry": {"type": "Point", "coordinates": [-86.04, 36.4]}, "type": "Feature", "id": "37057", "properties": {"other_cities": "", "city": "Dixon Springs", "state": "TN", "county": "Trousdale County"}}, {"geometry": {"type": "Point", "coordinates": [-87.84, 36.48]}, "type": "Feature", "id": "37058", "properties": {"other_cities": "", "city": "Dover", "state": "TN", "county": "Stewart County"}}, {"geometry": {"type": "Point", "coordinates": [-85.94, 36.01]}, "type": "Feature", "id": "37059", "properties": {"other_cities": "", "city": "Dowelltown", "state": "TN", "county": "De Kalb County"}}, {"geometry": {"type": "Point", "coordinates": [-86.65, 35.74]}, "type": "Feature", "id": "37060", "properties": {"other_cities": "", "city": "Eagleville", "state": "TN", "county": "Rutherford County"}}, {"geometry": {"type": "Point", "coordinates": [-87.7, 36.31]}, "type": "Feature", "id": "37061", "properties": {"other_cities": "", "city": "Erin", "state": "TN", "county": "Houston County"}}, {"geometry": {"type": "Point", "coordinates": [-87.12, 35.97]}, "type": "Feature", "id": "37062", "properties": {"other_cities": "", "city": "Fairview", "state": "TN", "county": "Williamson County"}}, {"geometry": {"type": "Point", "coordinates": [-86.4, 35.65]}, "type": "Feature", "id": "37063", "properties": {"other_cities": "", "city": "Fosterville", "state": "TN", "county": "Rutherford County"}}, {"geometry": {"type": "Point", "coordinates": [-86.84, 35.92]}, "type": "Feature", "id": "37064", "properties": {"other_cities": "", "city": "Franklin", "state": "TN", "county": "Williamson County"}}, {"geometry": {"type": "Point", "coordinates": [-86.84, 35.92]}, "type": "Feature", "id": "37065", "properties": {"other_cities": "", "city": "Franklin", "state": "TN", "county": "Williamson County"}}, {"geometry": {"type": "Point", "coordinates": [-86.45, 36.37]}, "type": "Feature", "id": "37066", "properties": {"other_cities": "", "city": "Gallatin", "state": "TN", "county": "Sumner County"}}, {"geometry": {"type": "Point", "coordinates": [-86.84, 35.92]}, "type": "Feature", "id": "37067", "properties": {"other_cities": "", "city": "Franklin", "state": "TN", "county": "Williamson County"}}, {"geometry": {"type": "Point", "coordinates": [-86.84, 35.92]}, "type": "Feature", "id": "37068", "properties": {"other_cities": "", "city": "Franklin", "state": "TN", "county": "Williamson County"}}, {"geometry": {"type": "Point", "coordinates": [-86.84, 35.92]}, "type": "Feature", "id": "37069", "properties": {"other_cities": "", "city": "Franklin", "state": "TN", "county": "Williamson County"}}, {"geometry": {"type": "Point", "coordinates": [-86.7, 36.33]}, "type": "Feature", "id": "37070", "properties": {"other_cities": "Goodlettsvlle", "city": "Goodlettsville", "state": "TN", "county": "Davidson County"}}, {"geometry": {"type": "Point", "coordinates": [-86.4, 36.08]}, "type": "Feature", "id": "37071", "properties": {"other_cities": "", "city": "Gladeville", "state": "TN", "county": "Wilson County"}}, {"geometry": {"type": "Point", "coordinates": [-86.7, 36.33]}, "type": "Feature", "id": "37072", "properties": {"other_cities": "Goodlettsvlle", "city": "Goodlettsville", "state": "TN", "county": "Davidson County"}}, {"geometry": {"type": "Point", "coordinates": [-86.8, 36.42]}, "type": "Feature", "id": "37073", "properties": {"other_cities": "", "city": "Greenbrier", "state": "TN", "county": "Robertson County"}}, {"geometry": {"type": "Point", "coordinates": [-86.15, 36.39]}, "type": "Feature", "id": "37074", "properties": {"other_cities": "", "city": "Hartsville", "state": "TN", "county": "Trousdale County"}}, {"geometry": {"type": "Point", "coordinates": [-86.6, 36.29]}, "type": "Feature", "id": "37075", "properties": {"other_cities": "Hendersonvlle", "city": "Hendersonville", "state": "TN", "county": "Sumner County"}}, {"geometry": {"type": "Point", "coordinates": [-86.58, 36.13]}, "type": "Feature", "id": "37076", "properties": {"other_cities": "", "city": "Hermitage", "state": "TN", "county": "Davidson County"}}, {"geometry": {"type": "Point", "coordinates": [-86.6, 36.29]}, "type": "Feature", "id": "37077", "properties": {"other_cities": "Hendersonvlle", "city": "Hendersonville", "state": "TN", "county": "Sumner County"}}, {"geometry": {"type": "Point", "coordinates": [-87.76, 35.94]}, "type": "Feature", "id": "37078", "properties": {"other_cities": "Hurricne Mlls", "city": "Hurricane Mills", "state": "TN", "county": "Humphreys County"}}, {"geometry": {"type": "Point", "coordinates": [-87.66, 36.47]}, "type": "Feature", "id": "37079", "properties": {"other_cities": "", "city": "Indian Mound", "state": "TN", "county": "Stewart County"}}, {"geometry": {"type": "Point", "coordinates": [-86.91, 36.33]}, "type": "Feature", "id": "37080", "properties": {"other_cities": "", "city": "Joelton", "state": "TN", "county": "Davidson County"}}, {"geometry": {"type": "Point", "coordinates": [-87.1, 36.09]}, "type": "Feature", "id": "37082", "properties": {"other_cities": "Kingston Spgs", "city": "Kingston Springs", "state": "TN", "county": "Cheatham County"}}, {"geometry": {"type": "Point", "coordinates": [-86.03, 36.52]}, "type": "Feature", "id": "37083", "properties": {"other_cities": "", "city": "Lafayette", "state": "TN", "county": "Macon County"}}, {"geometry": {"type": "Point", "coordinates": [-86.29, 35.94]}, "type": "Feature", "id": "37085", "properties": {"other_cities": "", "city": "Lascassas", "state": "TN", "county": "Rutherford County"}}, {"geometry": {"type": "Point", "coordinates": [-86.57, 35.99]}, "type": "Feature", "id": "37086", "properties": {"other_cities": "", "city": "La Vergne", "state": "TN", "county": "Rutherford County"}}, {"geometry": {"type": "Point", "coordinates": [-86.32, 36.2]}, "type": "Feature", "id": "37087", "properties": {"other_cities": "", "city": "Lebanon", "state": "TN", "county": "Wilson County"}}, {"geometry": {"type": "Point", "coordinates": [-86.32, 36.2]}, "type": "Feature", "id": "37088", "properties": {"other_cities": "", "city": "Lebanon", "state": "TN", "county": "Wilson County"}}, {"geometry": {"type": "Point", "coordinates": [-86.57, 35.99]}, "type": "Feature", "id": "37089", "properties": {"other_cities": "", "city": "La Vergne", "state": "TN", "county": "Rutherford County"}}, {"geometry": {"type": "Point", "coordinates": [-86.32, 36.2]}, "type": "Feature", "id": "37090", "properties": {"other_cities": "", "city": "Lebanon", "state": "TN", "county": "Wilson County"}}, {"geometry": {"type": "Point", "coordinates": [-86.78, 35.44]}, "type": "Feature", "id": "37091", "properties": {"other_cities": "", "city": "Lewisburg", "state": "TN", "county": "Marshall County"}}, {"geometry": {"type": "Point", "coordinates": [-85.98, 36.0]}, "type": "Feature", "id": "37095", "properties": {"other_cities": "Gassaway", "city": "Liberty", "state": "TN", "county": "De Kalb County"}}, {"geometry": {"type": "Point", "coordinates": [-87.84, 35.61]}, "type": "Feature", "id": "37096", "properties": {"other_cities": "Flatwoods", "city": "Linden", "state": "TN", "county": "Perry County"}}, {"geometry": {"type": "Point", "coordinates": [-87.79, 35.75]}, "type": "Feature", "id": "37097", "properties": {"other_cities": "", "city": "Lobelville", "state": "TN", "county": "Perry County"}}, {"geometry": {"type": "Point", "coordinates": [-87.32, 35.87]}, "type": "Feature", "id": "37098", "properties": {"other_cities": "Wrigley", "city": "Lyles", "state": "TN", "county": "Hickman County"}}, {"geometry": {"type": "Point", "coordinates": [-87.63, 36.1]}, "type": "Feature", "id": "37101", "properties": {"other_cities": "", "city": "Mc Ewen", "state": "TN", "county": "Humphreys County"}}, {"geometry": {"type": "Point", "coordinates": [-85.77, 35.68]}, "type": "Feature", "id": "37110", "properties": {"other_cities": "Centertown, Mc Minnville", "city": "Mcminnville", "state": "TN", "county": "Warren County"}}, {"geometry": {"type": "Point", "coordinates": [-85.77, 35.68]}, "type": "Feature", "id": "37111", "properties": {"other_cities": "Mc Minnville", "city": "Mcminnville", "state": "TN", "county": "Warren County"}}, {"geometry": {"type": "Point", "coordinates": [-86.69, 36.25]}, "type": "Feature", "id": "37115", "properties": {"other_cities": "", "city": "Madison", "state": "TN", "county": "Davidson County"}}, {"geometry": {"type": "Point", "coordinates": [-86.69, 36.25]}, "type": "Feature", "id": "37116", "properties": {"other_cities": "", "city": "Madison", "state": "TN", "county": "Davidson County"}}, {"geometry": {"type": "Point", "coordinates": [-86.17, 35.92]}, "type": "Feature", "id": "37118", "properties": {"other_cities": "", "city": "Milton", "state": "TN", "county": "Rutherford County"}}, {"geometry": {"type": "Point", "coordinates": [-86.53, 36.63]}, "type": "Feature", "id": "37119", "properties": {"other_cities": "", "city": "Mitchellville", "state": "TN", "county": "Sumner County"}}, {"geometry": {"type": "Point", "coordinates": [-86.52, 36.2]}, "type": "Feature", "id": "37121", "properties": {"other_cities": "", "city": "Mount Juliet", "state": "TN", "county": "Wilson County"}}, {"geometry": {"type": "Point", "coordinates": [-86.52, 36.2]}, "type": "Feature", "id": "37122", "properties": {"other_cities": "", "city": "Mount Juliet", "state": "TN", "county": "Wilson County"}}, {"geometry": {"type": "Point", "coordinates": [-86.39, 35.85]}, "type": "Feature", "id": "37127", "properties": {"other_cities": "", "city": "Murfreesboro", "state": "TN", "county": "Rutherford County"}}, {"geometry": {"type": "Point", "coordinates": [-86.39, 35.85]}, "type": "Feature", "id": "37128", "properties": {"other_cities": "", "city": "Murfreesboro", "state": "TN", "county": "Rutherford County"}}, {"geometry": {"type": "Point", "coordinates": [-86.39, 35.85]}, "type": "Feature", "id": "37129", "properties": {"other_cities": "", "city": "Murfreesboro", "state": "TN", "county": "Rutherford County"}}, {"geometry": {"type": "Point", "coordinates": [-86.39, 35.85]}, "type": "Feature", "id": "37130", "properties": {"other_cities": "", "city": "Murfreesboro", "state": "TN", "county": "Rutherford County"}}, {"geometry": {"type": "Point", "coordinates": [-86.39, 35.85]}, "type": "Feature", "id": "37131", "properties": {"other_cities": "", "city": "Murfreesboro", "state": "TN", "county": "Rutherford County"}}, {"geometry": {"type": "Point", "coordinates": [-86.39, 35.85]}, "type": "Feature", "id": "37132", "properties": {"other_cities": "", "city": "Murfreesboro", "state": "TN", "county": "Rutherford County"}}, {"geometry": {"type": "Point", "coordinates": [-86.39, 35.85]}, "type": "Feature", "id": "37133", "properties": {"other_cities": "", "city": "Murfreesboro", "state": "TN", "county": "Rutherford County"}}, {"geometry": {"type": "Point", "coordinates": [-87.95, 36.01]}, "type": "Feature", "id": "37134", "properties": {"other_cities": "Denver, New Johsonvle", "city": "New Johnsonville", "state": "TN", "county": "Humphreys County"}}, {"geometry": {"type": "Point", "coordinates": [-86.64, 35.94]}, "type": "Feature", "id": "37135", "properties": {"other_cities": "", "city": "Nolensville", "state": "TN", "county": "Williamson County"}}, {"geometry": {"type": "Point", "coordinates": [-86.29, 36.11]}, "type": "Feature", "id": "37136", "properties": {"other_cities": "", "city": "Norene", "state": "TN", "county": "Wilson County"}}, {"geometry": {"type": "Point", "coordinates": [-87.52, 35.89]}, "type": "Feature", "id": "37137", "properties": {"other_cities": "", "city": "Nunnelly", "state": "TN", "county": "Hickman County"}}, {"geometry": {"type": "Point", "coordinates": [-86.61, 36.22]}, "type": "Feature", "id": "37138", "properties": {"other_cities": "Lakewood", "city": "Old Hickory", "state": "TN", "county": "Davidson County"}}, {"geometry": {"type": "Point", "coordinates": [-87.65, 35.87]}, "type": "Feature", "id": "37140", "properties": {"other_cities": "", "city": "Only", "state": "TN", "county": "Hickman County"}}, {"geometry": {"type": "Point", "coordinates": [-86.67, 36.6]}, "type": "Feature", "id": "37141", "properties": {"other_cities": "", "city": "Orlinda", "state": "TN", "county": "Robertson County"}}, {"geometry": {"type": "Point", "coordinates": [-87.5, 36.41]}, "type": "Feature", "id": "37142", "properties": {"other_cities": "", "city": "Palmyra", "state": "TN", "county": "Montgomery County"}}, {"geometry": {"type": "Point", "coordinates": [-87.05, 36.1]}, "type": "Feature", "id": "37143", "properties": {"other_cities": "", "city": "Pegram", "state": "TN", "county": "Cheatham County"}}, {"geometry": {"type": "Point", "coordinates": [-86.63, 35.31]}, "type": "Feature", "id": "37144", "properties": {"other_cities": "", "city": "Petersburg", "state": "TN", "county": "Lincoln County"}}, {"geometry": {"type": "Point", "coordinates": [-85.9, 36.35]}, "type": "Feature", "id": "37145", "properties": {"other_cities": "Pleasant Shde", "city": "Pleasant Shade", "state": "TN", "county": "Smith County"}}, {"geometry": {"type": "Point", "coordinates": [-87.04, 36.37]}, "type": "Feature", "id": "37146", "properties": {"other_cities": "", "city": "Pleasant View", "state": "TN", "county": "Cheatham County"}}, {"geometry": {"type": "Point", "coordinates": [-86.51, 36.58]}, "type": "Feature", "id": "37148", "properties": {"other_cities": "", "city": "Portland", "state": "TN", "county": "Sumner County"}}, {"geometry": {"type": "Point", "coordinates": [-86.19, 35.8]}, "type": "Feature", "id": "37149", "properties": {"other_cities": "", "city": "Readyville", "state": "TN", "county": "Rutherford County"}}, {"geometry": {"type": "Point", "coordinates": [-85.85, 36.53]}, "type": "Feature", "id": "37150", "properties": {"other_cities": "Red Blng Spgs", "city": "Red Boiling Springs", "state": "TN", "county": "Macon County"}}, {"geometry": {"type": "Point", "coordinates": [-86.03, 36.34]}, "type": "Feature", "id": "37151", "properties": {"other_cities": "", "city": "Riddleton", "state": "TN", "county": "Smith County"}}, {"geometry": {"type": "Point", "coordinates": [-86.77, 36.39]}, "type": "Feature", "id": "37152", "properties": {"other_cities": "", "city": "Ridgetop", "state": "TN", "county": "Robertson County"}}, {"geometry": {"type": "Point", "coordinates": [-86.55, 35.75]}, "type": "Feature", "id": "37153", "properties": {"other_cities": "", "city": "Rockvale", "state": "TN", "county": "Rutherford County"}}, {"geometry": {"type": "Point", "coordinates": [-86.44, 35.49]}, "type": "Feature", "id": "37160", "properties": {"other_cities": "Royal", "city": "Shelbyville", "state": "TN", "county": "Bedford County"}}, {"geometry": {"type": "Point", "coordinates": [-86.44, 35.49]}, "type": "Feature", "id": "37161", "properties": {"other_cities": "", "city": "Shelbyville", "state": "TN", "county": "Bedford County"}}, {"geometry": {"type": "Point", "coordinates": [-86.44, 35.49]}, "type": "Feature", "id": "37162", "properties": {"other_cities": "", "city": "Shelbyville", "state": "TN", "county": "Bedford County"}}, {"geometry": {"type": "Point", "coordinates": [-87.46, 36.29]}, "type": "Feature", "id": "37165", "properties": {"other_cities": "", "city": "Slayden", "state": "TN", "county": "Dickson County"}}, {"geometry": {"type": "Point", "coordinates": [-85.82, 35.95]}, "type": "Feature", "id": "37166", "properties": {"other_cities": "", "city": "Smithville", "state": "TN", "county": "De Kalb County"}}, {"geometry": {"type": "Point", "coordinates": [-86.51, 35.98]}, "type": "Feature", "id": "37167", "properties": {"other_cities": "", "city": "Smyrna", "state": "TN", "county": "Rutherford County"}}, {"geometry": {"type": "Point", "coordinates": [-87.3, 36.36]}, "type": "Feature", "id": "37171", "properties": {"other_cities": "", "city": "Southside", "state": "TN", "county": "Montgomery County"}}, {"geometry": {"type": "Point", "coordinates": [-86.87, 36.49]}, "type": "Feature", "id": "37172", "properties": {"other_cities": "", "city": "Springfield", "state": "TN", "county": "Robertson County"}}, {"geometry": {"type": "Point", "coordinates": [-86.92, 35.74]}, "type": "Feature", "id": "37174", "properties": {"other_cities": "", "city": "Spring Hill", "state": "TN", "county": "Maury County"}}, {"geometry": {"type": "Point", "coordinates": [-87.89, 36.32]}, "type": "Feature", "id": "37175", "properties": {"other_cities": "", "city": "Stewart", "state": "TN", "county": "Houston County"}}, {"geometry": {"type": "Point", "coordinates": [-87.76, 36.31]}, "type": "Feature", "id": "37178", "properties": {"other_cities": "Tennessee Rdg", "city": "Tennessee Ridge", "state": "TN", "county": "Houston County"}}, {"geometry": {"type": "Point", "coordinates": [-87.01, 35.82]}, "type": "Feature", "id": "37179", "properties": {"other_cities": "Thompsons Stn", "city": "Thompsons Station", "state": "TN", "county": "Williamson County"}}, {"geometry": {"type": "Point", "coordinates": [-86.59, 35.62]}, "type": "Feature", "id": "37180", "properties": {"other_cities": "", "city": "Unionville", "state": "TN", "county": "Bedford County"}}, {"geometry": {"type": "Point", "coordinates": [-87.44, 36.23]}, "type": "Feature", "id": "37181", "properties": {"other_cities": "", "city": "Vanleer", "state": "TN", "county": "Dickson County"}}, {"geometry": {"type": "Point", "coordinates": [-86.33, 35.52]}, "type": "Feature", "id": "37183", "properties": {"other_cities": "", "city": "Wartrace", "state": "TN", "county": "Bedford County"}}, {"geometry": {"type": "Point", "coordinates": [-86.13, 36.09]}, "type": "Feature", "id": "37184", "properties": {"other_cities": "", "city": "Watertown", "state": "TN", "county": "Wilson County"}}, {"geometry": {"type": "Point", "coordinates": [-87.78, 36.09]}, "type": "Feature", "id": "37185", "properties": {"other_cities": "", "city": "Waverly", "state": "TN", "county": "Humphreys County"}}, {"geometry": {"type": "Point", "coordinates": [-86.24, 36.56]}, "type": "Feature", "id": "37186", "properties": {"other_cities": "", "city": "Westmoreland", "state": "TN", "county": "Sumner County"}}, {"geometry": {"type": "Point", "coordinates": [-87.21, 36.1]}, "type": "Feature", "id": "37187", "properties": {"other_cities": "", "city": "White Bluff", "state": "TN", "county": "Dickson County"}}, {"geometry": {"type": "Point", "coordinates": [-86.66, 36.46]}, "type": "Feature", "id": "37188", "properties": {"other_cities": "", "city": "White House", "state": "TN", "county": "Robertson County"}}, {"geometry": {"type": "Point", "coordinates": [-86.83, 36.28]}, "type": "Feature", "id": "37189", "properties": {"other_cities": "", "city": "Whites Creek", "state": "TN", "county": "Davidson County"}}, {"geometry": {"type": "Point", "coordinates": [-86.07, 35.82]}, "type": "Feature", "id": "37190", "properties": {"other_cities": "", "city": "Woodbury", "state": "TN", "county": "Cannon County"}}, {"geometry": {"type": "Point", "coordinates": [-87.54, 36.5]}, "type": "Feature", "id": "37191", "properties": {"other_cities": "", "city": "Woodlawn", "state": "TN", "county": "Montgomery County"}}, {"geometry": {"type": "Point", "coordinates": [-86.78, 36.17]}, "type": "Feature", "id": "37201", "properties": {"other_cities": "", "city": "Nashville", "state": "TN", "county": "Davidson County"}}, {"geometry": {"type": "Point", "coordinates": [-86.78, 36.17]}, "type": "Feature", "id": "37202", "properties": {"other_cities": "", "city": "Nashville", "state": "TN", "county": "Davidson County"}}, {"geometry": {"type": "Point", "coordinates": [-86.78, 36.17]}, "type": "Feature", "id": "37203", "properties": {"other_cities": "", "city": "Nashville", "state": "TN", "county": "Davidson County"}}, {"geometry": {"type": "Point", "coordinates": [-86.78, 36.17]}, "type": "Feature", "id": "37204", "properties": {"other_cities": "Berry Hill, Melrose", "city": "Nashville", "state": "TN", "county": "Davidson County"}}, {"geometry": {"type": "Point", "coordinates": [-86.78, 36.17]}, "type": "Feature", "id": "37205", "properties": {"other_cities": "", "city": "Nashville", "state": "TN", "county": "Davidson County"}}, {"geometry": {"type": "Point", "coordinates": [-86.78, 36.17]}, "type": "Feature", "id": "37206", "properties": {"other_cities": "", "city": "Nashville", "state": "TN", "county": "Davidson County"}}, {"geometry": {"type": "Point", "coordinates": [-86.78, 36.17]}, "type": "Feature", "id": "37207", "properties": {"other_cities": "", "city": "Nashville", "state": "TN", "county": "Davidson County"}}, {"geometry": {"type": "Point", "coordinates": [-86.78, 36.17]}, "type": "Feature", "id": "37208", "properties": {"other_cities": "", "city": "Nashville", "state": "TN", "county": "Davidson County"}}, {"geometry": {"type": "Point", "coordinates": [-86.78, 36.17]}, "type": "Feature", "id": "37209", "properties": {"other_cities": "", "city": "Nashville", "state": "TN", "county": "Davidson County"}}, {"geometry": {"type": "Point", "coordinates": [-86.78, 36.17]}, "type": "Feature", "id": "37210", "properties": {"other_cities": "", "city": "Nashville", "state": "TN", "county": "Davidson County"}}, {"geometry": {"type": "Point", "coordinates": [-86.78, 36.17]}, "type": "Feature", "id": "37211", "properties": {"other_cities": "", "city": "Nashville", "state": "TN", "county": "Davidson County"}}, {"geometry": {"type": "Point", "coordinates": [-86.78, 36.17]}, "type": "Feature", "id": "37212", "properties": {"other_cities": "", "city": "Nashville", "state": "TN", "county": "Davidson County"}}, {"geometry": {"type": "Point", "coordinates": [-86.78, 36.17]}, "type": "Feature", "id": "37213", "properties": {"other_cities": "", "city": "Nashville", "state": "TN", "county": "Davidson County"}}, {"geometry": {"type": "Point", "coordinates": [-86.78, 36.17]}, "type": "Feature", "id": "37214", "properties": {"other_cities": "", "city": "Nashville", "state": "TN", "county": "Davidson County"}}, {"geometry": {"type": "Point", "coordinates": [-86.78, 36.17]}, "type": "Feature", "id": "37215", "properties": {"other_cities": "Forest Hills", "city": "Nashville", "state": "TN", "county": "Davidson County"}}, {"geometry": {"type": "Point", "coordinates": [-86.78, 36.17]}, "type": "Feature", "id": "37216", "properties": {"other_cities": "", "city": "Nashville", "state": "TN", "county": "Davidson County"}}, {"geometry": {"type": "Point", "coordinates": [-86.78, 36.17]}, "type": "Feature", "id": "37217", "properties": {"other_cities": "", "city": "Nashville", "state": "TN", "county": "Davidson County"}}, {"geometry": {"type": "Point", "coordinates": [-86.78, 36.17]}, "type": "Feature", "id": "37218", "properties": {"other_cities": "", "city": "Nashville", "state": "TN", "county": "Davidson County"}}, {"geometry": {"type": "Point", "coordinates": [-86.78, 36.17]}, "type": "Feature", "id": "37219", "properties": {"other_cities": "", "city": "Nashville", "state": "TN", "county": "Davidson County"}}, {"geometry": {"type": "Point", "coordinates": [-86.78, 36.17]}, "type": "Feature", "id": "37220", "properties": {"other_cities": "Oak Hill", "city": "Nashville", "state": "TN", "county": "Davidson County"}}, {"geometry": {"type": "Point", "coordinates": [-86.78, 36.17]}, "type": "Feature", "id": "37221", "properties": {"other_cities": "Bellevue", "city": "Nashville", "state": "TN", "county": "Davidson County"}}, {"geometry": {"type": "Point", "coordinates": [-86.78, 36.17]}, "type": "Feature", "id": "37222", "properties": {"other_cities": "", "city": "Nashville", "state": "TN", "county": "Davidson County"}}, {"geometry": {"type": "Point", "coordinates": [-86.78, 36.17]}, "type": "Feature", "id": "37224", "properties": {"other_cities": "", "city": "Nashville", "state": "TN", "county": "Davidson County"}}, {"geometry": {"type": "Point", "coordinates": [-86.78, 36.17]}, "type": "Feature", "id": "37227", "properties": {"other_cities": "", "city": "Nashville", "state": "TN", "county": "Davidson County"}}, {"geometry": {"type": "Point", "coordinates": [-86.78, 36.17]}, "type": "Feature", "id": "37228", "properties": {"other_cities": "", "city": "Nashville", "state": "TN", "county": "Davidson County"}}, {"geometry": {"type": "Point", "coordinates": [-86.78, 36.17]}, "type": "Feature", "id": "37229", "properties": {"other_cities": "", "city": "Nashville", "state": "TN", "county": "Davidson County"}}, {"geometry": {"type": "Point", "coordinates": [-86.78, 36.17]}, "type": "Feature", "id": "37230", "properties": {"other_cities": "", "city": "Nashville", "state": "TN", "county": "Davidson County"}}, {"geometry": {"type": "Point", "coordinates": [-86.78, 36.17]}, "type": "Feature", "id": "37232", "properties": {"other_cities": "", "city": "Nashville", "state": "TN", "county": "Davidson County"}}, {"geometry": {"type": "Point", "coordinates": [-86.78, 36.17]}, "type": "Feature", "id": "37234", "properties": {"other_cities": "", "city": "Nashville", "state": "TN", "county": "Davidson County"}}, {"geometry": {"type": "Point", "coordinates": [-86.78, 36.17]}, "type": "Feature", "id": "37235", "properties": {"other_cities": "", "city": "Nashville", "state": "TN", "county": "Davidson County"}}, {"geometry": {"type": "Point", "coordinates": [-86.78, 36.17]}, "type": "Feature", "id": "37236", "properties": {"other_cities": "", "city": "Nashville", "state": "TN", "county": "Davidson County"}}, {"geometry": {"type": "Point", "coordinates": [-86.78, 36.16]}, "type": "Feature", "id": "37237", "properties": {"other_cities": "", "city": "Nashville", "state": "TN", "county": "Davidson County"}}, {"geometry": {"type": "Point", "coordinates": [-86.78, 36.17]}, "type": "Feature", "id": "37238", "properties": {"other_cities": "", "city": "Nashville", "state": "TN", "county": "Davidson County"}}, {"geometry": {"type": "Point", "coordinates": [-86.78, 36.17]}, "type": "Feature", "id": "37240", "properties": {"other_cities": "", "city": "Nashville", "state": "TN", "county": "Davidson County"}}, {"geometry": {"type": "Point", "coordinates": [-86.78, 36.17]}, "type": "Feature", "id": "37241", "properties": {"other_cities": "", "city": "Nashville", "state": "TN", "county": "Davidson County"}}, {"geometry": {"type": "Point", "coordinates": [-86.78, 36.17]}, "type": "Feature", "id": "37242", "properties": {"other_cities": "", "city": "Nashville", "state": "TN", "county": "Davidson County"}}, {"geometry": {"type": "Point", "coordinates": [-86.78, 36.17]}, "type": "Feature", "id": "37243", "properties": {"other_cities": "", "city": "Nashville", "state": "TN", "county": "Davidson County"}}, {"geometry": {"type": "Point", "coordinates": [-86.78, 36.17]}, "type": "Feature", "id": "37244", "properties": {"other_cities": "", "city": "Nashville", "state": "TN", "county": "Davidson County"}}, {"geometry": {"type": "Point", "coordinates": [-86.78, 36.16]}, "type": "Feature", "id": "37245", "properties": {"other_cities": "Nashvl, Nashvle, Tn Dept Of Employment Sec", "city": "Nashville", "state": "TN", "county": "Davidson County"}}, {"geometry": {"type": "Point", "coordinates": [-86.78, 36.17]}, "type": "Feature", "id": "37246", "properties": {"other_cities": "", "city": "Nashville", "state": "TN", "county": "Davidson County"}}, {"geometry": {"type": "Point", "coordinates": [-86.78, 36.16]}, "type": "Feature", "id": "37247", "properties": {"other_cities": "Tn Dept Of Health Environ, Nashvl, Nashvle", "city": "Nashville", "state": "TN", "county": "Davidson County"}}, {"geometry": {"type": "Point", "coordinates": [-86.78, 36.16]}, "type": "Feature", "id": "37248", "properties": {"other_cities": "Tn Dept Of Human Svc, Nashvle, Nashvl", "city": "Nashville", "state": "TN", "county": "Davidson County"}}, {"geometry": {"type": "Point", "coordinates": [-86.78, 36.16]}, "type": "Feature", "id": "37249", "properties": {"other_cities": "Nashvl, Nashvle, Tn Dept Of Safety", "city": "Nashville", "state": "TN", "county": "Davidson County"}}, {"geometry": {"type": "Point", "coordinates": [-86.78, 36.17]}, "type": "Feature", "id": "37250", "properties": {"other_cities": "", "city": "Nashville", "state": "TN", "county": "Davidson County"}}, {"geometry": {"type": "Point", "coordinates": [-85.72, 35.42]}, "type": "Feature", "id": "37301", "properties": {"other_cities": "", "city": "Altamont", "state": "TN", "county": "Grundy County"}}, {"geometry": {"type": "Point", "coordinates": [-85.0, 35.01]}, "type": "Feature", "id": "37302", "properties": {"other_cities": "", "city": "Apison", "state": "TN", "county": "Hamilton County"}}, {"geometry": {"type": "Point", "coordinates": [-84.6, 35.45]}, "type": "Feature", "id": "37303", "properties": {"other_cities": "", "city": "Athens", "state": "TN", "county": "McMinn County"}}, {"geometry": {"type": "Point", "coordinates": [-85.11, 35.39]}, "type": "Feature", "id": "37304", "properties": {"other_cities": "Sale Creek", "city": "Bakewell", "state": "TN", "county": "Hamilton County"}}, {"geometry": {"type": "Point", "coordinates": [-85.67, 35.45]}, "type": "Feature", "id": "37305", "properties": {"other_cities": "Beershba Spgs", "city": "Beersheba Springs", "state": "TN", "county": "Grundy County"}}, {"geometry": {"type": "Point", "coordinates": [-86.18, 35.12]}, "type": "Feature", "id": "37306", "properties": {"other_cities": "", "city": "Belvidere", "state": "TN", "county": "Franklin County"}}, {"geometry": {"type": "Point", "coordinates": [-84.65, 35.17]}, "type": "Feature", "id": "37307", "properties": {"other_cities": "", "city": "Benton", "state": "TN", "county": "Polk County"}}, {"geometry": {"type": "Point", "coordinates": [-84.99, 35.36]}, "type": "Feature", "id": "37308", "properties": {"other_cities": "", "city": "Birchwood", "state": "TN", "county": "Hamilton County"}}, {"geometry": {"type": "Point", "coordinates": [-84.74, 35.29]}, "type": "Feature", "id": "37309", "properties": {"other_cities": "", "city": "Calhoun", "state": "TN", "county": "McMinn County"}}, {"geometry": {"type": "Point", "coordinates": [-84.76, 35.28]}, "type": "Feature", "id": "37310", "properties": {"other_cities": "", "city": "Charleston", "state": "TN", "county": "Bradley County"}}, {"geometry": {"type": "Point", "coordinates": [-84.86, 35.17]}, "type": "Feature", "id": "37311", "properties": {"other_cities": "", "city": "Cleveland", "state": "TN", "county": "Bradley County"}}, {"geometry": {"type": "Point", "coordinates": [-84.86, 35.17]}, "type": "Feature", "id": "37312", "properties": {"other_cities": "", "city": "Cleveland", "state": "TN", "county": "Bradley County"}}, {"geometry": {"type": "Point", "coordinates": [-85.71, 35.33]}, "type": "Feature", "id": "37313", "properties": {"other_cities": "", "city": "Coalmont", "state": "TN", "county": "Grundy County"}}, {"geometry": {"type": "Point", "coordinates": [-84.3, 35.26]}, "type": "Feature", "id": "37314", "properties": {"other_cities": "", "city": "Coker Creek", "state": "TN", "county": "Monroe County"}}, {"geometry": {"type": "Point", "coordinates": [-85.05, 35.04]}, "type": "Feature", "id": "37315", "properties": {"other_cities": "", "city": "Collegedale", "state": "TN", "county": "Hamilton County"}}, {"geometry": {"type": "Point", "coordinates": [-84.73, 35.0]}, "type": "Feature", "id": "37316", "properties": {"other_cities": "", "city": "Conasauga", "state": "TN", "county": "Polk County"}}, {"geometry": {"type": "Point", "coordinates": [-84.37, 34.99]}, "type": "Feature", "id": "37317", "properties": {"other_cities": "Postelle", "city": "Copperhill", "state": "TN", "county": "Polk County"}}, {"geometry": {"type": "Point", "coordinates": [-86.01, 35.16]}, "type": "Feature", "id": "37318", "properties": {"other_cities": "", "city": "Cowan", "state": "TN", "county": "Franklin County"}}, {"geometry": {"type": "Point", "coordinates": [-84.86, 35.17]}, "type": "Feature", "id": "37320", "properties": {"other_cities": "", "city": "Cleveland", "state": "TN", "county": "Bradley County"}}, {"geometry": {"type": "Point", "coordinates": [-85.01, 35.49]}, "type": "Feature", "id": "37321", "properties": {"other_cities": "", "city": "Dayton", "state": "TN", "county": "Rhea County"}}, {"geometry": {"type": "Point", "coordinates": [-84.79, 35.52]}, "type": "Feature", "id": "37322", "properties": {"other_cities": "", "city": "Decatur", "state": "TN", "county": "Meigs County"}}, {"geometry": {"type": "Point", "coordinates": [-84.86, 35.17]}, "type": "Feature", "id": "37323", "properties": {"other_cities": "", "city": "Cleveland", "state": "TN", "county": "Bradley County"}}, {"geometry": {"type": "Point", "coordinates": [-86.08, 35.2]}, "type": "Feature", "id": "37324", "properties": {"other_cities": "", "city": "Decherd", "state": "TN", "county": "Franklin County"}}, {"geometry": {"type": "Point", "coordinates": [-84.62, 35.25]}, "type": "Feature", "id": "37325", "properties": {"other_cities": "", "city": "Delano", "state": "TN", "county": "Polk County"}}, {"geometry": {"type": "Point", "coordinates": [-84.38, 35.03]}, "type": "Feature", "id": "37326", "properties": {"other_cities": "", "city": "Ducktown", "state": "TN", "county": "Polk County"}}, {"geometry": {"type": "Point", "coordinates": [-85.38, 35.37]}, "type": "Feature", "id": "37327", "properties": {"other_cities": "", "city": "Dunlap", "state": "TN", "county": "Sequatchie County"}}, {"geometry": {"type": "Point", "coordinates": [-86.35, 35.01]}, "type": "Feature", "id": "37328", "properties": {"other_cities": "", "city": "Elora", "state": "TN", "county": "Lincoln County"}}, {"geometry": {"type": "Point", "coordinates": [-84.48, 35.42]}, "type": "Feature", "id": "37329", "properties": {"other_cities": "", "city": "Englewood", "state": "TN", "county": "McMinn County"}}, {"geometry": {"type": "Point", "coordinates": [-86.13, 35.26]}, "type": "Feature", "id": "37330", "properties": {"other_cities": "Estill Spgs", "city": "Estill Springs", "state": "TN", "county": "Franklin County"}}, {"geometry": {"type": "Point", "coordinates": [-84.52, 35.33]}, "type": "Feature", "id": "37331", "properties": {"other_cities": "", "city": "Etowah", "state": "TN", "county": "McMinn County"}}, {"geometry": {"type": "Point", "coordinates": [-84.95, 35.56]}, "type": "Feature", "id": "37332", "properties": {"other_cities": "", "city": "Evensville", "state": "TN", "county": "Rhea County"}}, {"geometry": {"type": "Point", "coordinates": [-84.32, 35.14]}, "type": "Feature", "id": "37333", "properties": {"other_cities": "", "city": "Farner", "state": "TN", "county": "Polk County"}}, {"geometry": {"type": "Point", "coordinates": [-86.56, 35.14]}, "type": "Feature", "id": "37334", "properties": {"other_cities": "", "city": "Fayetteville", "state": "TN", "county": "Lincoln County"}}, {"geometry": {"type": "Point", "coordinates": [-86.45, 35.04]}, "type": "Feature", "id": "37335", "properties": {"other_cities": "", "city": "Flintville", "state": "TN", "county": "Lincoln County"}}, {"geometry": {"type": "Point", "coordinates": [-84.91, 35.3]}, "type": "Feature", "id": "37336", "properties": {"other_cities": "", "city": "Georgetown", "state": "TN", "county": "Meigs County"}}, {"geometry": {"type": "Point", "coordinates": [-84.83, 35.74]}, "type": "Feature", "id": "37337", "properties": {"other_cities": "", "city": "Grandview", "state": "TN", "county": "Rhea County"}}, {"geometry": {"type": "Point", "coordinates": [-85.08, 35.44]}, "type": "Feature", "id": "37338", "properties": {"other_cities": "", "city": "Graysville", "state": "TN", "county": "Rhea County"}}, {"geometry": {"type": "Point", "coordinates": [-85.74, 35.36]}, "type": "Feature", "id": "37339", "properties": {"other_cities": "Gruetli Laagr", "city": "Gruetli Laager", "state": "TN", "county": "Grundy County"}}, {"geometry": {"type": "Point", "coordinates": [-85.5, 35.01]}, "type": "Feature", "id": "37340", "properties": {"other_cities": "", "city": "Guild", "state": "TN", "county": "Marion County"}}, {"geometry": {"type": "Point", "coordinates": [-85.14, 35.12]}, "type": "Feature", "id": "37341", "properties": {"other_cities": "", "city": "Harrison", "state": "TN", "county": "Hamilton County"}}, {"geometry": {"type": "Point", "coordinates": [-85.95, 35.36]}, "type": "Feature", "id": "37342", "properties": {"other_cities": "", "city": "Hillsboro", "state": "TN", "county": "Coffee County"}}, {"geometry": {"type": "Point", "coordinates": [-85.2, 35.16]}, "type": "Feature", "id": "37343", "properties": {"other_cities": "", "city": "Hixson", "state": "TN", "county": "Hamilton County"}}, {"geometry": {"type": "Point", "coordinates": [-86.26, 35.05]}, "type": "Feature", "id": "37345", "properties": {"other_cities": "", "city": "Huntland", "state": "TN", "county": "Franklin County"}}, {"geometry": {"type": "Point", "coordinates": [-85.62, 35.05]}, "type": "Feature", "id": "37347", "properties": {"other_cities": "Kimball", "city": "Jasper", "state": "TN", "county": "Marion County"}}, {"geometry": {"type": "Point", "coordinates": [-86.46, 35.12]}, "type": "Feature", "id": "37348", "properties": {"other_cities": "", "city": "Kelso", "state": "TN", "county": "Lincoln County"}}, {"geometry": {"type": "Point", "coordinates": [-86.08, 35.46]}, "type": "Feature", "id": "37349", "properties": {"other_cities": "", "city": "Manchester", "state": "TN", "county": "Coffee County"}}, {"geometry": {"type": "Point", "coordinates": [-85.35, 34.99]}, "type": "Feature", "id": "37350", "properties": {"other_cities": "Lookout Mtn", "city": "Lookout Mountain", "state": "TN", "county": "Hamilton County"}}, {"geometry": {"type": "Point", "coordinates": [-85.28, 35.12]}, "type": "Feature", "id": "37351", "properties": {"other_cities": "", "city": "Lupton City", "state": "TN", "county": "Hamilton County"}}, {"geometry": {"type": "Point", "coordinates": [-86.35, 35.28]}, "type": "Feature", "id": "37352", "properties": {"other_cities": "", "city": "Lynchburg", "state": "TN", "county": "Moore County"}}, {"geometry": {"type": "Point", "coordinates": [-84.98, 35.08]}, "type": "Feature", "id": "37353", "properties": {"other_cities": "", "city": "Mc Donald", "state": "TN", "county": "Bradley County"}}, {"geometry": {"type": "Point", "coordinates": [-84.35, 35.52]}, "type": "Feature", "id": "37354", "properties": {"other_cities": "", "city": "Madisonville", "state": "TN", "county": "Monroe County"}}, {"geometry": {"type": "Point", "coordinates": [-86.08, 35.46]}, "type": "Feature", "id": "37355", "properties": {"other_cities": "", "city": "Manchester", "state": "TN", "county": "Coffee County"}}, {"geometry": {"type": "Point", "coordinates": [-85.84, 35.24]}, "type": "Feature", "id": "37356", "properties": {"other_cities": "", "city": "Monteagle", "state": "TN", "county": "Marion County"}}, {"geometry": {"type": "Point", "coordinates": [-85.91, 35.6]}, "type": "Feature", "id": "37357", "properties": {"other_cities": "", "city": "Morrison", "state": "TN", "county": "Warren County"}}, {"geometry": {"type": "Point", "coordinates": [-86.41, 35.18]}, "type": "Feature", "id": "37359", "properties": {"other_cities": "", "city": "Mulberry", "state": "TN", "county": "Lincoln County"}}, {"geometry": {"type": "Point", "coordinates": [-86.25, 35.45]}, "type": "Feature", "id": "37360", "properties": {"other_cities": "", "city": "Normandy", "state": "TN", "county": "Bedford County"}}, {"geometry": {"type": "Point", "coordinates": [-84.7, 35.1]}, "type": "Feature", "id": "37361", "properties": {"other_cities": "", "city": "Ocoee", "state": "TN", "county": "Polk County"}}, {"geometry": {"type": "Point", "coordinates": [-84.64, 35.04]}, "type": "Feature", "id": "37362", "properties": {"other_cities": "", "city": "Old Fort", "state": "TN", "county": "Polk County"}}, {"geometry": {"type": "Point", "coordinates": [-85.09, 35.06]}, "type": "Feature", "id": "37363", "properties": {"other_cities": "College Dale", "city": "Ooltewah", "state": "TN", "county": "Hamilton County"}}, {"geometry": {"type": "Point", "coordinates": [-84.86, 35.17]}, "type": "Feature", "id": "37364", "properties": {"other_cities": "", "city": "Cleveland", "state": "TN", "county": "Bradley County"}}, {"geometry": {"type": "Point", "coordinates": [-85.56, 35.35]}, "type": "Feature", "id": "37365", "properties": {"other_cities": "", "city": "Palmer", "state": "TN", "county": "Grundy County"}}, {"geometry": {"type": "Point", "coordinates": [-85.78, 35.32]}, "type": "Feature", "id": "37366", "properties": {"other_cities": "", "city": "Pelham", "state": "TN", "county": "Grundy County"}}, {"geometry": {"type": "Point", "coordinates": [-85.19, 35.6]}, "type": "Feature", "id": "37367", "properties": {"other_cities": "", "city": "Pikeville", "state": "TN", "county": "Bledsoe County"}}, {"geometry": {"type": "Point", "coordinates": [-84.56, 35.18]}, "type": "Feature", "id": "37369", "properties": {"other_cities": "", "city": "Reliance", "state": "TN", "county": "Polk County"}}, {"geometry": {"type": "Point", "coordinates": [-84.69, 35.38]}, "type": "Feature", "id": "37370", "properties": {"other_cities": "", "city": "Riceville", "state": "TN", "county": "McMinn County"}}, {"geometry": {"type": "Point", "coordinates": [-84.6, 35.45]}, "type": "Feature", "id": "37371", "properties": {"other_cities": "", "city": "Athens", "state": "TN", "county": "Mcminn County"}}, {"geometry": {"type": "Point", "coordinates": [-85.1, 35.38]}, "type": "Feature", "id": "37373", "properties": {"other_cities": "Bakewell", "city": "Sale Creek", "state": "TN", "county": "Hamilton County"}}, {"geometry": {"type": "Point", "coordinates": [-85.66, 35.19]}, "type": "Feature", "id": "37374", "properties": {"other_cities": "", "city": "Sequatchie", "state": "TN", "county": "Marion County"}}, {"geometry": {"type": "Point", "coordinates": [-85.92, 35.2]}, "type": "Feature", "id": "37375", "properties": {"other_cities": "Saint Andrews", "city": "Sewanee", "state": "TN", "county": "Franklin County"}}, {"geometry": {"type": "Point", "coordinates": [-85.95, 35.06]}, "type": "Feature", "id": "37376", "properties": {"other_cities": "", "city": "Sherwood", "state": "TN", "county": "Franklin County"}}, {"geometry": {"type": "Point", "coordinates": [-85.34, 35.13]}, "type": "Feature", "id": "37377", "properties": {"other_cities": "Signal Mtn, Walden", "city": "Signal Mountain", "state": "TN", "county": "Hamilton County"}}, {"geometry": {"type": "Point", "coordinates": [-85.84, 35.63]}, "type": "Feature", "id": "37378", "properties": {"other_cities": "", "city": "Smartt", "state": "TN", "county": "Warren County"}}, {"geometry": {"type": "Point", "coordinates": [-85.17, 35.26]}, "type": "Feature", "id": "37379", "properties": {"other_cities": "Lakesite", "city": "Soddy Daisy", "state": "TN", "county": "Hamilton County"}}, {"geometry": {"type": "Point", "coordinates": [-85.71, 35.01]}, "type": "Feature", "id": "37380", "properties": {"other_cities": "New Hope, Orme, S Pittsburg", "city": "South Pittsburg", "state": "TN", "county": "Marion County"}}, {"geometry": {"type": "Point", "coordinates": [-84.86, 35.68]}, "type": "Feature", "id": "37381", "properties": {"other_cities": "Watts Bar Dam", "city": "Spring City", "state": "TN", "county": "Rhea County"}}, {"geometry": {"type": "Point", "coordinates": [-85.97, 35.54]}, "type": "Feature", "id": "37382", "properties": {"other_cities": "", "city": "Summitville", "state": "TN", "county": "Coffee County"}}, {"geometry": {"type": "Point", "coordinates": [-85.92, 35.2]}, "type": "Feature", "id": "37383", "properties": {"other_cities": "", "city": "Sewanee", "state": "TN", "county": "Franklin County"}}, {"geometry": {"type": "Point", "coordinates": [-85.17, 35.26]}, "type": "Feature", "id": "37384", "properties": {"other_cities": "", "city": "Soddy Daisy", "state": "TN", "county": "Hamilton County"}}, {"geometry": {"type": "Point", "coordinates": [-84.29, 35.36]}, "type": "Feature", "id": "37385", "properties": {"other_cities": "Tellico Plns", "city": "Tellico Plains", "state": "TN", "county": "Monroe County"}}, {"geometry": {"type": "Point", "coordinates": [-85.75, 35.25]}, "type": "Feature", "id": "37387", "properties": {"other_cities": "", "city": "Tracy City", "state": "TN", "county": "Grundy County"}}, {"geometry": {"type": "Point", "coordinates": [-86.2, 35.37]}, "type": "Feature", "id": "37388", "properties": {"other_cities": "Dickel", "city": "Tullahoma", "state": "TN", "county": "Coffee County"}}, {"geometry": {"type": "Point", "coordinates": [-86.14, 35.37]}, "type": "Feature", "id": "37389", "properties": {"other_cities": "Tullahoma", "city": "Arnold Afb", "state": "TN", "county": "Coffee County"}}, {"geometry": {"type": "Point", "coordinates": [-84.35, 35.12]}, "type": "Feature", "id": "37391", "properties": {"other_cities": "", "city": "Turtletown", "state": "TN", "county": "Polk County"}}, {"geometry": {"type": "Point", "coordinates": [-85.86, 35.53]}, "type": "Feature", "id": "37394", "properties": {"other_cities": "", "city": "Viola", "state": "TN", "county": "Warren County"}}, {"geometry": {"type": "Point", "coordinates": [-85.39, 35.09]}, "type": "Feature", "id": "37396", "properties": {"other_cities": "", "city": "Whiteside", "state": "TN", "county": "Marion County"}}, {"geometry": {"type": "Point", "coordinates": [-85.51, 35.2]}, "type": "Feature", "id": "37397", "properties": {"other_cities": "Powells Crossroads, Powells Crsrd", "city": "Whitwell", "state": "TN", "county": "Marion County"}}, {"geometry": {"type": "Point", "coordinates": [-86.1, 35.18]}, "type": "Feature", "id": "37398", "properties": {"other_cities": "", "city": "Winchester", "state": "TN", "county": "Franklin County"}}, {"geometry": {"type": "Point", "coordinates": [-85.25, 35.06]}, "type": "Feature", "id": "37401", "properties": {"other_cities": "", "city": "Chattanooga", "state": "TN", "county": "Hamilton County"}}, {"geometry": {"type": "Point", "coordinates": [-85.25, 35.06]}, "type": "Feature", "id": "37402", "properties": {"other_cities": "", "city": "Chattanooga", "state": "TN", "county": "Hamilton County"}}, {"geometry": {"type": "Point", "coordinates": [-85.25, 35.06]}, "type": "Feature", "id": "37403", "properties": {"other_cities": "", "city": "Chattanooga", "state": "TN", "county": "Hamilton County"}}, {"geometry": {"type": "Point", "coordinates": [-85.25, 35.06]}, "type": "Feature", "id": "37404", "properties": {"other_cities": "", "city": "Chattanooga", "state": "TN", "county": "Hamilton County"}}, {"geometry": {"type": "Point", "coordinates": [-85.25, 35.06]}, "type": "Feature", "id": "37405", "properties": {"other_cities": "", "city": "Chattanooga", "state": "TN", "county": "Hamilton County"}}, {"geometry": {"type": "Point", "coordinates": [-85.25, 35.06]}, "type": "Feature", "id": "37406", "properties": {"other_cities": "", "city": "Chattanooga", "state": "TN", "county": "Hamilton County"}}, {"geometry": {"type": "Point", "coordinates": [-85.25, 35.06]}, "type": "Feature", "id": "37407", "properties": {"other_cities": "", "city": "Chattanooga", "state": "TN", "county": "Hamilton County"}}, {"geometry": {"type": "Point", "coordinates": [-85.25, 35.06]}, "type": "Feature", "id": "37408", "properties": {"other_cities": "", "city": "Chattanooga", "state": "TN", "county": "Hamilton County"}}, {"geometry": {"type": "Point", "coordinates": [-85.25, 35.06]}, "type": "Feature", "id": "37409", "properties": {"other_cities": "", "city": "Chattanooga", "state": "TN", "county": "Hamilton County"}}, {"geometry": {"type": "Point", "coordinates": [-85.25, 35.06]}, "type": "Feature", "id": "37410", "properties": {"other_cities": "", "city": "Chattanooga", "state": "TN", "county": "Hamilton County"}}, {"geometry": {"type": "Point", "coordinates": [-85.25, 35.06]}, "type": "Feature", "id": "37411", "properties": {"other_cities": "Ridgeside", "city": "Chattanooga", "state": "TN", "county": "Hamilton County"}}, {"geometry": {"type": "Point", "coordinates": [-85.25, 35.06]}, "type": "Feature", "id": "37412", "properties": {"other_cities": "East Ridge", "city": "Chattanooga", "state": "TN", "county": "Hamilton County"}}, {"geometry": {"type": "Point", "coordinates": [-85.25, 35.06]}, "type": "Feature", "id": "37414", "properties": {"other_cities": "", "city": "Chattanooga", "state": "TN", "county": "Hamilton County"}}, {"geometry": {"type": "Point", "coordinates": [-85.25, 35.06]}, "type": "Feature", "id": "37415", "properties": {"other_cities": "Red Bank", "city": "Chattanooga", "state": "TN", "county": "Hamilton County"}}, {"geometry": {"type": "Point", "coordinates": [-85.25, 35.06]}, "type": "Feature", "id": "37416", "properties": {"other_cities": "", "city": "Chattanooga", "state": "TN", "county": "Hamilton County"}}, {"geometry": {"type": "Point", "coordinates": [-85.25, 35.06]}, "type": "Feature", "id": "37419", "properties": {"other_cities": "", "city": "Chattanooga", "state": "TN", "county": "Hamilton County"}}, {"geometry": {"type": "Point", "coordinates": [-85.25, 35.06]}, "type": "Feature", "id": "37421", "properties": {"other_cities": "", "city": "Chattanooga", "state": "TN", "county": "Hamilton County"}}, {"geometry": {"type": "Point", "coordinates": [-85.25, 35.06]}, "type": "Feature", "id": "37422", "properties": {"other_cities": "", "city": "Chattanooga", "state": "TN", "county": "Hamilton County"}}, {"geometry": {"type": "Point", "coordinates": [-85.25, 35.06]}, "type": "Feature", "id": "37424", "properties": {"other_cities": "", "city": "Chattanooga", "state": "TN", "county": "Hamilton County"}}, {"geometry": {"type": "Point", "coordinates": [-85.25, 35.06]}, "type": "Feature", "id": "37450", "properties": {"other_cities": "", "city": "Chattanooga", "state": "TN", "county": "Hamilton County"}}, {"geometry": {"type": "Point", "coordinates": [-90.0, 35.1]}, "type": "Feature", "id": "37501", "properties": {"other_cities": "", "city": "Memphis", "state": "TN", "county": "Shelby County"}}, {"geometry": {"type": "Point", "coordinates": [-90.05, 35.15]}, "type": "Feature", "id": "37544", "properties": {"other_cities": "", "city": "Memphis", "state": "TN", "county": "Shelby County"}}, {"geometry": {"type": "Point", "coordinates": [-82.36, 36.33]}, "type": "Feature", "id": "37601", "properties": {"other_cities": "", "city": "Johnson City", "state": "TN", "county": "Washington County"}}, {"geometry": {"type": "Point", "coordinates": [-82.36, 36.33]}, "type": "Feature", "id": "37602", "properties": {"other_cities": "", "city": "Johnson City", "state": "TN", "county": "Washington County"}}, {"geometry": {"type": "Point", "coordinates": [-82.36, 36.33]}, "type": "Feature", "id": "37604", "properties": {"other_cities": "", "city": "Johnson City", "state": "TN", "county": "Washington County"}}, {"geometry": {"type": "Point", "coordinates": [-82.36, 36.33]}, "type": "Feature", "id": "37605", "properties": {"other_cities": "", "city": "Johnson City", "state": "TN", "county": "Washington County"}}, {"geometry": {"type": "Point", "coordinates": [-82.36, 36.33]}, "type": "Feature", "id": "37614", "properties": {"other_cities": "", "city": "Johnson City", "state": "TN", "county": "Washington County"}}, {"geometry": {"type": "Point", "coordinates": [-82.36, 36.33]}, "type": "Feature", "id": "37615", "properties": {"other_cities": "Gray", "city": "Johnson City", "state": "TN", "county": "Washington County"}}, {"geometry": {"type": "Point", "coordinates": [-82.74, 36.21]}, "type": "Feature", "id": "37616", "properties": {"other_cities": "", "city": "Afton", "state": "TN", "county": "Greene County"}}, {"geometry": {"type": "Point", "coordinates": [-82.32, 36.53]}, "type": "Feature", "id": "37617", "properties": {"other_cities": "", "city": "Blountville", "state": "TN", "county": "Sullivan County"}}, {"geometry": {"type": "Point", "coordinates": [-82.27, 36.46]}, "type": "Feature", "id": "37618", "properties": {"other_cities": "", "city": "Bluff City", "state": "TN", "county": "Sullivan County"}}, {"geometry": {"type": "Point", "coordinates": [-82.19, 36.56]}, "type": "Feature", "id": "37620", "properties": {"other_cities": "", "city": "Bristol", "state": "TN", "county": "Sullivan County"}}, {"geometry": {"type": "Point", "coordinates": [-82.19, 36.56]}, "type": "Feature", "id": "37621", "properties": {"other_cities": "", "city": "Bristol", "state": "TN", "county": "Sullivan County"}}, {"geometry": {"type": "Point", "coordinates": [-82.19, 36.56]}, "type": "Feature", "id": "37625", "properties": {"other_cities": "", "city": "Bristol", "state": "TN", "county": "Sullivan County"}}, {"geometry": {"type": "Point", "coordinates": [-82.0, 36.31]}, "type": "Feature", "id": "37640", "properties": {"other_cities": "", "city": "Butler", "state": "TN", "county": "Johnson County"}}, {"geometry": {"type": "Point", "coordinates": [-82.71, 36.24]}, "type": "Feature", "id": "37641", "properties": {"other_cities": "", "city": "Chuckey", "state": "TN", "county": "Greene County"}}, {"geometry": {"type": "Point", "coordinates": [-82.71, 36.52]}, "type": "Feature", "id": "37642", "properties": {"other_cities": "", "city": "Church Hill", "state": "TN", "county": "Hawkins County"}}, {"geometry": {"type": "Point", "coordinates": [-82.23, 36.33]}, "type": "Feature", "id": "37643", "properties": {"other_cities": "", "city": "Elizabethton", "state": "TN", "county": "Carter County"}}, {"geometry": {"type": "Point", "coordinates": [-82.23, 36.33]}, "type": "Feature", "id": "37644", "properties": {"other_cities": "", "city": "Elizabethton", "state": "TN", "county": "Carter County"}}, {"geometry": {"type": "Point", "coordinates": [-82.65, 36.56]}, "type": "Feature", "id": "37645", "properties": {"other_cities": "Church Hill, Mt Carmel", "city": "Mount Carmel", "state": "TN", "county": "Hawkins County"}}, {"geometry": {"type": "Point", "coordinates": [-82.41, 36.14]}, "type": "Feature", "id": "37650", "properties": {"other_cities": "", "city": "Erwin", "state": "TN", "county": "Unicoi County"}}, {"geometry": {"type": "Point", "coordinates": [-82.62, 36.41]}, "type": "Feature", "id": "37656", "properties": {"other_cities": "", "city": "Fall Branch", "state": "TN", "county": "Washington County"}}, {"geometry": {"type": "Point", "coordinates": [-82.56, 36.01]}, "type": "Feature", "id": "37657", "properties": {"other_cities": "", "city": "Flag Pond", "state": "TN", "county": "Unicoi County"}}, {"geometry": {"type": "Point", "coordinates": [-82.17, 36.28]}, "type": "Feature", "id": "37658", "properties": {"other_cities": "", "city": "Hampton", "state": "TN", "county": "Carter County"}}, {"geometry": {"type": "Point", "coordinates": [-82.47, 36.29]}, "type": "Feature", "id": "37659", "properties": {"other_cities": "", "city": "Jonesborough", "state": "TN", "county": "Washington County"}}, {"geometry": {"type": "Point", "coordinates": [-82.55, 36.52]}, "type": "Feature", "id": "37660", "properties": {"other_cities": "Bloomingdale", "city": "Kingsport", "state": "TN", "county": "Sullivan County"}}, {"geometry": {"type": "Point", "coordinates": [-82.55, 36.52]}, "type": "Feature", "id": "37662", "properties": {"other_cities": "", "city": "Kingsport", "state": "TN", "county": "Sullivan County"}}, {"geometry": {"type": "Point", "coordinates": [-82.55, 36.52]}, "type": "Feature", "id": "37663", "properties": {"other_cities": "Colonial Heights, Colonial Hgts", "city": "Kingsport", "state": "TN", "county": "Sullivan County"}}, {"geometry": {"type": "Point", "coordinates": [-82.55, 36.52]}, "type": "Feature", "id": "37664", "properties": {"other_cities": "", "city": "Kingsport", "state": "TN", "county": "Sullivan County"}}, {"geometry": {"type": "Point", "coordinates": [-82.55, 36.52]}, "type": "Feature", "id": "37665", "properties": {"other_cities": "", "city": "Kingsport", "state": "TN", "county": "Sullivan County"}}, {"geometry": {"type": "Point", "coordinates": [-82.55, 36.52]}, "type": "Feature", "id": "37669", "properties": {"other_cities": "", "city": "Kingsport", "state": "TN", "county": "Sullivan County"}}, {"geometry": {"type": "Point", "coordinates": [-81.76, 36.55]}, "type": "Feature", "id": "37680", "properties": {"other_cities": "Laurel Blmry", "city": "Laurel Bloomery", "state": "TN", "county": "Johnson County"}}, {"geometry": {"type": "Point", "coordinates": [-82.63, 36.22]}, "type": "Feature", "id": "37681", "properties": {"other_cities": "", "city": "Limestone", "state": "TN", "county": "Washington County"}}, {"geometry": {"type": "Point", "coordinates": [-82.29, 36.26]}, "type": "Feature", "id": "37682", "properties": {"other_cities": "Milligan Coll", "city": "Milligan College", "state": "TN", "county": "Carter County"}}, {"geometry": {"type": "Point", "coordinates": [-81.8, 36.47]}, "type": "Feature", "id": "37683", "properties": {"other_cities": "", "city": "Mountain City", "state": "TN", "county": "Johnson County"}}, {"geometry": {"type": "Point", "coordinates": [-82.36, 36.3]}, "type": "Feature", "id": "37684", "properties": {"other_cities": "Mtn Home", "city": "Mountain Home", "state": "TN", "county": "Washington County"}}, {"geometry": {"type": "Point", "coordinates": [-82.34, 36.44]}, "type": "Feature", "id": "37686", "properties": {"other_cities": "", "city": "Piney Flats", "state": "TN", "county": "Sullivan County"}}, {"geometry": {"type": "Point", "coordinates": [-82.07, 36.18]}, "type": "Feature", "id": "37687", "properties": {"other_cities": "", "city": "Roan Mountain", "state": "TN", "county": "Carter County"}}, {"geometry": {"type": "Point", "coordinates": [-81.92, 36.51]}, "type": "Feature", "id": "37688", "properties": {"other_cities": "", "city": "Shady Valley", "state": "TN", "county": "Johnson County"}}, {"geometry": {"type": "Point", "coordinates": [-82.54, 36.24]}, "type": "Feature", "id": "37690", "properties": {"other_cities": "", "city": "Telford", "state": "TN", "county": "Washington County"}}, {"geometry": {"type": "Point", "coordinates": [-81.74, 36.34]}, "type": "Feature", "id": "37691", "properties": {"other_cities": "", "city": "Trade", "state": "TN", "county": "Johnson County"}}, {"geometry": {"type": "Point", "coordinates": [-82.35, 36.19]}, "type": "Feature", "id": "37692", "properties": {"other_cities": "", "city": "Unicoi", "state": "TN", "county": "Unicoi County"}}, {"geometry": {"type": "Point", "coordinates": [-82.29, 36.36]}, "type": "Feature", "id": "37694", "properties": {"other_cities": "", "city": "Watauga", "state": "TN", "county": "Carter County"}}, {"geometry": {"type": "Point", "coordinates": [-82.34, 36.44]}, "type": "Feature", "id": "37699", "properties": {"other_cities": "", "city": "Piney Flats", "state": "TN", "county": "Sullivan County"}}, {"geometry": {"type": "Point", "coordinates": [-83.97, 35.79]}, "type": "Feature", "id": "37701", "properties": {"other_cities": "", "city": "Alcoa", "state": "TN", "county": "Blount County"}}, {"geometry": {"type": "Point", "coordinates": [-84.04, 36.2]}, "type": "Feature", "id": "37705", "properties": {"other_cities": "", "city": "Andersonville", "state": "TN", "county": "Anderson County"}}, {"geometry": {"type": "Point", "coordinates": [-83.67, 36.54]}, "type": "Feature", "id": "37707", "properties": {"other_cities": "", "city": "Arthur", "state": "TN", "county": "Claiborne County"}}, {"geometry": {"type": "Point", "coordinates": [-83.28, 36.34]}, "type": "Feature", "id": "37708", "properties": {"other_cities": "", "city": "Bean Station", "state": "TN", "county": "Grainger County"}}, {"geometry": {"type": "Point", "coordinates": [-83.69, 36.14]}, "type": "Feature", "id": "37709", "properties": {"other_cities": "", "city": "Blaine", "state": "TN", "county": "Grainger County"}}, {"geometry": {"type": "Point", "coordinates": [-84.3, 36.16]}, "type": "Feature", "id": "37710", "properties": {"other_cities": "Devonia", "city": "Briceville", "state": "TN", "county": "Anderson County"}}, {"geometry": {"type": "Point", "coordinates": [-83.07, 36.26]}, "type": "Feature", "id": "37711", "properties": {"other_cities": "", "city": "Bulls Gap", "state": "TN", "county": "Hawkins County"}}, {"geometry": {"type": "Point", "coordinates": [-83.18, 36.04]}, "type": "Feature", "id": "37713", "properties": {"other_cities": "", "city": "Bybee", "state": "TN", "county": "Cocke County"}}, {"geometry": {"type": "Point", "coordinates": [-84.21, 36.32]}, "type": "Feature", "id": "37714", "properties": {"other_cities": "", "city": "Caryville", "state": "TN", "county": "Campbell County"}}, {"geometry": {"type": "Point", "coordinates": [-83.95, 36.54]}, "type": "Feature", "id": "37715", "properties": {"other_cities": "", "city": "Clairfield", "state": "TN", "county": "Claiborne County"}}, {"geometry": {"type": "Point", "coordinates": [-84.13, 36.09]}, "type": "Feature", "id": "37716", "properties": {"other_cities": "", "city": "Clinton", "state": "TN", "county": "Anderson County"}}, {"geometry": {"type": "Point", "coordinates": [-84.13, 36.09]}, "type": "Feature", "id": "37717", "properties": {"other_cities": "", "city": "Clinton", "state": "TN", "county": "Anderson County"}}, {"geometry": {"type": "Point", "coordinates": [-84.41, 36.03]}, "type": "Feature", "id": "37719", "properties": {"other_cities": "", "city": "Coalfield", "state": "TN", "county": "Morgan County"}}, {"geometry": {"type": "Point", "coordinates": [-83.8, 36.12]}, "type": "Feature", "id": "37721", "properties": {"other_cities": "", "city": "Corryton", "state": "TN", "county": "Knox County"}}, {"geometry": {"type": "Point", "coordinates": [-83.25, 35.81]}, "type": "Feature", "id": "37722", "properties": {"other_cities": "", "city": "Cosby", "state": "TN", "county": "Cocke County"}}, {"geometry": {"type": "Point", "coordinates": [-84.88, 35.9]}, "type": "Feature", "id": "37723", "properties": {"other_cities": "", "city": "Crab Orchard", "state": "TN", "county": "Cumberland County"}}, {"geometry": {"type": "Point", "coordinates": [-83.66, 36.59]}, "type": "Feature", "id": "37724", "properties": {"other_cities": "Cumb Gap, Cumberland Gp", "city": "Cumberland Gap", "state": "TN", "county": "Claiborne County"}}, {"geometry": {"type": "Point", "coordinates": [-83.41, 36.02]}, "type": "Feature", "id": "37725", "properties": {"other_cities": "", "city": "Dandridge", "state": "TN", "county": "Jefferson County"}}, {"geometry": {"type": "Point", "coordinates": [-84.83, 36.21]}, "type": "Feature", "id": "37726", "properties": {"other_cities": "", "city": "Deer Lodge", "state": "TN", "county": "Morgan County"}}, {"geometry": {"type": "Point", "coordinates": [-83.02, 35.91]}, "type": "Feature", "id": "37727", "properties": {"other_cities": "", "city": "Del Rio", "state": "TN", "county": "Cocke County"}}, {"geometry": {"type": "Point", "coordinates": [-83.99, 36.42]}, "type": "Feature", "id": "37729", "properties": {"other_cities": "La Follette", "city": "Duff", "state": "TN", "county": "Campbell County"}}, {"geometry": {"type": "Point", "coordinates": [-83.94, 36.55]}, "type": "Feature", "id": "37730", "properties": {"other_cities": "", "city": "Eagan", "state": "TN", "county": "Claiborne County"}}, {"geometry": {"type": "Point", "coordinates": [-83.08, 36.5]}, "type": "Feature", "id": "37731", "properties": {"other_cities": "", "city": "Eidson", "state": "TN", "county": "Hawkins County"}}, {"geometry": {"type": "Point", "coordinates": [-84.6, 36.33]}, "type": "Feature", "id": "37732", "properties": {"other_cities": "", "city": "Elgin", "state": "TN", "county": "Scott County"}}, {"geometry": {"type": "Point", "coordinates": [-84.7, 36.35]}, "type": "Feature", "id": "37733", "properties": {"other_cities": "Elgin", "city": "Rugby", "state": "TN", "county": "Morgan County"}}, {"geometry": {"type": "Point", "coordinates": [-84.13, 35.75]}, "type": "Feature", "id": "37737", "properties": {"other_cities": "", "city": "Friendsville", "state": "TN", "county": "Blount County"}}, {"geometry": {"type": "Point", "coordinates": [-83.49, 35.72]}, "type": "Feature", "id": "37738", "properties": {"other_cities": "", "city": "Gatlinburg", "state": "TN", "county": "Sevier County"}}, {"geometry": {"type": "Point", "coordinates": [-84.17, 35.65]}, "type": "Feature", "id": "37742", "properties": {"other_cities": "", "city": "Greenback", "state": "TN", "county": "Loudon County"}}, {"geometry": {"type": "Point", "coordinates": [-82.81, 36.16]}, "type": "Feature", "id": "37743", "properties": {"other_cities": "Tusculum Coll", "city": "Greeneville", "state": "TN", "county": "Greene County"}}, {"geometry": {"type": "Point", "coordinates": [-82.81, 36.16]}, "type": "Feature", "id": "37744", "properties": {"other_cities": "", "city": "Greeneville", "state": "TN", "county": "Greene County"}}, {"geometry": {"type": "Point", "coordinates": [-82.81, 36.16]}, "type": "Feature", "id": "37745", "properties": {"other_cities": "Tusculum", "city": "Greeneville", "state": "TN", "county": "Greene County"}}, {"geometry": {"type": "Point", "coordinates": [-84.56, 35.93]}, "type": "Feature", "id": "37748", "properties": {"other_cities": "", "city": "Harriman", "state": "TN", "county": "Roane County"}}, {"geometry": {"type": "Point", "coordinates": [-83.54, 36.56]}, "type": "Feature", "id": "37752", "properties": {"other_cities": "", "city": "Harrogate", "state": "TN", "county": "Claiborne County"}}, {"geometry": {"type": "Point", "coordinates": [-83.14, 35.81]}, "type": "Feature", "id": "37753", "properties": {"other_cities": "", "city": "Hartford", "state": "TN", "county": "Cocke County"}}, {"geometry": {"type": "Point", "coordinates": [-84.04, 36.12]}, "type": "Feature", "id": "37754", "properties": {"other_cities": "", "city": "Heiskell", "state": "TN", "county": "Anderson County"}}, {"geometry": {"type": "Point", "coordinates": [-84.56, 36.43]}, "type": "Feature", "id": "37755", "properties": {"other_cities": "", "city": "Helenwood", "state": "TN", "county": "Scott County"}}, {"geometry": {"type": "Point", "coordinates": [-84.48, 36.41]}, "type": "Feature", "id": "37756", "properties": {"other_cities": "", "city": "Huntsville", "state": "TN", "county": "Scott County"}}, {"geometry": {"type": "Point", "coordinates": [-84.19, 36.33]}, "type": "Feature", "id": "37757", "properties": {"other_cities": "", "city": "Jacksboro", "state": "TN", "county": "Campbell County"}}, {"geometry": {"type": "Point", "coordinates": [-83.48, 36.11]}, "type": "Feature", "id": "37760", "properties": {"other_cities": "Jefferson Cty", "city": "Jefferson City", "state": "TN", "county": "Jefferson County"}}, {"geometry": {"type": "Point", "coordinates": [-84.12, 36.57]}, "type": "Feature", "id": "37762", "properties": {"other_cities": "", "city": "Jellico", "state": "TN", "county": "Campbell County"}}, {"geometry": {"type": "Point", "coordinates": [-84.51, 35.87]}, "type": "Feature", "id": "37763", "properties": {"other_cities": "", "city": "Kingston", "state": "TN", "county": "Roane County"}}, {"geometry": {"type": "Point", "coordinates": [-83.62, 35.97]}, "type": "Feature", "id": "37764", "properties": {"other_cities": "", "city": "Kodak", "state": "TN", "county": "Sevier County"}}, {"geometry": {"type": "Point", "coordinates": [-83.04, 36.57]}, "type": "Feature", "id": "37765", "properties": {"other_cities": "", "city": "Kyles Ford", "state": "TN", "county": "Hancock County"}}, {"geometry": {"type": "Point", "coordinates": [-84.12, 36.37]}, "type": "Feature", "id": "37766", "properties": {"other_cities": "Morley", "city": "La Follette", "state": "TN", "county": "Campbell County"}}, {"geometry": {"type": "Point", "coordinates": [-84.15, 36.22]}, "type": "Feature", "id": "37769", "properties": {"other_cities": "", "city": "Lake City", "state": "TN", "county": "Anderson County"}}, {"geometry": {"type": "Point", "coordinates": [-84.69, 36.15]}, "type": "Feature", "id": "37770", "properties": {"other_cities": "", "city": "Lancing", "state": "TN", "county": "Morgan County"}}, {"geometry": {"type": "Point", "coordinates": [-84.27, 35.8]}, "type": "Feature", "id": "37771", "properties": {"other_cities": "", "city": "Lenoir City", "state": "TN", "county": "Loudon County"}}, {"geometry": {"type": "Point", "coordinates": [-84.27, 35.8]}, "type": "Feature", "id": "37772", "properties": {"other_cities": "", "city": "Lenoir City", "state": "TN", "county": "Loudon County"}}, {"geometry": {"type": "Point", "coordinates": [-83.58, 36.38]}, "type": "Feature", "id": "37773", "properties": {"other_cities": "", "city": "Lone Mountain", "state": "TN", "county": "Claiborne County"}}, {"geometry": {"type": "Point", "coordinates": [-84.35, 35.73]}, "type": "Feature", "id": "37774", "properties": {"other_cities": "", "city": "Loudon", "state": "TN", "county": "Loudon County"}}, {"geometry": {"type": "Point", "coordinates": [-84.04, 35.82]}, "type": "Feature", "id": "37777", "properties": {"other_cities": "", "city": "Louisville", "state": "TN", "county": "Blount County"}}, {"geometry": {"type": "Point", "coordinates": [-83.2, 36.15]}, "type": "Feature", "id": "37778", "properties": {"other_cities": "", "city": "Lowland", "state": "TN", "county": "Hamblen County"}}, {"geometry": {"type": "Point", "coordinates": [-83.74, 36.2]}, "type": "Feature", "id": "37779", "properties": {"other_cities": "", "city": "Luttrell", "state": "TN", "county": "Union County"}}, {"geometry": {"type": "Point", "coordinates": [-83.97, 35.74]}, "type": "Feature", "id": "37801", "properties": {"other_cities": "", "city": "Maryville", "state": "TN", "county": "Blount County"}}, {"geometry": {"type": "Point", "coordinates": [-83.97, 35.74]}, "type": "Feature", "id": "37802", "properties": {"other_cities": "", "city": "Maryville", "state": "TN", "county": "Blount County"}}, {"geometry": {"type": "Point", "coordinates": [-83.97, 35.74]}, "type": "Feature", "id": "37803", "properties": {"other_cities": "", "city": "Maryville", "state": "TN", "county": "Blount County"}}, {"geometry": {"type": "Point", "coordinates": [-83.97, 35.74]}, "type": "Feature", "id": "37804", "properties": {"other_cities": "", "city": "Maryville", "state": "TN", "county": "Blount County"}}, {"geometry": {"type": "Point", "coordinates": [-83.76, 36.06]}, "type": "Feature", "id": "37806", "properties": {"other_cities": "", "city": "Mascot", "state": "TN", "county": "Knox County"}}, {"geometry": {"type": "Point", "coordinates": [-83.8, 36.24]}, "type": "Feature", "id": "37807", "properties": {"other_cities": "", "city": "Maynardville", "state": "TN", "county": "Union County"}}, {"geometry": {"type": "Point", "coordinates": [-82.42, 36.28]}, "type": "Feature", "id": "37809", "properties": {"other_cities": "", "city": "Midway", "state": "TN", "county": "Greene County"}}, {"geometry": {"type": "Point", "coordinates": [-83.05, 36.19]}, "type": "Feature", "id": "37810", "properties": {"other_cities": "", "city": "Mohawk", "state": "TN", "county": "Greene County"}}, {"geometry": {"type": "Point", "coordinates": [-83.22, 36.34]}, "type": "Feature", "id": "37811", "properties": {"other_cities": "", "city": "Mooresburg", "state": "TN", "county": "Hawkins County"}}, {"geometry": {"type": "Point", "coordinates": [-83.29, 36.21]}, "type": "Feature", "id": "37813", "properties": {"other_cities": "", "city": "Morristown", "state": "TN", "county": "Hamblen County"}}, {"geometry": {"type": "Point", "coordinates": [-83.29, 36.21]}, "type": "Feature", "id": "37814", "properties": {"other_cities": "", "city": "Morristown", "state": "TN", "county": "Hamblen County"}}, {"geometry": {"type": "Point", "coordinates": [-83.29, 36.21]}, "type": "Feature", "id": "37815", "properties": {"other_cities": "", "city": "Morristown", "state": "TN", "county": "Hamblen County"}}, {"geometry": {"type": "Point", "coordinates": [-83.29, 36.21]}, "type": "Feature", "id": "37816", "properties": {"other_cities": "", "city": "Morristown", "state": "TN", "county": "Hamblen County"}}, {"geometry": {"type": "Point", "coordinates": [-82.95, 36.19]}, "type": "Feature", "id": "37818", "properties": {"other_cities": "", "city": "Mosheim", "state": "TN", "county": "Greene County"}}, {"geometry": {"type": "Point", "coordinates": [-84.2, 36.54]}, "type": "Feature", "id": "37819", "properties": {"other_cities": "", "city": "Newcomb", "state": "TN", "county": "Campbell County"}}, {"geometry": {"type": "Point", "coordinates": [-83.55, 36.09]}, "type": "Feature", "id": "37820", "properties": {"other_cities": "", "city": "New Market", "state": "TN", "county": "Jefferson County"}}, {"geometry": {"type": "Point", "coordinates": [-83.19, 35.96]}, "type": "Feature", "id": "37821", "properties": {"other_cities": "", "city": "Newport", "state": "TN", "county": "Cocke County"}}, {"geometry": {"type": "Point", "coordinates": [-83.19, 35.96]}, "type": "Feature", "id": "37822", "properties": {"other_cities": "", "city": "Newport", "state": "TN", "county": "Cocke County"}}, {"geometry": {"type": "Point", "coordinates": [-83.6, 36.43]}, "type": "Feature", "id": "37824", "properties": {"other_cities": "", "city": "New Tazewell", "state": "TN", "county": "Claiborne County"}}, {"geometry": {"type": "Point", "coordinates": [-83.6, 36.43]}, "type": "Feature", "id": "37825", "properties": {"other_cities": "", "city": "New Tazewell", "state": "TN", "county": "Claiborne County"}}, {"geometry": {"type": "Point", "coordinates": [-84.54, 35.51]}, "type": "Feature", "id": "37826", "properties": {"other_cities": "", "city": "Niota", "state": "TN", "county": "McMinn County"}}, {"geometry": {"type": "Point", "coordinates": [-84.06, 36.21]}, "type": "Feature", "id": "37828", "properties": {"other_cities": "", "city": "Norris", "state": "TN", "county": "Anderson County"}}, {"geometry": {"type": "Point", "coordinates": [-84.55, 35.98]}, "type": "Feature", "id": "37829", "properties": {"other_cities": "", "city": "Oakdale", "state": "TN", "county": "Morgan County"}}, {"geometry": {"type": "Point", "coordinates": [-84.29, 35.96]}, "type": "Feature", "id": "37830", "properties": {"other_cities": "", "city": "Oak Ridge", "state": "TN", "county": "Anderson County"}}, {"geometry": {"type": "Point", "coordinates": [-84.29, 35.96]}, "type": "Feature", "id": "37831", "properties": {"other_cities": "", "city": "Oak Ridge", "state": "TN", "county": "Anderson County"}}, {"geometry": {"type": "Point", "coordinates": [-84.32, 36.03]}, "type": "Feature", "id": "37840", "properties": {"other_cities": "Oliver Spgs", "city": "Oliver Springs", "state": "TN", "county": "Morgan County"}}, {"geometry": {"type": "Point", "coordinates": [-84.51, 36.5]}, "type": "Feature", "id": "37841", "properties": {"other_cities": "", "city": "Oneida", "state": "TN", "county": "Scott County"}}, {"geometry": {"type": "Point", "coordinates": [-83.09, 36.0]}, "type": "Feature", "id": "37843", "properties": {"other_cities": "", "city": "Parrottsville", "state": "TN", "county": "Cocke County"}}, {"geometry": {"type": "Point", "coordinates": [-84.44, 36.09]}, "type": "Feature", "id": "37845", "properties": {"other_cities": "", "city": "Petros", "state": "TN", "county": "Morgan County"}}, {"geometry": {"type": "Point", "coordinates": [-84.4, 35.67]}, "type": "Feature", "id": "37846", "properties": {"other_cities": "", "city": "Philadelphia", "state": "TN", "county": "Loudon County"}}, {"geometry": {"type": "Point", "coordinates": [-84.29, 36.46]}, "type": "Feature", "id": "37847", "properties": {"other_cities": "", "city": "Pioneer", "state": "TN", "county": "Campbell County"}}, {"geometry": {"type": "Point", "coordinates": [-83.66, 36.24]}, "type": "Feature", "id": "37848", "properties": {"other_cities": "Powder Spgs", "city": "Powder Springs", "state": "TN", "county": "Grainger County"}}, {"geometry": {"type": "Point", "coordinates": [-84.02, 36.03]}, "type": "Feature", "id": "37849", "properties": {"other_cities": "", "city": "Powell", "state": "TN", "county": "Knox County"}}, {"geometry": {"type": "Point", "coordinates": [-83.87, 36.54]}, "type": "Feature", "id": "37851", "properties": {"other_cities": "", "city": "Pruden", "state": "TN", "county": "Claiborne County"}}, {"geometry": {"type": "Point", "coordinates": [-84.57, 36.32]}, "type": "Feature", "id": "37852", "properties": {"other_cities": "", "city": "Robbins", "state": "TN", "county": "Scott County"}}, {"geometry": {"type": "Point", "coordinates": [-83.93, 35.82]}, "type": "Feature", "id": "37853", "properties": {"other_cities": "", "city": "Rockford", "state": "TN", "county": "Blount County"}}, {"geometry": {"type": "Point", "coordinates": [-84.67, 35.87]}, "type": "Feature", "id": "37854", "properties": {"other_cities": "Ozone", "city": "Rockwood", "state": "TN", "county": "Roane County"}}, {"geometry": {"type": "Point", "coordinates": [-83.0, 36.4]}, "type": "Feature", "id": "37857", "properties": {"other_cities": "", "city": "Rogersville", "state": "TN", "county": "Hawkins County"}}, {"geometry": {"type": "Point", "coordinates": [-83.19, 36.25]}, "type": "Feature", "id": "37860", "properties": {"other_cities": "", "city": "Russellville", "state": "TN", "county": "Hamblen County"}}, {"geometry": {"type": "Point", "coordinates": [-83.52, 36.27]}, "type": "Feature", "id": "37861", "properties": {"other_cities": "", "city": "Rutledge", "state": "TN", "county": "Grainger County"}}, {"geometry": {"type": "Point", "coordinates": [-83.57, 35.89]}, "type": "Feature", "id": "37862", "properties": {"other_cities": "Pigeon Forge", "city": "Sevierville", "state": "TN", "county": "Sevier County"}}, {"geometry": {"type": "Point", "coordinates": [-83.55, 35.79]}, "type": "Feature", "id": "37863", "properties": {"other_cities": "Sevierville", "city": "Pigeon Forge", "state": "TN", "county": "Sevier County"}}, {"geometry": {"type": "Point", "coordinates": [-83.57, 35.89]}, "type": "Feature", "id": "37864", "properties": {"other_cities": "Pigeon Forge", "city": "Sevierville", "state": "TN", "county": "Sevier County"}}, {"geometry": {"type": "Point", "coordinates": [-83.77, 35.87]}, "type": "Feature", "id": "37865", "properties": {"other_cities": "", "city": "Seymour", "state": "TN", "county": "Sevier County"}}, {"geometry": {"type": "Point", "coordinates": [-83.8, 36.34]}, "type": "Feature", "id": "37866", "properties": {"other_cities": "", "city": "Sharps Chapel", "state": "TN", "county": "Union County"}}, {"geometry": {"type": "Point", "coordinates": [-83.55, 36.57]}, "type": "Feature", "id": "37867", "properties": {"other_cities": "", "city": "Shawanee", "state": "TN", "county": "Claiborne County"}}, {"geometry": {"type": "Point", "coordinates": [-83.55, 35.79]}, "type": "Feature", "id": "37868", "properties": {"other_cities": "Sevierville", "city": "Pigeon Forge", "state": "TN", "county": "Sevier County"}}, {"geometry": {"type": "Point", "coordinates": [-83.21, 36.53]}, "type": "Feature", "id": "37869", "properties": {"other_cities": "", "city": "Sneedville", "state": "TN", "county": "Hancock County"}}, {"geometry": {"type": "Point", "coordinates": [-83.81, 36.47]}, "type": "Feature", "id": "37870", "properties": {"other_cities": "", "city": "Speedwell", "state": "TN", "county": "Claiborne County"}}, {"geometry": {"type": "Point", "coordinates": [-83.68, 36.06]}, "type": "Feature", "id": "37871", "properties": {"other_cities": "Straw Plains", "city": "Strawberry Plains", "state": "TN", "county": "Jefferson County"}}, {"geometry": {"type": "Point", "coordinates": [-84.67, 36.24]}, "type": "Feature", "id": "37872", "properties": {"other_cities": "", "city": "Sunbright", "state": "TN", "county": "Morgan County"}}, {"geometry": {"type": "Point", "coordinates": [-82.85, 36.47]}, "type": "Feature", "id": "37873", "properties": {"other_cities": "", "city": "Surgoinsville", "state": "TN", "county": "Hawkins County"}}, {"geometry": {"type": "Point", "coordinates": [-84.46, 35.6]}, "type": "Feature", "id": "37874", "properties": {"other_cities": "", "city": "Sweetwater", "state": "TN", "county": "Monroe County"}}, {"geometry": {"type": "Point", "coordinates": [-83.57, 35.89]}, "type": "Feature", "id": "37876", "properties": {"other_cities": "Pigeon Forge, Pittman Center, Pittman Ctr", "city": "Sevierville", "state": "TN", "county": "Sevier County"}}, {"geometry": {"type": "Point", "coordinates": [-83.4, 36.14]}, "type": "Feature", "id": "37877", "properties": {"other_cities": "", "city": "Talbott", "state": "TN", "county": "Hamblen County"}}, {"geometry": {"type": "Point", "coordinates": [-83.93, 35.55]}, "type": "Feature", "id": "37878", "properties": {"other_cities": "", "city": "Tallassee", "state": "TN", "county": "Blount County"}}, {"geometry": {"type": "Point", "coordinates": [-83.57, 36.45]}, "type": "Feature", "id": "37879", "properties": {"other_cities": "", "city": "Tazewell", "state": "TN", "county": "Claiborne County"}}, {"geometry": {"type": "Point", "coordinates": [-84.66, 35.66]}, "type": "Feature", "id": "37880", "properties": {"other_cities": "", "city": "Ten Mile", "state": "TN", "county": "Meigs County"}}, {"geometry": {"type": "Point", "coordinates": [-83.41, 36.35]}, "type": "Feature", "id": "37881", "properties": {"other_cities": "Treadway", "city": "Thorn Hill", "state": "TN", "county": "Grainger County"}}, {"geometry": {"type": "Point", "coordinates": [-83.75, 35.67]}, "type": "Feature", "id": "37882", "properties": {"other_cities": "", "city": "Townsend", "state": "TN", "county": "Blount County"}}, {"geometry": {"type": "Point", "coordinates": [-84.23, 35.59]}, "type": "Feature", "id": "37885", "properties": {"other_cities": "", "city": "Vonore", "state": "TN", "county": "Monroe County"}}, {"geometry": {"type": "Point", "coordinates": [-83.81, 35.72]}, "type": "Feature", "id": "37886", "properties": {"other_cities": "", "city": "Walland", "state": "TN", "county": "Blount County"}}, {"geometry": {"type": "Point", "coordinates": [-84.58, 36.1]}, "type": "Feature", "id": "37887", "properties": {"other_cities": "", "city": "Wartburg", "state": "TN", "county": "Morgan County"}}, {"geometry": {"type": "Point", "coordinates": [-83.59, 36.31]}, "type": "Feature", "id": "37888", "properties": {"other_cities": "", "city": "Washburn", "state": "TN", "county": "Grainger County"}}, {"geometry": {"type": "Point", "coordinates": [-83.29, 36.09]}, "type": "Feature", "id": "37890", "properties": {"other_cities": "Baneberry", "city": "White Pine", "state": "TN", "county": "Jefferson County"}}, {"geometry": {"type": "Point", "coordinates": [-83.13, 36.29]}, "type": "Feature", "id": "37891", "properties": {"other_cities": "", "city": "Whitesburg", "state": "TN", "county": "Hamblen County"}}, {"geometry": {"type": "Point", "coordinates": [-84.45, 36.56]}, "type": "Feature", "id": "37892", "properties": {"other_cities": "", "city": "Winfield", "state": "TN", "county": "Scott County"}}, {"geometry": {"type": "Point", "coordinates": [-83.94, 35.97]}, "type": "Feature", "id": "37901", "properties": {"other_cities": "", "city": "Knoxville", "state": "TN", "county": "Knox County"}}, {"geometry": {"type": "Point", "coordinates": [-83.94, 35.97]}, "type": "Feature", "id": "37902", "properties": {"other_cities": "", "city": "Knoxville", "state": "TN", "county": "Knox County"}}, {"geometry": {"type": "Point", "coordinates": [-83.94, 35.97]}, "type": "Feature", "id": "37909", "properties": {"other_cities": "", "city": "Knoxville", "state": "TN", "county": "Knox County"}}, {"geometry": {"type": "Point", "coordinates": [-83.94, 35.97]}, "type": "Feature", "id": "37912", "properties": {"other_cities": "", "city": "Knoxville", "state": "TN", "county": "Knox County"}}, {"geometry": {"type": "Point", "coordinates": [-83.94, 35.97]}, "type": "Feature", "id": "37914", "properties": {"other_cities": "", "city": "Knoxville", "state": "TN", "county": "Knox County"}}, {"geometry": {"type": "Point", "coordinates": [-83.94, 35.97]}, "type": "Feature", "id": "37915", "properties": {"other_cities": "", "city": "Knoxville", "state": "TN", "county": "Knox County"}}, {"geometry": {"type": "Point", "coordinates": [-83.94, 35.97]}, "type": "Feature", "id": "37916", "properties": {"other_cities": "", "city": "Knoxville", "state": "TN", "county": "Knox County"}}, {"geometry": {"type": "Point", "coordinates": [-83.94, 35.97]}, "type": "Feature", "id": "37917", "properties": {"other_cities": "", "city": "Knoxville", "state": "TN", "county": "Knox County"}}, {"geometry": {"type": "Point", "coordinates": [-83.94, 35.97]}, "type": "Feature", "id": "37918", "properties": {"other_cities": "", "city": "Knoxville", "state": "TN", "county": "Knox County"}}, {"geometry": {"type": "Point", "coordinates": [-83.94, 35.97]}, "type": "Feature", "id": "37919", "properties": {"other_cities": "", "city": "Knoxville", "state": "TN", "county": "Knox County"}}, {"geometry": {"type": "Point", "coordinates": [-83.94, 35.97]}, "type": "Feature", "id": "37920", "properties": {"other_cities": "Kimberlin Heights, Kimberlin Hgt", "city": "Knoxville", "state": "TN", "county": "Knox County"}}, {"geometry": {"type": "Point", "coordinates": [-83.94, 35.97]}, "type": "Feature", "id": "37921", "properties": {"other_cities": "Karns", "city": "Knoxville", "state": "TN", "county": "Knox County"}}, {"geometry": {"type": "Point", "coordinates": [-83.94, 35.97]}, "type": "Feature", "id": "37922", "properties": {"other_cities": "Concord, Concord Farr, Concord Farragut", "city": "Knoxville", "state": "TN", "county": "Knox County"}}, {"geometry": {"type": "Point", "coordinates": [-83.94, 35.97]}, "type": "Feature", "id": "37923", "properties": {"other_cities": "", "city": "Knoxville", "state": "TN", "county": "Knox County"}}, {"geometry": {"type": "Point", "coordinates": [-83.94, 35.97]}, "type": "Feature", "id": "37924", "properties": {"other_cities": "", "city": "Knoxville", "state": "TN", "county": "Knox County"}}, {"geometry": {"type": "Point", "coordinates": [-83.94, 35.97]}, "type": "Feature", "id": "37927", "properties": {"other_cities": "", "city": "Knoxville", "state": "TN", "county": "Knox County"}}, {"geometry": {"type": "Point", "coordinates": [-83.94, 35.97]}, "type": "Feature", "id": "37928", "properties": {"other_cities": "", "city": "Knoxville", "state": "TN", "county": "Knox County"}}, {"geometry": {"type": "Point", "coordinates": [-83.94, 35.97]}, "type": "Feature", "id": "37929", "properties": {"other_cities": "", "city": "Knoxville", "state": "TN", "county": "Knox County"}}, {"geometry": {"type": "Point", "coordinates": [-83.94, 35.97]}, "type": "Feature", "id": "37930", "properties": {"other_cities": "", "city": "Knoxville", "state": "TN", "county": "Knox County"}}, {"geometry": {"type": "Point", "coordinates": [-83.94, 35.97]}, "type": "Feature", "id": "37931", "properties": {"other_cities": "", "city": "Knoxville", "state": "TN", "county": "Knox County"}}, {"geometry": {"type": "Point", "coordinates": [-83.94, 35.97]}, "type": "Feature", "id": "37932", "properties": {"other_cities": "", "city": "Knoxville", "state": "TN", "county": "Knox County"}}, {"geometry": {"type": "Point", "coordinates": [-83.94, 35.97]}, "type": "Feature", "id": "37933", "properties": {"other_cities": "Farragut", "city": "Knoxville", "state": "TN", "county": "Knox County"}}, {"geometry": {"type": "Point", "coordinates": [-84.17, 35.87]}, "type": "Feature", "id": "37934", "properties": {"other_cities": "Concord, Farragut", "city": "Knoxville", "state": "TN", "county": "Knox County"}}, {"geometry": {"type": "Point", "coordinates": [-83.94, 35.97]}, "type": "Feature", "id": "37938", "properties": {"other_cities": "", "city": "Knoxville", "state": "TN", "county": "Knox County"}}, {"geometry": {"type": "Point", "coordinates": [-83.94, 35.97]}, "type": "Feature", "id": "37939", "properties": {"other_cities": "", "city": "Knoxville", "state": "TN", "county": "Knox County"}}, {"geometry": {"type": "Point", "coordinates": [-83.94, 35.97]}, "type": "Feature", "id": "37940", "properties": {"other_cities": "", "city": "Knoxville", "state": "TN", "county": "Knox County"}}, {"geometry": {"type": "Point", "coordinates": [-83.94, 35.97]}, "type": "Feature", "id": "37950", "properties": {"other_cities": "", "city": "Knoxville", "state": "TN", "county": "Knox County"}}, {"geometry": {"type": "Point", "coordinates": [-84.12, 35.86]}, "type": "Feature", "id": "37990", "properties": {"other_cities": "", "city": "Knoxville", "state": "TN", "county": "Knox County"}}, {"geometry": {"type": "Point", "coordinates": [-83.94, 35.97]}, "type": "Feature", "id": "37995", "properties": {"other_cities": "", "city": "Knoxville", "state": "TN", "county": "Knox County"}}, {"geometry": {"type": "Point", "coordinates": [-83.94, 35.97]}, "type": "Feature", "id": "37996", "properties": {"other_cities": "", "city": "Knoxville", "state": "TN", "county": "Knox County"}}, {"geometry": {"type": "Point", "coordinates": [-83.94, 35.97]}, "type": "Feature", "id": "37997", "properties": {"other_cities": "", "city": "Knoxville", "state": "TN", "county": "Knox County"}}, {"geometry": {"type": "Point", "coordinates": [-83.94, 35.97]}, "type": "Feature", "id": "37998", "properties": {"other_cities": "", "city": "Knoxville", "state": "TN", "county": "Knox County"}}, {"geometry": {"type": "Point", "coordinates": [-89.11, 35.78]}, "type": "Feature", "id": "38001", "properties": {"other_cities": "", "city": "Alamo", "state": "TN", "county": "Crockett County"}}, {"geometry": {"type": "Point", "coordinates": [-89.66, 35.28]}, "type": "Feature", "id": "38002", "properties": {"other_cities": "Lakeland", "city": "Arlington", "state": "TN", "county": "Shelby County"}}, {"geometry": {"type": "Point", "coordinates": [-89.77, 35.44]}, "type": "Feature", "id": "38004", "properties": {"other_cities": "", "city": "Atoka", "state": "TN", "county": "Tipton County"}}, {"geometry": {"type": "Point", "coordinates": [-89.08, 35.71]}, "type": "Feature", "id": "38006", "properties": {"other_cities": "", "city": "Bells", "state": "TN", "county": "Crockett County"}}, {"geometry": {"type": "Point", "coordinates": [-89.49, 36.15]}, "type": "Feature", "id": "38007", "properties": {"other_cities": "", "city": "Bogota", "state": "TN", "county": "Dyer County"}}, {"geometry": {"type": "Point", "coordinates": [-88.99, 35.26]}, "type": "Feature", "id": "38008", "properties": {"other_cities": "", "city": "Bolivar", "state": "TN", "county": "Hardeman County"}}, {"geometry": {"type": "Point", "coordinates": [-89.57, 35.36]}, "type": "Feature", "id": "38010", "properties": {"other_cities": "", "city": "Braden", "state": "TN", "county": "Fayette County"}}, {"geometry": {"type": "Point", "coordinates": [-89.73, 35.47]}, "type": "Feature", "id": "38011", "properties": {"other_cities": "", "city": "Brighton", "state": "TN", "county": "Tipton County"}}, {"geometry": {"type": "Point", "coordinates": [-89.25, 35.59]}, "type": "Feature", "id": "38012", "properties": {"other_cities": "", "city": "Brownsville", "state": "TN", "county": "Haywood County"}}, {"geometry": {"type": "Point", "coordinates": [-89.72, 35.28]}, "type": "Feature", "id": "38014", "properties": {"other_cities": "", "city": "Brunswick", "state": "TN", "county": "Shelby County"}}, {"geometry": {"type": "Point", "coordinates": [-89.78, 35.55]}, "type": "Feature", "id": "38015", "properties": {"other_cities": "Gilt Edge", "city": "Burlison", "state": "TN", "county": "Tipton County"}}, {"geometry": {"type": "Point", "coordinates": [-89.75, 35.15]}, "type": "Feature", "id": "38016", "properties": {"other_cities": "", "city": "Cordova", "state": "TN", "county": "Shelby County"}}, {"geometry": {"type": "Point", "coordinates": [-89.67, 35.05]}, "type": "Feature", "id": "38017", "properties": {"other_cities": "Fisherville, Piperton", "city": "Collierville", "state": "TN", "county": "Shelby County"}}, {"geometry": {"type": "Point", "coordinates": [-89.75, 35.15]}, "type": "Feature", "id": "38018", "properties": {"other_cities": "", "city": "Cordova", "state": "TN", "county": "Shelby County"}}, {"geometry": {"type": "Point", "coordinates": [-89.64, 35.56]},