{"type": "FeatureCollection", "features": [{"geometry": {"type": "Point", "coordinates": [-97.74, 30.26]}, "type": "Feature", "id": "73301", "properties": {"other_cities": "", "city": "Austin", "state": "TX", "county": "Travis County"}}, {"geometry": {"type": "Point", "coordinates": [-97.74, 30.26]}, "type": "Feature", "id": "73344", "properties": {"other_cities": "", "city": "Austin", "state": "TX", "county": "Travis County"}}, {"geometry": {"type": "Point", "coordinates": [-96.83, 32.96]}, "type": "Feature", "id": "75001", "properties": {"other_cities": "", "city": "Addison", "state": "TX", "county": "Dallas County"}}, {"geometry": {"type": "Point", "coordinates": [-96.66, 33.1]}, "type": "Feature", "id": "75002", "properties": {"other_cities": "Lucas, Parker", "city": "Allen", "state": "TX", "county": "Collin County"}}, {"geometry": {"type": "Point", "coordinates": [-96.89, 32.98]}, "type": "Feature", "id": "75006", "properties": {"other_cities": "", "city": "Carrollton", "state": "TX", "county": "Dallas County"}}, {"geometry": {"type": "Point", "coordinates": [-96.89, 32.98]}, "type": "Feature", "id": "75007", "properties": {"other_cities": "", "city": "Carrollton", "state": "TX", "county": "Denton County"}}, {"geometry": {"type": "Point", "coordinates": [-96.78, 33.32]}, "type": "Feature", "id": "75009", "properties": {"other_cities": "", "city": "Celina", "state": "TX", "county": "Collin County"}}, {"geometry": {"type": "Point", "coordinates": [-96.89, 32.98]}, "type": "Feature", "id": "75010", "properties": {"other_cities": "", "city": "Carrollton", "state": "TX", "county": "Denton County"}}, {"geometry": {"type": "Point", "coordinates": [-96.89, 32.98]}, "type": "Feature", "id": "75011", "properties": {"other_cities": "", "city": "Carrollton", "state": "TX", "county": "Dallas County"}}, {"geometry": {"type": "Point", "coordinates": [-96.66, 33.1]}, "type": "Feature", "id": "75013", "properties": {"other_cities": "", "city": "Allen", "state": "TX", "county": "Collin County"}}, {"geometry": {"type": "Point", "coordinates": [-96.96, 32.85]}, "type": "Feature", "id": "75014", "properties": {"other_cities": "", "city": "Irving", "state": "TX", "county": "Dallas County"}}, {"geometry": {"type": "Point", "coordinates": [-96.96, 32.85]}, "type": "Feature", "id": "75015", "properties": {"other_cities": "", "city": "Irving", "state": "TX", "county": "Dallas County"}}, {"geometry": {"type": "Point", "coordinates": [-96.96, 32.85]}, "type": "Feature", "id": "75016", "properties": {"other_cities": "", "city": "Irving", "state": "TX", "county": "Dallas County"}}, {"geometry": {"type": "Point", "coordinates": [-96.96, 32.85]}, "type": "Feature", "id": "75017", "properties": {"other_cities": "", "city": "Irving", "state": "TX", "county": "Dallas County"}}, {"geometry": {"type": "Point", "coordinates": [-96.99, 32.96]}, "type": "Feature", "id": "75019", "properties": {"other_cities": "", "city": "Coppell", "state": "TX", "county": "Dallas County"}}, {"geometry": {"type": "Point", "coordinates": [-96.56, 33.75]}, "type": "Feature", "id": "75020", "properties": {"other_cities": "", "city": "Denison", "state": "TX", "county": "Grayson County"}}, {"geometry": {"type": "Point", "coordinates": [-96.56, 33.75]}, "type": "Feature", "id": "75021", "properties": {"other_cities": "", "city": "Denison", "state": "TX", "county": "Grayson County"}}, {"geometry": {"type": "Point", "coordinates": [-97.09, 33.02]}, "type": "Feature", "id": "75022", "properties": {"other_cities": "Flowermound, Lewisville", "city": "Flower Mound", "state": "TX", "county": "Denton County"}}, {"geometry": {"type": "Point", "coordinates": [-96.74, 33.04]}, "type": "Feature", "id": "75023", "properties": {"other_cities": "", "city": "Plano", "state": "TX", "county": "Collin County"}}, {"geometry": {"type": "Point", "coordinates": [-96.74, 33.04]}, "type": "Feature", "id": "75024", "properties": {"other_cities": "", "city": "Plano", "state": "TX", "county": "Collin County"}}, {"geometry": {"type": "Point", "coordinates": [-96.74, 33.04]}, "type": "Feature", "id": "75025", "properties": {"other_cities": "", "city": "Plano", "state": "TX", "county": "Collin County"}}, {"geometry": {"type": "Point", "coordinates": [-96.74, 33.04]}, "type": "Feature", "id": "75026", "properties": {"other_cities": "", "city": "Plano", "state": "TX", "county": "Collin County"}}, {"geometry": {"type": "Point", "coordinates": [-97.09, 33.02]}, "type": "Feature", "id": "75027", "properties": {"other_cities": "Flowermound, Lewisville", "city": "Flower Mound", "state": "TX", "county": "Denton County"}}, {"geometry": {"type": "Point", "coordinates": [-97.09, 33.02]}, "type": "Feature", "id": "75028", "properties": {"other_cities": "Flowermound, Lewisville", "city": "Flower Mound", "state": "TX", "county": "Denton County"}}, {"geometry": {"type": "Point", "coordinates": [-96.98, 33.04]}, "type": "Feature", "id": "75029", "properties": {"other_cities": "", "city": "Lewisville", "state": "TX", "county": "Denton County"}}, {"geometry": {"type": "Point", "coordinates": [-96.55, 32.9]}, "type": "Feature", "id": "75030", "properties": {"other_cities": "", "city": "Rowlett", "state": "TX", "county": "Dallas County"}}, {"geometry": {"type": "Point", "coordinates": [-96.45, 32.92]}, "type": "Feature", "id": "75032", "properties": {"other_cities": "Heath", "city": "Rockwall", "state": "TX", "county": "Rockwall County"}}, {"geometry": {"type": "Point", "coordinates": [-96.81, 33.14]}, "type": "Feature", "id": "75033", "properties": {"other_cities": "", "city": "Frisco", "state": "TX", "county": ""}}, {"geometry": {"type": "Point", "coordinates": [-96.81, 33.14]}, "type": "Feature", "id": "75034", "properties": {"other_cities": "", "city": "Frisco", "state": "TX", "county": "Denton County"}}, {"geometry": {"type": "Point", "coordinates": [-96.81, 33.14]}, "type": "Feature", "id": "75035", "properties": {"other_cities": "", "city": "Frisco", "state": "TX", "county": "Collin County"}}, {"geometry": {"type": "Point", "coordinates": [-96.8, 32.78]}, "type": "Feature", "id": "75037", "properties": {"other_cities": "Neiman Marcus", "city": "Irving", "state": "TX", "county": "Dallas County"}}, {"geometry": {"type": "Point", "coordinates": [-96.96, 32.85]}, "type": "Feature", "id": "75038", "properties": {"other_cities": "", "city": "Irving", "state": "TX", "county": "Dallas County"}}, {"geometry": {"type": "Point", "coordinates": [-96.96, 32.85]}, "type": "Feature", "id": "75039", "properties": {"other_cities": "", "city": "Irving", "state": "TX", "county": "Dallas County"}}, {"geometry": {"type": "Point", "coordinates": [-96.62, 32.91]}, "type": "Feature", "id": "75040", "properties": {"other_cities": "", "city": "Garland", "state": "TX", "county": "Dallas County"}}, {"geometry": {"type": "Point", "coordinates": [-96.62, 32.91]}, "type": "Feature", "id": "75041", "properties": {"other_cities": "", "city": "Garland", "state": "TX", "county": "Dallas County"}}, {"geometry": {"type": "Point", "coordinates": [-96.62, 32.91]}, "type": "Feature", "id": "75042", "properties": {"other_cities": "", "city": "Garland", "state": "TX", "county": "Dallas County"}}, {"geometry": {"type": "Point", "coordinates": [-96.62, 32.91]}, "type": "Feature", "id": "75043", "properties": {"other_cities": "", "city": "Garland", "state": "TX", "county": "Dallas County"}}, {"geometry": {"type": "Point", "coordinates": [-96.62, 32.91]}, "type": "Feature", "id": "75044", "properties": {"other_cities": "", "city": "Garland", "state": "TX", "county": "Dallas County"}}, {"geometry": {"type": "Point", "coordinates": [-96.62, 32.91]}, "type": "Feature", "id": "75045", "properties": {"other_cities": "", "city": "Garland", "state": "TX", "county": "Dallas County"}}, {"geometry": {"type": "Point", "coordinates": [-96.62, 32.91]}, "type": "Feature", "id": "75046", "properties": {"other_cities": "", "city": "Garland", "state": "TX", "county": "Dallas County"}}, {"geometry": {"type": "Point", "coordinates": [-96.62, 32.91]}, "type": "Feature", "id": "75047", "properties": {"other_cities": "", "city": "Garland", "state": "TX", "county": "Dallas County"}}, {"geometry": {"type": "Point", "coordinates": [-96.62, 32.91]}, "type": "Feature", "id": "75048", "properties": {"other_cities": "Garland", "city": "Sachse", "state": "TX", "county": "Dallas County"}}, {"geometry": {"type": "Point", "coordinates": [-96.62, 32.91]}, "type": "Feature", "id": "75049", "properties": {"other_cities": "", "city": "Garland", "state": "TX", "county": "Dallas County"}}, {"geometry": {"type": "Point", "coordinates": [-97.01, 32.69]}, "type": "Feature", "id": "75050", "properties": {"other_cities": "", "city": "Grand Prairie", "state": "TX", "county": "Dallas County"}}, {"geometry": {"type": "Point", "coordinates": [-97.01, 32.69]}, "type": "Feature", "id": "75051", "properties": {"other_cities": "", "city": "Grand Prairie", "state": "TX", "county": "Dallas County"}}, {"geometry": {"type": "Point", "coordinates": [-97.01, 32.69]}, "type": "Feature", "id": "75052", "properties": {"other_cities": "", "city": "Grand Prairie", "state": "TX", "county": "Dallas County"}}, {"geometry": {"type": "Point", "coordinates": [-97.01, 32.69]}, "type": "Feature", "id": "75053", "properties": {"other_cities": "", "city": "Grand Prairie", "state": "TX", "county": "Dallas County"}}, {"geometry": {"type": "Point", "coordinates": [-97.01, 32.69]}, "type": "Feature", "id": "75054", "properties": {"other_cities": "", "city": "Grand Prairie", "state": "TX", "county": "Tarrant County"}}, {"geometry": {"type": "Point", "coordinates": [-96.88, 33.09]}, "type": "Feature", "id": "75056", "properties": {"other_cities": "Lewisville", "city": "The Colony", "state": "TX", "county": "Denton County"}}, {"geometry": {"type": "Point", "coordinates": [-96.98, 33.04]}, "type": "Feature", "id": "75057", "properties": {"other_cities": "", "city": "Lewisville", "state": "TX", "county": "Denton County"}}, {"geometry": {"type": "Point", "coordinates": [-96.74, 33.45]}, "type": "Feature", "id": "75058", "properties": {"other_cities": "", "city": "Gunter", "state": "TX", "county": "Grayson County"}}, {"geometry": {"type": "Point", "coordinates": [-96.96, 32.85]}, "type": "Feature", "id": "75060", "properties": {"other_cities": "", "city": "Irving", "state": "TX", "county": "Dallas County"}}, {"geometry": {"type": "Point", "coordinates": [-96.96, 32.85]}, "type": "Feature", "id": "75061", "properties": {"other_cities": "", "city": "Irving", "state": "TX", "county": "Dallas County"}}, {"geometry": {"type": "Point", "coordinates": [-96.96, 32.85]}, "type": "Feature", "id": "75062", "properties": {"other_cities": "", "city": "Irving", "state": "TX", "county": "Dallas County"}}, {"geometry": {"type": "Point", "coordinates": [-96.96, 32.85]}, "type": "Feature", "id": "75063", "properties": {"other_cities": "", "city": "Irving", "state": "TX", "county": "Dallas County"}}, {"geometry": {"type": "Point", "coordinates": [-97.02, 33.12]}, "type": "Feature", "id": "75065", "properties": {"other_cities": "Hickory Creek", "city": "Lake Dallas", "state": "TX", "county": "Denton County"}}, {"geometry": {"type": "Point", "coordinates": [-96.98, 33.04]}, "type": "Feature", "id": "75067", "properties": {"other_cities": "", "city": "Lewisville", "state": "TX", "county": "Denton County"}}, {"geometry": {"type": "Point", "coordinates": [-96.93, 33.16]}, "type": "Feature", "id": "75068", "properties": {"other_cities": "Lakewood Village, Lakewood Vlg, Oak Point", "city": "Little Elm", "state": "TX", "county": "Denton County"}}, {"geometry": {"type": "Point", "coordinates": [-96.65, 33.2]}, "type": "Feature", "id": "75069", "properties": {"other_cities": "Fairview, Mc Kinney", "city": "Mckinney", "state": "TX", "county": "Collin County"}}, {"geometry": {"type": "Point", "coordinates": [-96.65, 33.2]}, "type": "Feature", "id": "75070", "properties": {"other_cities": "Mc Kinney", "city": "Mckinney", "state": "TX", "county": "Collin County"}}, {"geometry": {"type": "Point", "coordinates": [-96.65, 33.2]}, "type": "Feature", "id": "75071", "properties": {"other_cities": "Mc Kinney", "city": "Mckinney", "state": "TX", "county": "Collin County"}}, {"geometry": {"type": "Point", "coordinates": [-96.74, 33.04]}, "type": "Feature", "id": "75074", "properties": {"other_cities": "", "city": "Plano", "state": "TX", "county": "Collin County"}}, {"geometry": {"type": "Point", "coordinates": [-96.74, 33.04]}, "type": "Feature", "id": "75075", "properties": {"other_cities": "", "city": "Plano", "state": "TX", "county": "Collin County"}}, {"geometry": {"type": "Point", "coordinates": [-96.67, 33.77]}, "type": "Feature", "id": "75076", "properties": {"other_cities": "", "city": "Pottsboro", "state": "TX", "county": "Grayson County"}}, {"geometry": {"type": "Point", "coordinates": [-96.98, 33.04]}, "type": "Feature", "id": "75077", "properties": {"other_cities": "Copper Canyon, Double Oak, Highland Vill, Highland Village", "city": "Lewisville", "state": "TX", "county": "Denton County"}}, {"geometry": {"type": "Point", "coordinates": [-96.78, 33.24]}, "type": "Feature", "id": "75078", "properties": {"other_cities": "", "city": "Prosper", "state": "TX", "county": "Collin County"}}, {"geometry": {"type": "Point", "coordinates": [-96.7, 32.97]}, "type": "Feature", "id": "75080", "properties": {"other_cities": "", "city": "Richardson", "state": "TX", "county": "Dallas County"}}, {"geometry": {"type": "Point", "coordinates": [-96.7, 32.97]}, "type": "Feature", "id": "75081", "properties": {"other_cities": "", "city": "Richardson", "state": "TX", "county": "Dallas County"}}, {"geometry": {"type": "Point", "coordinates": [-96.7, 32.97]}, "type": "Feature", "id": "75082", "properties": {"other_cities": "", "city": "Richardson", "state": "TX", "county": "Collin County"}}, {"geometry": {"type": "Point", "coordinates": [-96.7, 32.97]}, "type": "Feature", "id": "75083", "properties": {"other_cities": "", "city": "Richardson", "state": "TX", "county": "Dallas County"}}, {"geometry": {"type": "Point", "coordinates": [-96.7, 32.97]}, "type": "Feature", "id": "75085", "properties": {"other_cities": "", "city": "Richardson", "state": "TX", "county": "Dallas County"}}, {"geometry": {"type": "Point", "coordinates": [-96.74, 33.04]}, "type": "Feature", "id": "75086", "properties": {"other_cities": "", "city": "Plano", "state": "TX", "county": "Collin County"}}, {"geometry": {"type": "Point", "coordinates": [-96.45, 32.92]}, "type": "Feature", "id": "75087", "properties": {"other_cities": "", "city": "Rockwall", "state": "TX", "county": "Rockwall County"}}, {"geometry": {"type": "Point", "coordinates": [-96.55, 32.9]}, "type": "Feature", "id": "75088", "properties": {"other_cities": "", "city": "Rowlett", "state": "TX", "county": "Dallas County"}}, {"geometry": {"type": "Point", "coordinates": [-96.55, 32.9]}, "type": "Feature", "id": "75089", "properties": {"other_cities": "", "city": "Rowlett", "state": "TX", "county": "Dallas County"}}, {"geometry": {"type": "Point", "coordinates": [-96.6, 33.61]}, "type": "Feature", "id": "75090", "properties": {"other_cities": "", "city": "Sherman", "state": "TX", "county": "Grayson County"}}, {"geometry": {"type": "Point", "coordinates": [-96.6, 33.61]}, "type": "Feature", "id": "75091", "properties": {"other_cities": "", "city": "Sherman", "state": "TX", "county": "Grayson County"}}, {"geometry": {"type": "Point", "coordinates": [-96.6, 33.61]}, "type": "Feature", "id": "75092", "properties": {"other_cities": "", "city": "Sherman", "state": "TX", "county": "Grayson County"}}, {"geometry": {"type": "Point", "coordinates": [-96.74, 33.04]}, "type": "Feature", "id": "75093", "properties": {"other_cities": "", "city": "Plano", "state": "TX", "county": "Collin County"}}, {"geometry": {"type": "Point", "coordinates": [-96.74, 33.04]}, "type": "Feature", "id": "75094", "properties": {"other_cities": "Murphy, Parker", "city": "Plano", "state": "TX", "county": "Collin County"}}, {"geometry": {"type": "Point", "coordinates": [-96.64, 33.32]}, "type": "Feature", "id": "75097", "properties": {"other_cities": "", "city": "Weston", "state": "TX", "county": "Collin County"}}, {"geometry": {"type": "Point", "coordinates": [-96.51, 33.04]}, "type": "Feature", "id": "75098", "properties": {"other_cities": "Lucas, St Paul", "city": "Wylie", "state": "TX", "county": "Collin County"}}, {"geometry": {"type": "Point", "coordinates": [-96.99, 32.96]}, "type": "Feature", "id": "75099", "properties": {"other_cities": "", "city": "Coppell", "state": "TX", "county": "Dallas County"}}, {"geometry": {"type": "Point", "coordinates": [-96.69, 32.26]}, "type": "Feature", "id": "75101", "properties": {"other_cities": "", "city": "Bardwell", "state": "TX", "county": "Ellis County"}}, {"geometry": {"type": "Point", "coordinates": [-96.63, 32.09]}, "type": "Feature", "id": "75102", "properties": {"other_cities": "", "city": "Barry", "state": "TX", "county": "Navarro County"}}, {"geometry": {"type": "Point", "coordinates": [-95.86, 32.54]}, "type": "Feature", "id": "75103", "properties": {"other_cities": "", "city": "Canton", "state": "TX", "county": "Van Zandt County"}}, {"geometry": {"type": "Point", "coordinates": [-96.95, 32.58]}, "type": "Feature", "id": "75104", "properties": {"other_cities": "", "city": "Cedar Hill", "state": "TX", "county": "Dallas County"}}, {"geometry": {"type": "Point", "coordinates": [-96.36, 32.29]}, "type": "Feature", "id": "75105", "properties": {"other_cities": "", "city": "Chatfield", "state": "TX", "county": "Navarro County"}}, {"geometry": {"type": "Point", "coordinates": [-96.95, 32.58]}, "type": "Feature", "id": "75106", "properties": {"other_cities": "", "city": "Cedar Hill", "state": "TX", "county": "Dallas County"}}, {"geometry": {"type": "Point", "coordinates": [-96.39, 32.08]}, "type": "Feature", "id": "75109", "properties": {"other_cities": "", "city": "Corsicana", "state": "TX", "county": "Navarro County"}}, {"geometry": {"type": "Point", "coordinates": [-96.46, 32.08]}, "type": "Feature", "id": "75110", "properties": {"other_cities": "", "city": "Corsicana", "state": "TX", "county": "Navarro County"}}, {"geometry": {"type": "Point", "coordinates": [-96.45, 32.63]}, "type": "Feature", "id": "75114", "properties": {"other_cities": "", "city": "Crandall", "state": "TX", "county": "Kaufman County"}}, {"geometry": {"type": "Point", "coordinates": [-96.86, 32.58]}, "type": "Feature", "id": "75115", "properties": {"other_cities": "", "city": "Desoto", "state": "TX", "county": "Dallas County"}}, {"geometry": {"type": "Point", "coordinates": [-96.91, 32.64]}, "type": "Feature", "id": "75116", "properties": {"other_cities": "", "city": "Duncanville", "state": "TX", "county": "Dallas County"}}, {"geometry": {"type": "Point", "coordinates": [-95.88, 32.69]}, "type": "Feature", "id": "75117", "properties": {"other_cities": "", "city": "Edgewood", "state": "TX", "county": "Van Zandt County"}}, {"geometry": {"type": "Point", "coordinates": [-96.21, 32.68]}, "type": "Feature", "id": "75118", "properties": {"other_cities": "", "city": "Elmo", "state": "TX", "county": "Kaufman County"}}, {"geometry": {"type": "Point", "coordinates": [-96.62, 32.33]}, "type": "Feature", "id": "75119", "properties": {"other_cities": "", "city": "Ennis", "state": "TX", "county": "Ellis County"}}, {"geometry": {"type": "Point", "coordinates": [-96.62, 32.33]}, "type": "Feature", "id": "75120", "properties": {"other_cities": "", "city": "Ennis", "state": "TX", "county": "Ellis County"}}, {"geometry": {"type": "Point", "coordinates": [-96.42, 33.08]}, "type": "Feature", "id": "75121", "properties": {"other_cities": "", "city": "Copeville", "state": "TX", "county": "Collin County"}}, {"geometry": {"type": "Point", "coordinates": [-96.86, 32.58]}, "type": "Feature", "id": "75123", "properties": {"other_cities": "", "city": "Desoto", "state": "TX", "county": "Dallas County"}}, {"geometry": {"type": "Point", "coordinates": [-96.01, 32.3]}, "type": "Feature", "id": "75124", "properties": {"other_cities": "", "city": "Eustace", "state": "TX", "county": "Henderson County"}}, {"geometry": {"type": "Point", "coordinates": [-96.66, 32.53]}, "type": "Feature", "id": "75125", "properties": {"other_cities": "", "city": "Ferris", "state": "TX", "county": "Ellis County"}}, {"geometry": {"type": "Point", "coordinates": [-96.46, 32.75]}, "type": "Feature", "id": "75126", "properties": {"other_cities": "Heartland, Heathridge", "city": "Forney", "state": "TX", "county": "Kaufman County"}}, {"geometry": {"type": "Point", "coordinates": [-95.8, 32.68]}, "type": "Feature", "id": "75127", "properties": {"other_cities": "", "city": "Fruitvale", "state": "TX", "county": "Van Zandt County"}}, {"geometry": {"type": "Point", "coordinates": [-96.38, 32.94]}, "type": "Feature", "id": "75132", "properties": {"other_cities": "", "city": "Fate", "state": "TX", "county": "Rockwall County"}}, {"geometry": {"type": "Point", "coordinates": [-96.78, 32.59]}, "type": "Feature", "id": "75134", "properties": {"other_cities": "", "city": "Lancaster", "state": "TX", "county": "Dallas County"}}, {"geometry": {"type": "Point", "coordinates": [-96.22, 33.06]}, "type": "Feature", "id": "75135", "properties": {"other_cities": "", "city": "Caddo Mills", "state": "TX", "county": "Hunt County"}}, {"geometry": {"type": "Point", "coordinates": [-96.91, 32.64]}, "type": "Feature", "id": "75137", "properties": {"other_cities": "", "city": "Duncanville", "state": "TX", "county": "Dallas County"}}, {"geometry": {"type": "Point", "coordinates": [-96.91, 32.64]}, "type": "Feature", "id": "75138", "properties": {"other_cities": "", "city": "Duncanville", "state": "TX", "county": "Dallas County"}}, {"geometry": {"type": "Point", "coordinates": [-95.71, 32.67]}, "type": "Feature", "id": "75140", "properties": {"other_cities": "", "city": "Grand Saline", "state": "TX", "county": "Van Zandt County"}}, {"geometry": {"type": "Point", "coordinates": [-96.7, 32.64]}, "type": "Feature", "id": "75141", "properties": {"other_cities": "", "city": "Hutchins", "state": "TX", "county": "Dallas County"}}, {"geometry": {"type": "Point", "coordinates": [-96.3, 32.58]}, "type": "Feature", "id": "75142", "properties": {"other_cities": "", "city": "Kaufman", "state": "TX", "county": "Kaufman County"}}, {"geometry": {"type": "Point", "coordinates": [-96.22, 32.43]}, "type": "Feature", "id": "75143", "properties": {"other_cities": "Seven Points, Tool", "city": "Kemp", "state": "TX", "county": "Henderson County"}}, {"geometry": {"type": "Point", "coordinates": [-96.22, 32.13]}, "type": "Feature", "id": "75144", "properties": {"other_cities": "", "city": "Kerens", "state": "TX", "county": "Navarro County"}}, {"geometry": {"type": "Point", "coordinates": [-96.78, 32.59]}, "type": "Feature", "id": "75146", "properties": {"other_cities": "", "city": "Lancaster", "state": "TX", "county": "Dallas County"}}, {"geometry": {"type": "Point", "coordinates": [-96.1, 32.36]}, "type": "Feature", "id": "75147", "properties": {"other_cities": "Gun Barrel City, Gun Barrel Cy", "city": "Mabank", "state": "TX", "county": "Kaufman County"}}, {"geometry": {"type": "Point", "coordinates": [-96.01, 32.17]}, "type": "Feature", "id": "75148", "properties": {"other_cities": "Log Cabin", "city": "Malakoff", "state": "TX", "county": "Henderson County"}}, {"geometry": {"type": "Point", "coordinates": [-96.59, 32.76]}, "type": "Feature", "id": "75149", "properties": {"other_cities": "", "city": "Mesquite", "state": "TX", "county": "Dallas County"}}, {"geometry": {"type": "Point", "coordinates": [-96.59, 32.76]}, "type": "Feature", "id": "75150", "properties": {"other_cities": "", "city": "Mesquite", "state": "TX", "county": "Dallas County"}}, {"geometry": {"type": "Point", "coordinates": [-96.46, 32.08]}, "type": "Feature", "id": "75151", "properties": {"other_cities": "", "city": "Corsicana", "state": "TX", "county": "Navarro County"}}, {"geometry": {"type": "Point", "coordinates": [-96.67, 32.42]}, "type": "Feature", "id": "75152", "properties": {"other_cities": "", "city": "Palmer", "state": "TX", "county": "Ellis County"}}, {"geometry": {"type": "Point", "coordinates": [-96.32, 32.11]}, "type": "Feature", "id": "75153", "properties": {"other_cities": "", "city": "Powell", "state": "TX", "county": "Navarro County"}}, {"geometry": {"type": "Point", "coordinates": [-96.8, 32.51]}, "type": "Feature", "id": "75154", "properties": {"other_cities": "Glenn Heights, Oak Leaf, Ovilla", "city": "Red Oak", "state": "TX", "county": "Ellis County"}}, {"geometry": {"type": "Point", "coordinates": [-96.5, 32.24]}, "type": "Feature", "id": "75155", "properties": {"other_cities": "", "city": "Rice", "state": "TX", "county": "Navarro County"}}, {"geometry": {"type": "Point", "coordinates": [-96.08, 32.25]}, "type": "Feature", "id": "75156", "properties": {"other_cities": "Enchanted Oak, Enchanted Oaks, Gun Barrel City, Gun Barrel Cy", "city": "Mabank", "state": "TX", "county": "Henderson County"}}, {"geometry": {"type": "Point", "coordinates": [-96.44, 32.46]}, "type": "Feature", "id": "75157", "properties": {"other_cities": "", "city": "Rosser", "state": "TX", "county": "Kaufman County"}}, {"geometry": {"type": "Point", "coordinates": [-96.41, 32.47]}, "type": "Feature", "id": "75158", "properties": {"other_cities": "", "city": "Scurry", "state": "TX", "county": "Kaufman County"}}, {"geometry": {"type": "Point", "coordinates": [-96.54, 32.65]}, "type": "Feature", "id": "75159", "properties": {"other_cities": "Combine", "city": "Seagoville", "state": "TX", "county": "Dallas County"}}, {"geometry": {"type": "Point", "coordinates": [-96.29, 32.73]}, "type": "Feature", "id": "75160", "properties": {"other_cities": "", "city": "Terrell", "state": "TX", "county": "Kaufman County"}}, {"geometry": {"type": "Point", "coordinates": [-96.29, 32.73]}, "type": "Feature", "id": "75161", "properties": {"other_cities": "", "city": "Terrell", "state": "TX", "county": "Kaufman County"}}, {"geometry": {"type": "Point", "coordinates": [-96.09, 32.14]}, "type": "Feature", "id": "75163", "properties": {"other_cities": "", "city": "Trinidad", "state": "TX", "county": "Henderson County"}}, {"geometry": {"type": "Point", "coordinates": [-96.31, 33.06]}, "type": "Feature", "id": "75164", "properties": {"other_cities": "", "city": "Josephine", "state": "TX", "county": "Collin County"}}, {"geometry": {"type": "Point", "coordinates": [-96.85, 32.4]}, "type": "Feature", "id": "75165", "properties": {"other_cities": "", "city": "Waxahachie", "state": "TX", "county": "Ellis County"}}, {"geometry": {"type": "Point", "coordinates": [-96.43, 33.02]}, "type": "Feature", "id": "75166", "properties": {"other_cities": "", "city": "Lavon", "state": "TX", "county": "Collin County"}}, {"geometry": {"type": "Point", "coordinates": [-96.85, 32.4]}, "type": "Feature", "id": "75167", "properties": {"other_cities": "", "city": "Waxahachie", "state": "TX", "county": "Ellis County"}}, {"geometry": {"type": "Point", "coordinates": [-96.85, 32.4]}, "type": "Feature", "id": "75168", "properties": {"other_cities": "", "city": "Waxahachie", "state": "TX", "county": "Ellis County"}}, {"geometry": {"type": "Point", "coordinates": [-96.0, 32.7]}, "type": "Feature", "id": "75169", "properties": {"other_cities": "", "city": "Wills Point", "state": "TX", "county": "Van Zandt County"}}, {"geometry": {"type": "Point", "coordinates": [-96.68, 32.59]}, "type": "Feature", "id": "75172", "properties": {"other_cities": "", "city": "Wilmer", "state": "TX", "county": "Dallas County"}}, {"geometry": {"type": "Point", "coordinates": [-96.37, 33.03]}, "type": "Feature", "id": "75173", "properties": {"other_cities": "", "city": "Nevada", "state": "TX", "county": "Collin County"}}, {"geometry": {"type": "Point", "coordinates": [-96.59, 32.76]}, "type": "Feature", "id": "75180", "properties": {"other_cities": "Mesquite", "city": "Balch Springs", "state": "TX", "county": "Dallas County"}}, {"geometry": {"type": "Point", "coordinates": [-96.59, 32.76]}, "type": "Feature", "id": "75181", "properties": {"other_cities": "Balch Springs", "city": "Mesquite", "state": "TX", "county": "Dallas County"}}, {"geometry": {"type": "Point", "coordinates": [-96.55, 32.79]}, "type": "Feature", "id": "75182", "properties": {"other_cities": "Mesquite", "city": "Sunnyvale", "state": "TX", "county": "Dallas County"}}, {"geometry": {"type": "Point", "coordinates": [-96.59, 32.76]}, "type": "Feature", "id": "75185", "properties": {"other_cities": "", "city": "Mesquite", "state": "TX", "county": "Dallas County"}}, {"geometry": {"type": "Point", "coordinates": [-96.59, 32.76]}, "type": "Feature", "id": "75187", "properties": {"other_cities": "", "city": "Mesquite", "state": "TX", "county": "Dallas County"}}, {"geometry": {"type": "Point", "coordinates": [-96.33, 32.97]}, "type": "Feature", "id": "75189", "properties": {"other_cities": "", "city": "Royse City", "state": "TX", "county": "Rockwall County"}}, {"geometry": {"type": "Point", "coordinates": [-96.76, 32.79]}, "type": "Feature", "id": "75201", "properties": {"other_cities": "", "city": "Dallas", "state": "TX", "county": "Dallas County"}}, {"geometry": {"type": "Point", "coordinates": [-96.76, 32.79]}, "type": "Feature", "id": "75202", "properties": {"other_cities": "", "city": "Dallas", "state": "TX", "county": "Dallas County"}}, {"geometry": {"type": "Point", "coordinates": [-96.76, 32.79]}, "type": "Feature", "id": "75203", "properties": {"other_cities": "", "city": "Dallas", "state": "TX", "county": "Dallas County"}}, {"geometry": {"type": "Point", "coordinates": [-96.76, 32.79]}, "type": "Feature", "id": "75204", "properties": {"other_cities": "", "city": "Dallas", "state": "TX", "county": "Dallas County"}}, {"geometry": {"type": "Point", "coordinates": [-96.76, 32.79]}, "type": "Feature", "id": "75205", "properties": {"other_cities": "", "city": "Dallas", "state": "TX", "county": "Dallas County"}}, {"geometry": {"type": "Point", "coordinates": [-96.76, 32.79]}, "type": "Feature", "id": "75206", "properties": {"other_cities": "", "city": "Dallas", "state": "TX", "county": "Dallas County"}}, {"geometry": {"type": "Point", "coordinates": [-96.76, 32.79]}, "type": "Feature", "id": "75207", "properties": {"other_cities": "", "city": "Dallas", "state": "TX", "county": "Dallas County"}}, {"geometry": {"type": "Point", "coordinates": [-96.76, 32.79]}, "type": "Feature", "id": "75208", "properties": {"other_cities": "", "city": "Dallas", "state": "TX", "county": "Dallas County"}}, {"geometry": {"type": "Point", "coordinates": [-96.76, 32.79]}, "type": "Feature", "id": "75209", "properties": {"other_cities": "", "city": "Dallas", "state": "TX", "county": "Dallas County"}}, {"geometry": {"type": "Point", "coordinates": [-96.76, 32.79]}, "type": "Feature", "id": "75210", "properties": {"other_cities": "", "city": "Dallas", "state": "TX", "county": "Dallas County"}}, {"geometry": {"type": "Point", "coordinates": [-96.76, 32.79]}, "type": "Feature", "id": "75211", "properties": {"other_cities": "", "city": "Dallas", "state": "TX", "county": "Dallas County"}}, {"geometry": {"type": "Point", "coordinates": [-96.76, 32.79]}, "type": "Feature", "id": "75212", "properties": {"other_cities": "", "city": "Dallas", "state": "TX", "county": "Dallas County"}}, {"geometry": {"type": "Point", "coordinates": [-96.76, 32.79]}, "type": "Feature", "id": "75214", "properties": {"other_cities": "", "city": "Dallas", "state": "TX", "county": "Dallas County"}}, {"geometry": {"type": "Point", "coordinates": [-96.76, 32.79]}, "type": "Feature", "id": "75215", "properties": {"other_cities": "", "city": "Dallas", "state": "TX", "county": "Dallas County"}}, {"geometry": {"type": "Point", "coordinates": [-96.76, 32.79]}, "type": "Feature", "id": "75216", "properties": {"other_cities": "", "city": "Dallas", "state": "TX", "county": "Dallas County"}}, {"geometry": {"type": "Point", "coordinates": [-96.76, 32.79]}, "type": "Feature", "id": "75217", "properties": {"other_cities": "", "city": "Dallas", "state": "TX", "county": "Dallas County"}}, {"geometry": {"type": "Point", "coordinates": [-96.76, 32.79]}, "type": "Feature", "id": "75218", "properties": {"other_cities": "", "city": "Dallas", "state": "TX", "county": "Dallas County"}}, {"geometry": {"type": "Point", "coordinates": [-96.76, 32.79]}, "type": "Feature", "id": "75219", "properties": {"other_cities": "", "city": "Dallas", "state": "TX", "county": "Dallas County"}}, {"geometry": {"type": "Point", "coordinates": [-96.76, 32.79]}, "type": "Feature", "id": "75220", "properties": {"other_cities": "", "city": "Dallas", "state": "TX", "county": "Dallas County"}}, {"geometry": {"type": "Point", "coordinates": [-96.76, 32.79]}, "type": "Feature", "id": "75221", "properties": {"other_cities": "", "city": "Dallas", "state": "TX", "county": "Dallas County"}}, {"geometry": {"type": "Point", "coordinates": [-96.76, 32.79]}, "type": "Feature", "id": "75222", "properties": {"other_cities": "", "city": "Dallas", "state": "TX", "county": "Dallas County"}}, {"geometry": {"type": "Point", "coordinates": [-96.76, 32.79]}, "type": "Feature", "id": "75223", "properties": {"other_cities": "", "city": "Dallas", "state": "TX", "county": "Dallas County"}}, {"geometry": {"type": "Point", "coordinates": [-96.76, 32.79]}, "type": "Feature", "id": "75224", "properties": {"other_cities": "", "city": "Dallas", "state": "TX", "county": "Dallas County"}}, {"geometry": {"type": "Point", "coordinates": [-96.76, 32.79]}, "type": "Feature", "id": "75225", "properties": {"other_cities": "", "city": "Dallas", "state": "TX", "county": "Dallas County"}}, {"geometry": {"type": "Point", "coordinates": [-96.76, 32.79]}, "type": "Feature", "id": "75226", "properties": {"other_cities": "", "city": "Dallas", "state": "TX", "county": "Dallas County"}}, {"geometry": {"type": "Point", "coordinates": [-96.76, 32.79]}, "type": "Feature", "id": "75227", "properties": {"other_cities": "", "city": "Dallas", "state": "TX", "county": "Dallas County"}}, {"geometry": {"type": "Point", "coordinates": [-96.76, 32.79]}, "type": "Feature", "id": "75228", "properties": {"other_cities": "", "city": "Dallas", "state": "TX", "county": "Dallas County"}}, {"geometry": {"type": "Point", "coordinates": [-96.76, 32.79]}, "type": "Feature", "id": "75229", "properties": {"other_cities": "", "city": "Dallas", "state": "TX", "county": "Dallas County"}}, {"geometry": {"type": "Point", "coordinates": [-96.76, 32.79]}, "type": "Feature", "id": "75230", "properties": {"other_cities": "", "city": "Dallas", "state": "TX", "county": "Dallas County"}}, {"geometry": {"type": "Point", "coordinates": [-96.76, 32.79]}, "type": "Feature", "id": "75231", "properties": {"other_cities": "", "city": "Dallas", "state": "TX", "county": "Dallas County"}}, {"geometry": {"type": "Point", "coordinates": [-96.76, 32.79]}, "type": "Feature", "id": "75232", "properties": {"other_cities": "", "city": "Dallas", "state": "TX", "county": "Dallas County"}}, {"geometry": {"type": "Point", "coordinates": [-96.76, 32.79]}, "type": "Feature", "id": "75233", "properties": {"other_cities": "", "city": "Dallas", "state": "TX", "county": "Dallas County"}}, {"geometry": {"type": "Point", "coordinates": [-96.76, 32.79]}, "type": "Feature", "id": "75234", "properties": {"other_cities": "Farmers Branch, Farmers Brnch", "city": "Dallas", "state": "TX", "county": "Dallas County"}}, {"geometry": {"type": "Point", "coordinates": [-96.76, 32.79]}, "type": "Feature", "id": "75235", "properties": {"other_cities": "", "city": "Dallas", "state": "TX", "county": "Dallas County"}}, {"geometry": {"type": "Point", "coordinates": [-96.76, 32.79]}, "type": "Feature", "id": "75236", "properties": {"other_cities": "", "city": "Dallas", "state": "TX", "county": "Dallas County"}}, {"geometry": {"type": "Point", "coordinates": [-96.76, 32.79]}, "type": "Feature", "id": "75237", "properties": {"other_cities": "", "city": "Dallas", "state": "TX", "county": "Dallas County"}}, {"geometry": {"type": "Point", "coordinates": [-96.76, 32.79]}, "type": "Feature", "id": "75238", "properties": {"other_cities": "", "city": "Dallas", "state": "TX", "county": "Dallas County"}}, {"geometry": {"type": "Point", "coordinates": [-96.76, 32.79]}, "type": "Feature", "id": "75240", "properties": {"other_cities": "", "city": "Dallas", "state": "TX", "county": "Dallas County"}}, {"geometry": {"type": "Point", "coordinates": [-96.76, 32.79]}, "type": "Feature", "id": "75241", "properties": {"other_cities": "", "city": "Dallas", "state": "TX", "county": "Dallas County"}}, {"geometry": {"type": "Point", "coordinates": [-96.76, 32.79]}, "type": "Feature", "id": "75242", "properties": {"other_cities": "", "city": "Dallas", "state": "TX", "county": "Dallas County"}}, {"geometry": {"type": "Point", "coordinates": [-96.76, 32.79]}, "type": "Feature", "id": "75243", "properties": {"other_cities": "", "city": "Dallas", "state": "TX", "county": "Dallas County"}}, {"geometry": {"type": "Point", "coordinates": [-96.76, 32.79]}, "type": "Feature", "id": "75244", "properties": {"other_cities": "Farmers Branch, Farmers Brnch, North Branch", "city": "Dallas", "state": "TX", "county": "Dallas County"}}, {"geometry": {"type": "Point", "coordinates": [-96.83, 32.82]}, "type": "Feature", "id": "75245", "properties": {"other_cities": "", "city": "Dallas", "state": "TX", "county": "Dallas County"}}, {"geometry": {"type": "Point", "coordinates": [-96.76, 32.79]}, "type": "Feature", "id": "75246", "properties": {"other_cities": "", "city": "Dallas", "state": "TX", "county": "Dallas County"}}, {"geometry": {"type": "Point", "coordinates": [-96.76, 32.79]}, "type": "Feature", "id": "75247", "properties": {"other_cities": "", "city": "Dallas", "state": "TX", "county": "Dallas County"}}, {"geometry": {"type": "Point", "coordinates": [-96.76, 32.79]}, "type": "Feature", "id": "75248", "properties": {"other_cities": "", "city": "Dallas", "state": "TX", "county": "Dallas County"}}, {"geometry": {"type": "Point", "coordinates": [-96.76, 32.79]}, "type": "Feature", "id": "75249", "properties": {"other_cities": "", "city": "Dallas", "state": "TX", "county": "Dallas County"}}, {"geometry": {"type": "Point", "coordinates": [-96.76, 32.79]}, "type": "Feature", "id": "75250", "properties": {"other_cities": "", "city": "Dallas", "state": "TX", "county": "Dallas County"}}, {"geometry": {"type": "Point", "coordinates": [-96.76, 32.79]}, "type": "Feature", "id": "75251", "properties": {"other_cities": "", "city": "Dallas", "state": "TX", "county": "Dallas County"}}, {"geometry": {"type": "Point", "coordinates": [-96.76, 32.79]}, "type": "Feature", "id": "75252", "properties": {"other_cities": "", "city": "Dallas", "state": "TX", "county": "Collin County"}}, {"geometry": {"type": "Point", "coordinates": [-96.76, 32.79]}, "type": "Feature", "id": "75253", "properties": {"other_cities": "", "city": "Dallas", "state": "TX", "county": "Dallas County"}}, {"geometry": {"type": "Point", "coordinates": [-96.76, 32.79]}, "type": "Feature", "id": "75254", "properties": {"other_cities": "", "city": "Dallas", "state": "TX", "county": "Dallas County"}}, {"geometry": {"type": "Point", "coordinates": [-96.88, 32.8]}, "type": "Feature", "id": "75258", "properties": {"other_cities": "", "city": "Dallas", "state": "TX", "county": "Dallas County"}}, {"geometry": {"type": "Point", "coordinates": [-96.76, 32.79]}, "type": "Feature", "id": "75260", "properties": {"other_cities": "", "city": "Dallas", "state": "TX", "county": "Dallas County"}}, {"geometry": {"type": "Point", "coordinates": [-96.76, 32.79]}, "type": "Feature", "id": "75261", "properties": {"other_cities": "Dfw, Dfw Airport", "city": "Dallas", "state": "TX", "county": "Tarrant County"}}, {"geometry": {"type": "Point", "coordinates": [-96.76, 32.79]}, "type": "Feature", "id": "75262", "properties": {"other_cities": "", "city": "Dallas", "state": "TX", "county": "Dallas County"}}, {"geometry": {"type": "Point", "coordinates": [-96.76, 32.79]}, "type": "Feature", "id": "75263", "properties": {"other_cities": "", "city": "Dallas", "state": "TX", "county": "Dallas County"}}, {"geometry": {"type": "Point", "coordinates": [-96.76, 32.79]}, "type": "Feature", "id": "75264", "properties": {"other_cities": "", "city": "Dallas", "state": "TX", "county": "Dallas County"}}, {"geometry": {"type": "Point", "coordinates": [-96.76, 32.79]}, "type": "Feature", "id": "75265", "properties": {"other_cities": "", "city": "Dallas", "state": "TX", "county": "Dallas County"}}, {"geometry": {"type": "Point", "coordinates": [-96.76, 32.79]}, "type": "Feature", "id": "75266", "properties": {"other_cities": "", "city": "Dallas", "state": "TX", "county": "Dallas County"}}, {"geometry": {"type": "Point", "coordinates": [-96.76, 32.79]}, "type": "Feature", "id": "75267", "properties": {"other_cities": "", "city": "Dallas", "state": "TX", "county": "Dallas County"}}, {"geometry": {"type": "Point", "coordinates": [-96.76, 32.79]}, "type": "Feature", "id": "75270", "properties": {"other_cities": "", "city": "Dallas", "state": "TX", "county": "Dallas County"}}, {"geometry": {"type": "Point", "coordinates": [-96.76, 32.79]}, "type": "Feature", "id": "75275", "properties": {"other_cities": "", "city": "Dallas", "state": "TX", "county": "Dallas County"}}, {"geometry": {"type": "Point", "coordinates": [-96.76, 32.79]}, "type": "Feature", "id": "75277", "properties": {"other_cities": "", "city": "Dallas", "state": "TX", "county": "Dallas County"}}, {"geometry": {"type": "Point", "coordinates": [-96.76, 32.79]}, "type": "Feature", "id": "75283", "properties": {"other_cities": "", "city": "Dallas", "state": "TX", "county": "Dallas County"}}, {"geometry": {"type": "Point", "coordinates": [-96.76, 32.79]}, "type": "Feature", "id": "75284", "properties": {"other_cities": "", "city": "Dallas", "state": "TX", "county": "Dallas County"}}, {"geometry": {"type": "Point", "coordinates": [-96.76, 32.79]}, "type": "Feature", "id": "75285", "properties": {"other_cities": "", "city": "Dallas", "state": "TX", "county": "Dallas County"}}, {"geometry": {"type": "Point", "coordinates": [-96.8, 32.78]}, "type": "Feature", "id": "75286", "properties": {"other_cities": "", "city": "Dallas", "state": "TX", "county": "Dallas County"}}, {"geometry": {"type": "Point", "coordinates": [-96.76, 32.79]}, "type": "Feature", "id": "75287", "properties": {"other_cities": "", "city": "Dallas", "state": "TX", "county": "Collin County"}}, {"geometry": {"type": "Point", "coordinates": [-96.76, 32.79]}, "type": "Feature", "id": "75301", "properties": {"other_cities": "", "city": "Dallas", "state": "TX", "county": "Dallas County"}}, {"geometry": {"type": "Point", "coordinates": [-96.76, 32.79]}, "type": "Feature", "id": "75303", "properties": {"other_cities": "", "city": "Dallas", "state": "TX", "county": "Dallas County"}}, {"geometry": {"type": "Point", "coordinates": [-96.8, 32.78]}, "type": "Feature", "id": "75310", "properties": {"other_cities": "", "city": "Dallas", "state": "TX", "county": "Dallas County"}}, {"geometry": {"type": "Point", "coordinates": [-96.76, 32.79]}, "type": "Feature", "id": "75312", "properties": {"other_cities": "", "city": "Dallas", "state": "TX", "county": "Dallas County"}}, {"geometry": {"type": "Point", "coordinates": [-96.76, 32.79]}, "type": "Feature", "id": "75313", "properties": {"other_cities": "", "city": "Dallas", "state": "TX", "county": "Dallas County"}}, {"geometry": {"type": "Point", "coordinates": [-96.76, 32.79]}, "type": "Feature", "id": "75315", "properties": {"other_cities": "", "city": "Dallas", "state": "TX", "county": "Dallas County"}}, {"geometry": {"type": "Point", "coordinates": [-96.76, 32.79]}, "type": "Feature", "id": "75320", "properties": {"other_cities": "", "city": "Dallas", "state": "TX", "county": "Dallas County"}}, {"geometry": {"type": "Point", "coordinates": [-96.8, 32.96]}, "type": "Feature", "id": "75323", "properties": {"other_cities": "", "city": "Dallas", "state": "TX", "county": "Dallas County"}}, {"geometry": {"type": "Point", "coordinates": [-96.76, 32.79]}, "type": "Feature", "id": "75326", "properties": {"other_cities": "", "city": "Dallas", "state": "TX", "county": "Dallas County"}}, {"geometry": {"type": "Point", "coordinates": [-96.61, 32.67]}, "type": "Feature", "id": "75334", "properties": {"other_cities": "", "city": "Dallas", "state": "TX", "county": "Dallas County"}}, {"geometry": {"type": "Point", "coordinates": [-96.76, 32.79]}, "type": "Feature", "id": "75336", "properties": {"other_cities": "", "city": "Dallas", "state": "TX", "county": "Dallas County"}}, {"geometry": {"type": "Point", "coordinates": [-96.76, 32.79]}, "type": "Feature", "id": "75339", "properties": {"other_cities": "", "city": "Dallas", "state": "TX", "county": "Dallas County"}}, {"geometry": {"type": "Point", "coordinates": [-96.86, 32.76]}, "type": "Feature", "id": "75340", "properties": {"other_cities": "", "city": "Dallas", "state": "TX", "county": "Dallas County"}}, {"geometry": {"type": "Point", "coordinates": [-96.76, 32.79]}, "type": "Feature", "id": "75342", "properties": {"other_cities": "", "city": "Dallas", "state": "TX", "county": "Dallas County"}}, {"geometry": {"type": "Point", "coordinates": [-96.86, 32.76]}, "type": "Feature", "id": "75343", "properties": {"other_cities": "", "city": "Dallas", "state": "TX", "county": "Dallas County"}}, {"geometry": {"type": "Point", "coordinates": [-96.79, 32.78]}, "type": "Feature", "id": "75344", "properties": {"other_cities": "", "city": "Dallas", "state": "TX", "county": "Dallas County"}}, {"geometry": {"type": "Point", "coordinates": [-96.8, 32.78]}, "type": "Feature", "id": "75353", "properties": {"other_cities": "Montgomery Ward", "city": "Dallas", "state": "TX", "county": "Dallas County"}}, {"geometry": {"type": "Point", "coordinates": [-96.76, 32.79]}, "type": "Feature", "id": "75354", "properties": {"other_cities": "", "city": "Dallas", "state": "TX", "county": "Dallas County"}}, {"geometry": {"type": "Point", "coordinates": [-96.76, 32.79]}, "type": "Feature", "id": "75355", "properties": {"other_cities": "", "city": "Dallas", "state": "TX", "county": "Dallas County"}}, {"geometry": {"type": "Point", "coordinates": [-96.76, 32.79]}, "type": "Feature", "id": "75356", "properties": {"other_cities": "", "city": "Dallas", "state": "TX", "county": "Dallas County"}}, {"geometry": {"type": "Point", "coordinates": [-96.76, 32.79]}, "type": "Feature", "id": "75357", "properties": {"other_cities": "", "city": "Dallas", "state": "TX", "county": "Dallas County"}}, {"geometry": {"type": "Point", "coordinates": [-96.87, 32.94]}, "type": "Feature", "id": "75358", "properties": {"other_cities": "", "city": "Dallas", "state": "TX", "county": "Dallas County"}}, {"geometry": {"type": "Point", "coordinates": [-96.76, 32.79]}, "type": "Feature", "id": "75359", "properties": {"other_cities": "", "city": "Dallas", "state": "TX", "county": "Dallas County"}}, {"geometry": {"type": "Point", "coordinates": [-96.76, 32.79]}, "type": "Feature", "id": "75360", "properties": {"other_cities": "", "city": "Dallas", "state": "TX", "county": "Dallas County"}}, {"geometry": {"type": "Point", "coordinates": [-96.79, 32.93]}, "type": "Feature", "id": "75363", "properties": {"other_cities": "", "city": "Dallas", "state": "TX", "county": "Dallas County"}}, {"geometry": {"type": "Point", "coordinates": [-96.8, 32.78]}, "type": "Feature", "id": "75364", "properties": {"other_cities": "", "city": "Dallas", "state": "TX", "county": "Dallas County"}}, {"geometry": {"type": "Point", "coordinates": [-96.76, 32.79]}, "type": "Feature", "id": "75367", "properties": {"other_cities": "", "city": "Dallas", "state": "TX", "county": "Dallas County"}}, {"geometry": {"type": "Point", "coordinates": [-96.76, 32.79]}, "type": "Feature", "id": "75368", "properties": {"other_cities": "", "city": "Dallas", "state": "TX", "county": "Dallas County"}}, {"geometry": {"type": "Point", "coordinates": [-96.76, 32.79]}, "type": "Feature", "id": "75370", "properties": {"other_cities": "", "city": "Dallas", "state": "TX", "county": "Dallas County"}}, {"geometry": {"type": "Point", "coordinates": [-96.76, 32.79]}, "type": "Feature", "id": "75371", "properties": {"other_cities": "", "city": "Dallas", "state": "TX", "county": "Dallas County"}}, {"geometry": {"type": "Point", "coordinates": [-96.76, 32.79]}, "type": "Feature", "id": "75372", "properties": {"other_cities": "", "city": "Dallas", "state": "TX", "county": "Dallas County"}}, {"geometry": {"type": "Point", "coordinates": [-96.76, 32.79]}, "type": "Feature", "id": "75373", "properties": {"other_cities": "", "city": "Dallas", "state": "TX", "county": "Dallas County"}}, {"geometry": {"type": "Point", "coordinates": [-96.76, 32.79]}, "type": "Feature", "id": "75374", "properties": {"other_cities": "", "city": "Dallas", "state": "TX", "county": "Dallas County"}}, {"geometry": {"type": "Point", "coordinates": [-96.76, 32.79]}, "type": "Feature", "id": "75376", "properties": {"other_cities": "", "city": "Dallas", "state": "TX", "county": "Dallas County"}}, {"geometry": {"type": "Point", "coordinates": [-96.76, 32.79]}, "type": "Feature", "id": "75378", "properties": {"other_cities": "", "city": "Dallas", "state": "TX", "county": "Dallas County"}}, {"geometry": {"type": "Point", "coordinates": [-96.76, 32.79]}, "type": "Feature", "id": "75379", "properties": {"other_cities": "", "city": "Dallas", "state": "TX", "county": "Dallas County"}}, {"geometry": {"type": "Point", "coordinates": [-96.76, 32.79]}, "type": "Feature", "id": "75380", "properties": {"other_cities": "", "city": "Dallas", "state": "TX", "county": "Dallas County"}}, {"geometry": {"type": "Point", "coordinates": [-96.76, 32.79]}, "type": "Feature", "id": "75381", "properties": {"other_cities": "", "city": "Dallas", "state": "TX", "county": "Dallas County"}}, {"geometry": {"type": "Point", "coordinates": [-96.76, 32.79]}, "type": "Feature", "id": "75382", "properties": {"other_cities": "", "city": "Dallas", "state": "TX", "county": "Dallas County"}}, {"geometry": {"type": "Point", "coordinates": [-96.87, 32.78]}, "type": "Feature", "id": "75386", "properties": {"other_cities": "Fingerhut Corp", "city": "Dallas", "state": "TX", "county": "Dallas County"}}, {"geometry": {"type": "Point", "coordinates": [-96.8, 32.78]}, "type": "Feature", "id": "75387", "properties": {"other_cities": "", "city": "Dallas", "state": "TX", "county": "Dallas County"}}, {"geometry": {"type": "Point", "coordinates": [-96.8, 32.78]}, "type": "Feature", "id": "75388", "properties": {"other_cities": "", "city": "Dallas", "state": "TX", "county": "Dallas County"}}, {"geometry": {"type": "Point", "coordinates": [-96.76, 32.79]}, "type": "Feature", "id": "75389", "properties": {"other_cities": "", "city": "Dallas", "state": "TX", "county": "Dallas County"}}, {"geometry": {"type": "Point", "coordinates": [-96.76, 32.79]}, "type": "Feature", "id": "75390", "properties": {"other_cities": "", "city": "Dallas", "state": "TX", "county": "Dallas County"}}, {"geometry": {"type": "Point", "coordinates": [-96.76, 32.79]}, "type": "Feature", "id": "75391", "properties": {"other_cities": "", "city": "Dallas", "state": "TX", "county": "Dallas County"}}, {"geometry": {"type": "Point", "coordinates": [-96.76, 32.79]}, "type": "Feature", "id": "75392", "properties": {"other_cities": "", "city": "Dallas", "state": "TX", "county": "Dallas County"}}, {"geometry": {"type": "Point", "coordinates": [-96.76, 32.79]}, "type": "Feature", "id": "75393", "properties": {"other_cities": "", "city": "Dallas", "state": "TX", "county": "Dallas County"}}, {"geometry": {"type": "Point", "coordinates": [-96.76, 32.79]}, "type": "Feature", "id": "75394", "properties": {"other_cities": "", "city": "Dallas", "state": "TX", "county": "Dallas County"}}, {"geometry": {"type": "Point", "coordinates": [-96.76, 32.79]}, "type": "Feature", "id": "75395", "properties": {"other_cities": "", "city": "Dallas", "state": "TX", "county": "Dallas County"}}, {"geometry": {"type": "Point", "coordinates": [-96.8, 32.78]}, "type": "Feature", "id": "75396", "properties": {"other_cities": "", "city": "Dallas", "state": "TX", "county": "Dallas County"}}, {"geometry": {"type": "Point", "coordinates": [-96.76, 32.79]}, "type": "Feature", "id": "75397", "properties": {"other_cities": "", "city": "Dallas", "state": "TX", "county": "Dallas County"}}, {"geometry": {"type": "Point", "coordinates": [-96.76, 32.79]}, "type": "Feature", "id": "75398", "properties": {"other_cities": "", "city": "Dallas", "state": "TX", "county": "Dallas County"}}, {"geometry": {"type": "Point", "coordinates": [-96.1, 33.11]}, "type": "Feature", "id": "75401", "properties": {"other_cities": "", "city": "Greenville", "state": "TX", "county": "Hunt County"}}, {"geometry": {"type": "Point", "coordinates": [-96.1, 33.11]}, "type": "Feature", "id": "75402", "properties": {"other_cities": "", "city": "Greenville", "state": "TX", "county": "Hunt County"}}, {"geometry": {"type": "Point", "coordinates": [-96.1, 33.11]}, "type": "Feature", "id": "75403", "properties": {"other_cities": "", "city": "Greenville", "state": "TX", "county": "Hunt County"}}, {"geometry": {"type": "Point", "coordinates": [-96.1, 33.11]}, "type": "Feature", "id": "75404", "properties": {"other_cities": "", "city": "Greenville", "state": "TX", "county": "Hunt County"}}, {"geometry": {"type": "Point", "coordinates": [-96.5, 33.18]}, "type": "Feature", "id": "75407", "properties": {"other_cities": "", "city": "Princeton", "state": "TX", "county": "Collin County"}}, {"geometry": {"type": "Point", "coordinates": [-96.54, 33.35]}, "type": "Feature", "id": "75409", "properties": {"other_cities": "", "city": "Anna", "state": "TX", "county": "Collin County"}}, {"geometry": {"type": "Point", "coordinates": [-95.63, 32.79]}, "type": "Feature", "id": "75410", "properties": {"other_cities": "", "city": "Alba", "state": "TX", "county": "Wood County"}}, {"geometry": {"type": "Point", "coordinates": [-95.46, 33.84]}, "type": "Feature", "id": "75411", "properties": {"other_cities": "", "city": "Arthur City", "state": "TX", "county": "Lamar County"}}, {"geometry": {"type": "Point", "coordinates": [-95.14, 33.82]}, "type": "Feature", "id": "75412", "properties": {"other_cities": "", "city": "Bagwell", "state": "TX", "county": "Red River County"}}, {"geometry": {"type": "Point", "coordinates": [-96.16, 33.43]}, "type": "Feature", "id": "75413", "properties": {"other_cities": "", "city": "Bailey", "state": "TX", "county": "Fannin County"}}, {"geometry": {"type": "Point", "coordinates": [-96.41, 33.62]}, "type": "Feature", "id": "75414", "properties": {"other_cities": "", "city": "Bells", "state": "TX", "county": "Grayson County"}}, {"geometry": {"type": "Point", "coordinates": [-95.77, 33.47]}, "type": "Feature", "id": "75415", "properties": {"other_cities": "", "city": "Ben Franklin", "state": "TX", "county": "Delta County"}}, {"geometry": {"type": "Point", "coordinates": [-95.38, 33.66]}, "type": "Feature", "id": "75416", "properties": {"other_cities": "", "city": "Blossom", "state": "TX", "county": "Lamar County"}}, {"geometry": {"type": "Point", "coordinates": [-95.21, 33.46]}, "type": "Feature", "id": "75417", "properties": {"other_cities": "", "city": "Bogata", "state": "TX", "county": "Red River County"}}, {"geometry": {"type": "Point", "coordinates": [-96.18, 33.58]}, "type": "Feature", "id": "75418", "properties": {"other_cities": "", "city": "Bonham", "state": "TX", "county": "Fannin County"}}, {"geometry": {"type": "Point", "coordinates": [-95.72, 33.11]}, "type": "Feature", "id": "75420", "properties": {"other_cities": "", "city": "Brashear", "state": "TX", "county": "Hopkins County"}}, {"geometry": {"type": "Point", "coordinates": [-95.67, 33.61]}, "type": "Feature", "id": "75421", "properties": {"other_cities": "", "city": "Brookston", "state": "TX", "county": "Lamar County"}}, {"geometry": {"type": "Point", "coordinates": [-95.95, 33.14]}, "type": "Feature", "id": "75422", "properties": {"other_cities": "", "city": "Campbell", "state": "TX", "county": "Hunt County"}}, {"geometry": {"type": "Point", "coordinates": [-96.19, 33.29]}, "type": "Feature", "id": "75423", "properties": {"other_cities": "", "city": "Celeste", "state": "TX", "county": "Hunt County"}}, {"geometry": {"type": "Point", "coordinates": [-96.39, 33.29]}, "type": "Feature", "id": "75424", "properties": {"other_cities": "", "city": "Blue Ridge", "state": "TX", "county": "Collin County"}}, {"geometry": {"type": "Point", "coordinates": [-95.57, 33.86]}, "type": "Feature", "id": "75425", "properties": {"other_cities": "", "city": "Chicota", "state": "TX", "county": "Lamar County"}}, {"geometry": {"type": "Point", "coordinates": [-95.05, 33.61]}, "type": "Feature", "id": "75426", "properties": {"other_cities": "", "city": "Clarksville", "state": "TX", "county": "Red River County"}}, {"geometry": {"type": "Point", "coordinates": [-95.9, 33.23]}, "type": "Feature", "id": "75428", "properties": {"other_cities": "", "city": "Commerce", "state": "TX", "county": "Hunt County"}}, {"geometry": {"type": "Point", "coordinates": [-95.9, 33.23]}, "type": "Feature", "id": "75429", "properties": {"other_cities": "", "city": "Commerce", "state": "TX", "county": "Hunt County"}}, {"geometry": {"type": "Point", "coordinates": [-95.47, 33.06]}, "type": "Feature", "id": "75431", "properties": {"other_cities": "", "city": "Como", "state": "TX", "county": "Hopkins County"}}, {"geometry": {"type": "Point", "coordinates": [-95.69, 33.37]}, "type": "Feature", "id": "75432", "properties": {"other_cities": "", "city": "Cooper", "state": "TX", "county": "Delta County"}}, {"geometry": {"type": "Point", "coordinates": [-95.83, 33.13]}, "type": "Feature", "id": "75433", "properties": {"other_cities": "", "city": "Cumby", "state": "TX", "county": "Hopkins County"}}, {"geometry": {"type": "Point", "coordinates": [-95.35, 33.42]}, "type": "Feature", "id": "75434", "properties": {"other_cities": "", "city": "Cunningham", "state": "TX", "county": "Lamar County"}}, {"geometry": {"type": "Point", "coordinates": [-95.31, 33.52]}, "type": "Feature", "id": "75435", "properties": {"other_cities": "", "city": "Deport", "state": "TX", "county": "Lamar County"}}, {"geometry": {"type": "Point", "coordinates": [-95.26, 33.66]}, "type": "Feature", "id": "75436", "properties": {"other_cities": "", "city": "Detroit", "state": "TX", "county": "Red River County"}}, {"geometry": {"type": "Point", "coordinates": [-95.46, 33.19]}, "type": "Feature", "id": "75437", "properties": {"other_cities": "", "city": "Dike", "state": "TX", "county": "Hopkins County"}}, {"geometry": {"type": "Point", "coordinates": [-96.07, 33.57]}, "type": "Feature", "id": "75438", "properties": {"other_cities": "", "city": "Dodd City", "state": "TX", "county": "Fannin County"}}, {"geometry": {"type": "Point", "coordinates": [-96.27, 33.57]}, "type": "Feature", "id": "75439", "properties": {"other_cities": "", "city": "Ector", "state": "TX", "county": "Fannin County"}}, {"geometry": {"type": "Point", "coordinates": [-95.76, 32.87]}, "type": "Feature", "id": "75440", "properties": {"other_cities": "", "city": "Emory", "state": "TX", "county": "Rains County"}}, {"geometry": {"type": "Point", "coordinates": [-95.65, 33.43]}, "type": "Feature", "id": "75441", "properties": {"other_cities": "", "city": "Enloe", "state": "TX", "county": "Delta County"}}, {"geometry": {"type": "Point", "coordinates": [-96.35, 33.16]}, "type": "Feature", "id": "75442", "properties": {"other_cities": "", "city": "Farmersville", "state": "TX", "county": "Collin County"}}, {"geometry": {"type": "Point", "coordinates": [-96.1, 33.46]}, "type": "Feature", "id": "75443", "properties": {"other_cities": "", "city": "Gober", "state": "TX", "county": "Fannin County"}}, {"geometry": {"type": "Point", "coordinates": [-95.56, 32.72]}, "type": "Feature", "id": "75444", "properties": {"other_cities": "", "city": "Golden", "state": "TX", "county": "Wood County"}}, {"geometry": {"type": "Point", "coordinates": [-95.9, 33.58]}, "type": "Feature", "id": "75446", "properties": {"other_cities": "", "city": "Honey Grove", "state": "TX", "county": "Fannin County"}}, {"geometry": {"type": "Point", "coordinates": [-96.14, 33.71]}, "type": "Feature", "id": "75447", "properties": {"other_cities": "", "city": "Ivanhoe", "state": "TX", "county": "Fannin County"}}, {"geometry": {"type": "Point", "coordinates": [-95.75, 33.32]}, "type": "Feature", "id": "75448", "properties": {"other_cities": "", "city": "Klondike", "state": "TX", "county": "Delta County"}}, {"geometry": {"type": "Point", "coordinates": [-95.94, 33.42]}, "type": "Feature", "id": "75449", "properties": {"other_cities": "", "city": "Ladonia", "state": "TX", "county": "Fannin County"}}, {"geometry": {"type": "Point", "coordinates": [-95.61, 33.46]}, "type": "Feature", "id": "75450", "properties": {"other_cities": "", "city": "Lake Creek", "state": "TX", "county": "Delta County"}}, {"geometry": {"type": "Point", "coordinates": [-95.1, 32.96]}, "type": "Feature", "id": "75451", "properties": {"other_cities": "", "city": "Leesburg", "state": "TX", "county": "Camp County"}}, {"geometry": {"type": "Point", "coordinates": [-96.24, 33.38]}, "type": "Feature", "id": "75452", "properties": {"other_cities": "", "city": "Leonard", "state": "TX", "county": "Fannin County"}}, {"geometry": {"type": "Point", "coordinates": [-95.94, 32.99]}, "type": "Feature", "id": "75453", "properties": {"other_cities": "", "city": "Lone Oak", "state": "TX", "county": "Hunt County"}}, {"geometry": {"type": "Point", "coordinates": [-96.57, 33.28]}, "type": "Feature", "id": "75454", "properties": {"other_cities": "", "city": "Melissa", "state": "TX", "county": "Collin County"}}, {"geometry": {"type": "Point", "coordinates": [-94.97, 33.16]}, "type": "Feature", "id": "75455", "properties": {"other_cities": "Mt Pleasant", "city": "Mount Pleasant", "state": "TX", "county": "Titus County"}}, {"geometry": {"type": "Point", "coordinates": [-94.97, 33.16]}, "type": "Feature", "id": "75456", "properties": {"other_cities": "Mt Pleasant", "city": "Mount Pleasant", "state": "TX", "county": "Titus County"}}, {"geometry": {"type": "Point", "coordinates": [-95.22, 33.17]}, "type": "Feature", "id": "75457", "properties": {"other_cities": "Mt Vernon", "city": "Mount Vernon", "state": "TX", "county": "Franklin County"}}, {"geometry": {"type": "Point", "coordinates": [-96.28, 33.21]}, "type": "Feature", "id": "75458", "properties": {"other_cities": "", "city": "Merit", "state": "TX", "county": "Hunt County"}}, {"geometry": {"type": "Point", "coordinates": [-96.61, 33.51]}, "type": "Feature", "id": "75459", "properties": {"other_cities": "Dorchester", "city": "Howe", "state": "TX", "county": "Grayson County"}}, {"geometry": {"type": "Point", "coordinates": [-95.54, 33.66]}, "type": "Feature", "id": "75460", "properties": {"other_cities": "", "city": "Paris", "state": "TX", "county": "Lamar County"}}, {"geometry": {"type": "Point", "coordinates": [-95.54, 33.66]}, "type": "Feature", "id": "75461", "properties": {"other_cities": "", "city": "Paris", "state": "TX", "county": "Lamar County"}}, {"geometry": {"type": "Point", "coordinates": [-95.54, 33.66]}, "type": "Feature", "id": "75462", "properties": {"other_cities": "Reno", "city": "Paris", "state": "TX", "county": "Lamar County"}}, {"geometry": {"type": "Point", "coordinates": [-95.39, 33.56]}, "type": "Feature", "id": "75468", "properties": {"other_cities": "", "city": "Pattonville", "state": "TX", "county": "Lamar County"}}, {"geometry": {"type": "Point", "coordinates": [-95.85, 33.43]}, "type": "Feature", "id": "75469", "properties": {"other_cities": "", "city": "Pecan Gap", "state": "TX", "county": "Delta County"}}, {"geometry": {"type": "Point", "coordinates": [-95.79, 33.61]}, "type": "Feature", "id": "75470", "properties": {"other_cities": "", "city": "Petty", "state": "TX", "county": "Lamar County"}}, {"geometry": {"type": "Point", "coordinates": [-95.45, 33.02]}, "type": "Feature", "id": "75471", "properties": {"other_cities": "", "city": "Pickton", "state": "TX", "county": "Hopkins County"}}, {"geometry": {"type": "Point", "coordinates": [-95.87, 32.93]}, "type": "Feature", "id": "75472", "properties": {"other_cities": "East Tawakoni", "city": "Point", "state": "TX", "county": "Rains County"}}, {"geometry": {"type": "Point", "coordinates": [-95.53, 33.77]}, "type": "Feature", "id": "75473", "properties": {"other_cities": "", "city": "Powderly", "state": "TX", "county": "Lamar County"}}, {"geometry": {"type": "Point", "coordinates": [-96.13, 32.9]}, "type": "Feature", "id": "75474", "properties": {"other_cities": "West Tawakoni", "city": "Quinlan", "state": "TX", "county": "Hunt County"}}, {"geometry": {"type": "Point", "coordinates": [-96.25, 33.48]}, "type": "Feature", "id": "75475", "properties": {"other_cities": "", "city": "Randolph", "state": "TX", "county": "Fannin County"}}, {"geometry": {"type": "Point", "coordinates": [-96.13, 33.71]}, "type": "Feature", "id": "75476", "properties": {"other_cities": "", "city": "Ravenna", "state": "TX", "county": "Fannin County"}}, {"geometry": {"type": "Point", "coordinates": [-95.72, 33.54]}, "type": "Feature", "id": "75477", "properties": {"other_cities": "", "city": "Roxton", "state": "TX", "county": "Lamar County"}}, {"geometry": {"type": "Point", "coordinates": [-95.34, 33.19]}, "type": "Feature", "id": "75478", "properties": {"other_cities": "", "city": "Saltillo", "state": "TX", "county": "Hopkins County"}}, {"geometry": {"type": "Point", "coordinates": [-96.36, 33.59]}, "type": "Feature", "id": "75479", "properties": {"other_cities": "", "city": "Savoy", "state": "TX", "county": "Fannin County"}}, {"geometry": {"type": "Point", "coordinates": [-95.21, 33.0]}, "type": "Feature", "id": "75480", "properties": {"other_cities": "", "city": "Scroggins", "state": "TX", "county": "Franklin County"}}, {"geometry": {"type": "Point", "coordinates": [-95.36, 33.33]}, "type": "Feature", "id": "75481", "properties": {"other_cities": "", "city": "Sulphur Bluff", "state": "TX", "county": "Hopkins County"}}, {"geometry": {"type": "Point", "coordinates": [-95.61, 33.14]}, "type": "Feature", "id": "75482", "properties": {"other_cities": "Sulphur Spgs", "city": "Sulphur Springs", "state": "TX", "county": "Hopkins County"}}, {"geometry": {"type": "Point", "coordinates": [-95.61, 33.14]}, "type": "Feature", "id": "75483", "properties": {"other_cities": "Sulphur Spgs", "city": "Sulphur Springs", "state": "TX", "county": "Hopkins County"}}, {"geometry": {"type": "Point", "coordinates": [-96.45, 33.35]}, "type": "Feature", "id": "75485", "properties": {"other_cities": "", "city": "Westminster", "state": "TX", "county": "Collin County"}}, {"geometry": {"type": "Point", "coordinates": [-95.71, 33.77]}, "type": "Feature", "id": "75486", "properties": {"other_cities": "", "city": "Sumner", "state": "TX", "county": "Lamar County"}}, {"geometry": {"type": "Point", "coordinates": [-95.1, 33.36]}, "type": "Feature", "id": "75487", "properties": {"other_cities": "", "city": "Talco", "state": "TX", "county": "Titus County"}}, {"geometry": {"type": "Point", "coordinates": [-96.0, 33.8]}, "type": "Feature", "id": "75488", "properties": {"other_cities": "", "city": "Telephone", "state": "TX", "county": "Fannin County"}}, {"geometry": {"type": "Point", "coordinates": [-96.48, 33.52]}, "type": "Feature", "id": "75489", "properties": {"other_cities": "", "city": "Tom Bean", "state": "TX", "county": "Grayson County"}}, {"geometry": {"type": "Point", "coordinates": [-96.33, 33.42]}, "type": "Feature", "id": "75490", "properties": {"other_cities": "", "city": "Trenton", "state": "TX", "county": "Fannin County"}}, {"geometry": {"type": "Point", "coordinates": [-96.39, 33.51]}, "type": "Feature", "id": "75491", "properties": {"other_cities": "", "city": "Whitewright", "state": "TX", "county": "Grayson County"}}, {"geometry": {"type": "Point", "coordinates": [-95.99, 33.56]}, "type": "Feature", "id": "75492", "properties": {"other_cities": "", "city": "Windom", "state": "TX", "county": "Fannin County"}}, {"geometry": {"type": "Point", "coordinates": [-95.1, 33.16]}, "type": "Feature", "id": "75493", "properties": {"other_cities": "", "city": "Winfield", "state": "TX", "county": "Titus County"}}, {"geometry": {"type": "Point", "coordinates": [-95.28, 32.95]}, "type": "Feature", "id": "75494", "properties": {"other_cities": "", "city": "Winnsboro", "state": "TX", "county": "Wood County"}}, {"geometry": {"type": "Point", "coordinates": [-96.57, 33.41]}, "type": "Feature", "id": "75495", "properties": {"other_cities": "", "city": "Van Alstyne", "state": "TX", "county": "Grayson County"}}, {"geometry": {"type": "Point", "coordinates": [-96.06, 33.36]}, "type": "Feature", "id": "75496", "properties": {"other_cities": "", "city": "Wolfe City", "state": "TX", "county": "Hunt County"}}, {"geometry": {"type": "Point", "coordinates": [-95.57, 32.93]}, "type": "Feature", "id": "75497", "properties": {"other_cities": "", "city": "Yantis", "state": "TX", "county": "Wood County"}}, {"geometry": {"type": "Point", "coordinates": [-94.07, 33.44]}, "type": "Feature", "id": "75501", "properties": {"other_cities": "S Texarkana, South Texarkana, Wake Village", "city": "Texarkana", "state": "TX", "county": "Bowie County"}}, {"geometry": {"type": "Point", "coordinates": [-94.07, 33.44]}, "type": "Feature", "id": "75503", "properties": {"other_cities": "", "city": "Texarkana", "state": "TX", "county": "Bowie County"}}, {"geometry": {"type": "Point", "coordinates": [-94.07, 33.44]}, "type": "Feature", "id": "75504", "properties": {"other_cities": "", "city": "Texarkana", "state": "TX", "county": "Bowie County"}}, {"geometry": {"type": "Point", "coordinates": [-94.07, 33.44]}, "type": "Feature", "id": "75505", "properties": {"other_cities": "", "city": "Texarkana", "state": "TX", "county": "Bowie County"}}, {"geometry": {"type": "Point", "coordinates": [-94.07, 33.44]}, "type": "Feature", "id": "75507", "properties": {"other_cities": "", "city": "Texarkana", "state": "TX", "county": "Bowie County"}}, {"geometry": {"type": "Point", "coordinates": [-94.91, 33.58]}, "type": "Feature", "id": "75550", "properties": {"other_cities": "", "city": "Annona", "state": "TX", "county": "Red River County"}}, {"geometry": {"type": "Point", "coordinates": [-94.16, 33.11]}, "type": "Feature", "id": "75551", "properties": {"other_cities": "", "city": "Atlanta", "state": "TX", "county": "Cass County"}}, {"geometry": {"type": "Point", "coordinates": [-94.77, 33.55]}, "type": "Feature", "id": "75554", "properties": {"other_cities": "", "city": "Avery", "state": "TX", "county": "Red River County"}}, {"geometry": {"type": "Point", "coordinates": [-94.14, 32.95]}, "type": "Feature", "id": "75555", "properties": {"other_cities": "", "city": "Bivins", "state": "TX", "county": "Cass County"}}, {"geometry": {"type": "Point", "coordinates": [-94.05, 33.13]}, "type": "Feature", "id": "75556", "properties": {"other_cities": "", "city": "Bloomburg", "state": "TX", "county": "Cass County"}}, {"geometry": {"type": "Point", "coordinates": [-94.86, 33.18]}, "type": "Feature", "id": "75558", "properties": {"other_cities": "", "city": "Cookville", "state": "TX", "county": "Titus County"}}, {"geometry": {"type": "Point", "coordinates": [-94.61, 33.5]}, "type": "Feature", "id": "75559", "properties": {"other_cities": "", "city": "De Kalb", "state": "TX", "county": "Bowie County"}}, {"geometry": {"type": "Point", "coordinates": [-94.35, 33.19]}, "type": "Feature", "id": "75560", "properties": {"other_cities": "", "city": "Douglassville", "state": "TX", "county": "Cass County"}}, {"geometry": {"type": "Point", "coordinates": [-94.28, 33.46]}, "type": "Feature", "id": "75561", "properties": {"other_cities": "", "city": "Hooks", "state": "TX", "county": "Bowie County"}}, {"geometry": {"type": "Point", "coordinates": [-94.2, 32.94]}, "type": "Feature", "id": "75562", "properties": {"other_cities": "", "city": "Kildare", "state": "TX", "county": "Cass County"}}, {"geometry": {"type": "Point", "coordinates": [-94.36, 33.01]}, "type": "Feature", "id": "75563", "properties": {"other_cities": "", "city": "Linden", "state": "TX", "county": "Cass County"}}, {"geometry": {"type": "Point", "coordinates": [-94.3, 32.86]}, "type": "Feature", "id": "75564", "properties": {"other_cities": "", "city": "Lodi", "state": "TX", "county": "Marion County"}}, {"geometry": {"type": "Point", "coordinates": [-94.07, 32.95]}, "type": "Feature", "id": "75565", "properties": {"other_cities": "", "city": "Mc Leod", "state": "TX", "county": "Cass County"}}, {"geometry": {"type": "Point", "coordinates": [-94.54, 33.17]}, "type": "Feature", "id": "75566", "properties": {"other_cities": "", "city": "Marietta", "state": "TX", "county": "Cass County"}}, {"geometry": {"type": "Point", "coordinates": [-94.34, 33.33]}, "type": "Feature", "id": "75567", "properties": {"other_cities": "", "city": "Maud", "state": "TX", "county": "Bowie County"}}, {"geometry": {"type": "Point", "coordinates": [-94.67, 33.2]}, "type": "Feature", "id": "75568", "properties": {"other_cities": "", "city": "Naples", "state": "TX", "county": "Cass County"}}, {"geometry": {"type": "Point", "coordinates": [-94.12, 33.44]}, "type": "Feature", "id": "75569", "properties": {"other_cities": "", "city": "Nash", "state": "TX", "county": "Bowie County"}}, {"geometry": {"type": "Point", "coordinates": [-94.41, 33.46]}, "type": "Feature", "id": "75570", "properties": {"other_cities": "Boston", "city": "New Boston", "state": "TX", "county": "Bowie County"}}, {"geometry": {"type": "Point", "coordinates": [-94.74, 33.17]}, "type": "Feature", "id": "75571", "properties": {"other_cities": "", "city": "Omaha", "state": "TX", "county": "Morris County"}}, {"geometry": {"type": "Point", "coordinates": [-94.15, 33.14]}, "type": "Feature", "id": "75572", "properties": {"other_cities": "", "city": "Queen City", "state": "TX", "county": "Cass County"}}, {"geometry": {"type": "Point", "coordinates": [-94.25, 33.35]}, "type": "Feature", "id": "75573", "properties": {"other_cities": "", "city": "Redwater", "state": "TX", "county": "Bowie County"}}, {"geometry": {"type": "Point", "coordinates": [-94.5, 33.35]}, "type": "Feature", "id": "75574", "properties": {"other_cities": "", "city": "Simms", "state": "TX", "county": "Bowie County"}}, {"geometry": {"type": "Point", "coordinates": [-94.07, 33.44]}, "type": "Feature", "id": "75599", "properties": {"other_cities": "", "city": "Texarkana", "state": "TX", "county": "Bowie County"}}, {"geometry": {"type": "Point", "coordinates": [-94.76, 32.51]}, "type": "Feature", "id": "75601", "properties": {"other_cities": "", "city": "Longview", "state": "TX", "county": "Gregg County"}}, {"geometry": {"type": "Point", "coordinates": [-94.76, 32.51]}, "type": "Feature", "id": "75602", "properties": {"other_cities": "", "city": "Longview", "state": "TX", "county": "Gregg County"}}, {"geometry": {"type": "Point", "coordinates": [-94.76, 32.51]}, "type": "Feature", "id": "75603", "properties": {"other_cities": "", "city": "Longview", "state": "TX", "county": "Gregg County"}}, {"geometry": {"type": "Point", "coordinates": [-94.76, 32.51]}, "type": "Feature", "id": "75604", "properties": {"other_cities": "", "city": "Longview", "state": "TX", "county": "Gregg County"}}, {"geometry": {"type": "Point", "coordinates": [-94.76, 32.51]}, "type": "Feature", "id": "75605", "properties": {"other_cities": "", "city": "Longview", "state": "TX", "county": "Gregg County"}}, {"geometry": {"type": "Point", "coordinates": [-94.76, 32.51]}, "type": "Feature", "id": "75606", "properties": {"other_cities": "", "city": "Longview", "state": "TX", "county": "Gregg County"}}, {"geometry": {"type": "Point", "coordinates": [-94.76, 32.51]}, "type": "Feature", "id": "75607", "properties": {"other_cities": "", "city": "Longview", "state": "TX", "county": "Gregg County"}}, {"geometry": {"type": "Point", "coordinates": [-94.76, 32.51]}, "type": "Feature", "id": "75608", "properties": {"other_cities": "", "city": "Longview", "state": "TX", "county": "Gregg County"}}, {"geometry": {"type": "Point", "coordinates": [-94.76, 32.51]}, "type": "Feature", "id": "75615", "properties": {"other_cities": "", "city": "Longview", "state": "TX", "county": "Gregg County"}}, {"geometry": {"type": "Point", "coordinates": [-94.55, 32.89]}, "type": "Feature", "id": "75630", "properties": {"other_cities": "", "city": "Avinger", "state": "TX", "county": "Marion County"}}, {"geometry": {"type": "Point", "coordinates": [-94.45, 32.24]}, "type": "Feature", "id": "75631", "properties": {"other_cities": "", "city": "Beckville", "state": "TX", "county": "Panola County"}}, {"geometry": {"type": "Point", "coordinates": [-94.33, 32.15]}, "type": "Feature", "id": "75633", "properties": {"other_cities": "", "city": "Carthage", "state": "TX", "county": "Panola County"}}, {"geometry": {"type": "Point", "coordinates": [-94.81, 33.03]}, "type": "Feature", "id": "75636", "properties": {"other_cities": "", "city": "Cason", "state": "TX", "county": "Morris County"}}, {"geometry": {"type": "Point", "coordinates": [-94.49, 32.08]}, "type": "Feature", "id": "75637", "properties": {"other_cities": "", "city": "Clayton", "state": "TX", "county": "Panola County"}}, {"geometry": {"type": "Point", "coordinates": [-94.72, 33.03]}, "type": "Feature", "id": "75638", "properties": {"other_cities": "", "city": "Daingerfield", "state": "TX", "county": "Morris County"}}, {"geometry": {"type": "Point", "coordinates": [-94.14, 32.21]}, "type": "Feature", "id": "75639", "properties": {"other_cities": "", "city": "De Berry", "state": "TX", "county": "Panola County"}}, {"geometry": {"type": "Point", "coordinates": [-94.66, 32.69]}, "type": "Feature", "id": "75640", "properties": {"other_cities": "New Diana", "city": "Diana", "state": "TX", "county": "Upshur County"}}, {"geometry": {"type": "Point", "coordinates": [-94.59, 32.38]}, "type": "Feature", "id": "75641", "properties": {"other_cities": "", "city": "Easton", "state": "TX", "county": "Rusk County"}}, {"geometry": {"type": "Point", "coordinates": [-94.2, 32.44]}, "type": "Feature", "id": "75642", "properties": {"other_cities": "Elysian Flds", "city": "Elysian Fields", "state": "TX", "county": "Harrison County"}}, {"geometry": {"type": "Point", "coordinates": [-94.24, 32.01]}, "type": "Feature", "id": "75643", "properties": {"other_cities": "", "city": "Gary", "state": "TX", "county": "Panola County"}}, {"geometry": {"type": "Point", "coordinates": [-94.94, 32.73]}, "type": "Feature", "id": "75644", "properties": {"other_cities": "", "city": "Gilmer", "state": "TX", "county": "Upshur County"}}, {"geometry": {"type": "Point", "coordinates": [-94.94, 32.73]}, "type": "Feature", "id": "75645", "properties": {"other_cities": "", "city": "Gilmer", "state": "TX", "county": "Upshur County"}}, {"geometry": {"type": "Point", "coordinates": [-94.94, 32.54]}, "type": "Feature", "id": "75647", "properties": {"other_cities": "", "city": "Gladewater", "state": "TX", "county": "Gregg County"}}, {"geometry": {"type": "Point", "coordinates": [-94.57, 32.5]}, "type": "Feature", "id": "75650", "properties": {"other_cities": "", "city": "Hallsville", "state": "TX", "county": "Harrison County"}}, {"geometry": {"type": "Point", "coordinates": [-94.52, 32.66]}, "type": "Feature", "id": "75651", "properties": {"other_cities": "", "city": "Harleton", "state": "TX", "county": "Harrison County"}}, {"geometry": {"type": "Point", "coordinates": [-94.79, 32.15]}, "type": "Feature", "id": "75652", "properties": {"other_cities": "", "city": "Henderson", "state": "TX", "county": "Rusk County"}}, {"geometry": {"type": "Point", "coordinates": [-94.79, 32.15]}, "type": "Feature", "id": "75653", "properties": {"other_cities": "", "city": "Henderson", "state": "TX", "county": "Rusk County"}}, {"geometry": {"type": "Point", "coordinates": [-94.79, 32.15]}, "type": "Feature", "id": "75654", "properties": {"other_cities": "", "city": "Henderson", "state": "TX", "county": "Rusk County"}}, {"geometry": {"type": "Point", "coordinates": [-94.63, 32.99]}, "type": "Feature", "id": "75656", "properties": {"other_cities": "Hughes Spgs", "city": "Hughes Springs", "state": "TX", "county": "Cass County"}}, {"geometry": {"type": "Point", "coordinates": [-94.34, 32.76]}, "type": "Feature", "id": "75657", "properties": {"other_cities": "Smithland", "city": "Jefferson", "state": "TX", "county": "Marion County"}}, {"geometry": {"type": "Point", "coordinates": [-94.9, 32.17]}, "type": "Feature", "id": "75658", "properties": {"other_cities": "", "city": "Joinerville", "state": "TX", "county": "Rusk County"}}, {"geometry": {"type": "Point", "coordinates": [-94.11, 32.49]}, "type": "Feature", "id": "75659", "properties": {"other_cities": "", "city": "Jonesville", "state": "TX", "county": "Harrison County"}}, {"geometry": {"type": "Point", "coordinates": [-94.76, 32.59]}, "type": "Feature", "id": "75660", "properties": {"other_cities": "", "city": "Judson", "state": "TX", "county": "Gregg County"}}, {"geometry": {"type": "Point", "coordinates": [-94.14, 32.62]}, "type": "Feature", "id": "75661", "properties": {"other_cities": "", "city": "Karnack", "state": "TX", "county": "Harrison County"}}, {"geometry": {"type": "Point", "coordinates": [-94.86, 32.38]}, "type": "Feature", "id": "75662", "properties": {"other_cities": "", "city": "Kilgore", "state": "TX", "county": "Gregg County"}}, {"geometry": {"type": "Point", "coordinates": [-94.86, 32.38]}, "type": "Feature", "id": "75663", "properties": {"other_cities": "", "city": "Kilgore", "state": "TX", "county": "Gregg County"}}, {"geometry": {"type": "Point", "coordinates": [-94.9, 32.35]}, "type": "Feature", "id": "75666", "properties": {"other_cities": "", "city": "Laird Hill", "state": "TX", "county": "Rusk County"}}, {"geometry": {"type": "Point", "coordinates": [-94.85, 31.94]}, "type": "Feature", "id": "75667", "properties": {"other_cities": "", "city": "Laneville", "state": "TX", "county": "Rusk County"}}, {"geometry": {"type": "Point", "coordinates": [-94.7, 32.93]}, "type": "Feature", "id": "75668", "properties": {"other_cities": "", "city": "Lone Star", "state": "TX", "county": "Morris County"}}, {"geometry": {"type": "Point", "coordinates": [-94.5, 32.04]}, "type": "Feature", "id": "75669", "properties": {"other_cities": "", "city": "Long Branch", "state": "TX", "county": "Panola County"}}, {"geometry": {"type": "Point", "coordinates": [-94.35, 32.53]}, "type": "Feature", "id": "75670", "properties": {"other_cities": "", "city": "Marshall", "state": "TX", "county": "Harrison County"}}, {"geometry": {"type": "Point", "coordinates": [-94.35, 32.53]}, "type": "Feature", "id": "75671", "properties": {"other_cities": "", "city": "Marshall", "state": "TX", "county": "Harrison County"}}, {"geometry": {"type": "Point", "coordinates": [-94.35, 32.53]}, "type": "Feature", "id": "75672", "properties": {"other_cities": "", "city": "Marshall", "state": "TX", "county": "Harrison County"}}, {"geometry": {"type": "Point", "coordinates": [-94.76, 32.04]}, "type": "Feature", "id": "75680", "properties": {"other_cities": "Henderson", "city": "Minden", "state": "TX", "county": "Rusk County"}}, {"geometry": {"type": "Point", "coordinates": [-94.68, 31.91]}, "type": "Feature", "id": "75681", "properties": {"other_cities": "Mt Enterprise", "city": "Mount Enterprise", "state": "TX", "county": "Rusk County"}}, {"geometry": {"type": "Point", "coordinates": [-94.93, 32.26]}, "type": "Feature", "id": "75682", "properties": {"other_cities": "", "city": "New London", "state": "TX", "county": "Rusk County"}}, {"geometry": {"type": "Point", "coordinates": [-94.71, 32.8]}, "type": "Feature", "id": "75683", "properties": {"other_cities": "", "city": "Ore City", "state": "TX", "county": "Upshur County"}}, {"geometry": {"type": "Point", "coordinates": [-94.97, 32.27]}, "type": "Feature", "id": "75684", "properties": {"other_cities": "", "city": "Overton", "state": "TX", "county": "Rusk County"}}, {"geometry": {"type": "Point", "coordinates": [-94.09, 32.35]}, "type": "Feature", "id": "75685", "properties": {"other_cities": "", "city": "Panola", "state": "TX", "county": "Panola County"}}, {"geometry": {"type": "Point", "coordinates": [-94.96, 32.99]}, "type": "Feature", "id": "75686", "properties": {"other_cities": "", "city": "Pittsburg", "state": "TX", "county": "Camp County"}}, {"geometry": {"type": "Point", "coordinates": [-94.94, 32.08]}, "type": "Feature", "id": "75687", "properties": {"other_cities": "", "city": "Price", "state": "TX", "county": "Rusk County"}}, {"geometry": {"type": "Point", "coordinates": [-94.24, 32.53]}, "type": "Feature", "id": "75688", "properties": {"other_cities": "", "city": "Scottsville", "state": "TX", "county": "Harrison County"}}, {"geometry": {"type": "Point", "coordinates": [-94.95, 32.18]}, "type": "Feature", "id": "75689", "properties": {"other_cities": "Turnertown", "city": "Selman City", "state": "TX", "county": "Rusk County"}}, {"geometry": {"type": "Point", "coordinates": [-94.51, 32.31]}, "type": "Feature", "id": "75691", "properties": {"other_cities": "", "city": "Tatum", "state": "TX", "county": "Rusk County"}}, {"geometry": {"type": "Point", "coordinates": [-94.06, 32.47]}, "type": "Feature", "id": "75692", "properties": {"other_cities": "", "city": "Waskom", "state": "TX", "county": "Harrison County"}}, {"geometry": {"type": "Point", "coordinates": [-94.85, 32.53]}, "type": "Feature", "id": "75693", "properties": {"other_cities": "Clarksville City, Clarksvle Cty", "city": "White Oak", "state": "TX", "county": "Gregg County"}}, {"geometry": {"type": "Point", "coordinates": [-94.34, 32.66]}, "type": "Feature", "id": "75694", "properties": {"other_cities": "", "city": "Woodlawn", "state": "TX", "county": "Harrison County"}}, {"geometry": {"type": "Point", "coordinates": [-95.3, 32.32]}, "type": "Feature", "id": "75701", "properties": {"other_cities": "", "city": "Tyler", "state": "TX", "county": "Smith County"}}, {"geometry": {"type": "Point", "coordinates": [-95.3, 32.32]}, "type": "Feature", "id": "75702", "properties": {"other_cities": "", "city": "Tyler", "state": "TX", "county": "Smith County"}}, {"geometry": {"type": "Point", "coordinates": [-95.3, 32.32]}, "type": "Feature", "id": "75703", "properties": {"other_cities": "", "city": "Tyler", "state": "TX", "county": "Smith County"}}, {"geometry": {"type": "Point", "coordinates": [-95.3, 32.32]}, "type": "Feature", "id": "75704", "properties": {"other_cities": "", "city": "Tyler", "state": "TX", "county": "Smith County"}}, {"geometry": {"type": "Point", "coordinates": [-95.3, 32.32]}, "type": "Feature", "id": "75705", "properties": {"other_cities": "", "city": "Tyler", "state": "TX", "county": "Smith County"}}, {"geometry": {"type": "Point", "coordinates": [-95.3, 32.32]}, "type": "Feature", "id": "75706", "properties": {"other_cities": "", "city": "Tyler", "state": "TX", "county": "Smith County"}}, {"geometry": {"type": "Point", "coordinates": [-95.3, 32.32]}, "type": "Feature", "id": "75707", "properties": {"other_cities": "", "city": "Tyler", "state": "TX", "county": "Smith County"}}, {"geometry": {"type": "Point", "coordinates": [-95.3, 32.32]}, "type": "Feature", "id": "75708", "properties": {"other_cities": "", "city": "Tyler", "state": "TX", "county": "Smith County"}}, {"geometry": {"type": "Point", "coordinates": [-95.3, 32.32]}, "type": "Feature", "id": "75709", "properties": {"other_cities": "", "city": "Tyler", "state": "TX", "county": "Smith County"}}, {"geometry": {"type": "Point", "coordinates": [-95.3, 32.32]}, "type": "Feature", "id": "75710", "properties": {"other_cities": "", "city": "Tyler", "state": "TX", "county": "Smith County"}}, {"geometry": {"type": "Point", "coordinates": [-95.3, 32.32]}, "type": "Feature", "id": "75711", "properties": {"other_cities": "", "city": "Tyler", "state": "TX", "county": "Smith County"}}, {"geometry": {"type": "Point", "coordinates": [-95.3, 32.32]}, "type": "Feature", "id": "75712", "properties": {"other_cities": "", "city": "Tyler", "state": "TX", "county": "Smith County"}}, {"geometry": {"type": "Point", "coordinates": [-95.3, 32.32]}, "type": "Feature", "id": "75713", "properties": {"other_cities": "", "city": "Tyler", "state": "TX", "county": "Smith County"}}, {"geometry": {"type": "Point", "coordinates": [-95.05, 32.22]}, "type": "Feature", "id": "75750", "properties": {"other_cities": "", "city": "Arp", "state": "TX", "county": "Smith County"}}, {"geometry": {"type": "Point", "coordinates": [-95.85, 32.2]}, "type": "Feature", "id": "75751", "properties": {"other_cities": "", "city": "Athens", "state": "TX", "county": "Henderson County"}}, {"geometry": {"type": "Point", "coordinates": [-95.85, 32.2]}, "type": "Feature", "id": "75752", "properties": {"other_cities": "", "city": "Athens", "state": "TX", "county": "Henderson County"}}, {"geometry": {"type": "Point", "coordinates": [-95.66, 32.41]}, "type": "Feature", "id": "75754", "properties": {"other_cities": "Edom", "city": "Ben Wheeler", "state": "TX", "county": "Van Zandt County"}}, {"geometry": {"type": "Point", "coordinates": [-95.11, 32.58]}, "type": "Feature", "id": "75755", "properties": {"other_cities": "Holly Lake Ranch, Holly Lk Rnch", "city": "Big Sandy", "state": "TX", "county": "Upshur County"}}, {"geometry": {"type": "Point", "coordinates": [-95.61, 32.29]}, "type": "Feature", "id": "75756", "properties": {"other_cities": "Edom", "city": "Brownsboro", "state": "TX", "county": "Henderson County"}}, {"geometry": {"type": "Point", "coordinates": [-95.31, 32.14]}, "type": "Feature", "id": "75757", "properties": {"other_cities": "Mount Selman", "city": "Bullard", "state": "TX", "county": "Cherokee County"}}, {"geometry": {"type": "Point", "coordinates": [-95.47, 32.3]}, "type": "Feature", "id": "75758", "properties": {"other_cities": "", "city": "Chandler", "state": "TX", "county": "Henderson County"}}, {"geometry": {"type": "Point", "coordinates": [-95.41, 32.03]}, "type": "Feature", "id": "75759", "properties": {"other_cities": "", "city": "Cuney", "state": "TX", "county": "Cherokee County"}}, {"geometry": {"type": "Point", "coordinates": [-94.84, 31.81]}, "type": "Feature", "id": "75760", "properties": {"other_cities": "", "city": "Cushing", "state": "TX", "county": "Nacogdoches County"}}, {"geometry": {"type": "Point", "coordinates": [-95.39, 32.2]}, "type": "Feature", "id": "75762", "properties": {"other_cities": "", "city": "Flint", "state": "TX", "county": "Smith County"}}, {"geometry": {"type": "Point", "coordinates": [-95.5, 32.05]}, "type": "Feature", "id": "75763", "properties": {"other_cities": "", "city": "Frankston", "state": "TX", "county": "Anderson County"}}, {"geometry": {"type": "Point", "coordinates": [-95.15, 31.89]}, "type": "Feature", "id": "75764", "properties": {"other_cities": "", "city": "Gallatin", "state": "TX", "county": "Cherokee County"}}, {"geometry": {"type": "Point", "coordinates": [-95.2, 32.59]}, "type": "Feature", "id": "75765", "properties": {"other_cities": "Holly Lake Ranch, Holly Lk Rnch", "city": "Hawkins", "state": "TX", "county": "Wood County"}}, {"geometry": {"type": "Point", "coordinates": [-95.26, 31.96]}, "type": "Feature", "id": "75766", "properties": {"other_cities": "", "city": "Jacksonville", "state": "TX", "county": "Cherokee County"}}, {"geometry": {"type": "Point", "coordinates": [-95.64, 32.14]}, "type": "Feature", "id": "75770", "properties": {"other_cities": "", "city": "Larue", "state": "TX", "county": "Henderson County"}}, {"geometry": {"type": "Point", "coordinates": [-95.4, 32.5]}, "type": "Feature", "id": "75771", "properties": {"other_cities": "Garden Valley, Hide A Way, Hideaway, Mt Sylvan", "city": "Lindale", "state": "TX", "county": "Smith County"}}, {"geometry": {"type": "Point", "coordinates": [-95.32, 31.85]}, "type": "Feature", "id": "75772", "properties": {"other_cities": "", "city": "Maydelle", "state": "TX", "county": "Cherokee County"}}, {"geometry": {"type": "Point", "coordinates": [-95.48, 32.66]}, "type": "Feature", "id": "75773", "properties": {"other_cities": "", "city": "Mineola", "state": "TX", "county": "Wood County"}}, {"geometry": {"type": "Point", "coordinates": [-95.75, 32.27]}, "type": "Feature", "id": "75778", "properties": {"other_cities": "", "city": "Murchison", "state": "TX", "county": "Henderson County"}}, {"geometry": {"type": "Point", "coordinates": [-95.5, 31.87]}, "type": "Feature", "id": "75779", "properties": {"other_cities": "", "city": "Neches", "state": "TX", "county": "Anderson County"}}, {"geometry": {"type": "Point", "coordinates": [-95.1, 31.98]}, "type": "Feature", "id": "75780", "properties": {"other_cities": "New Summerfld", "city": "New Summerfield", "state": "TX", "county": "Cherokee County"}}, {"geometry": {"type": "Point", "coordinates": [-95.59, 32.07]}, "type": "Feature", "id": "75782", "properties": {"other_cities": "", "city": "Poynor", "state": "TX", "county": "Henderson County"}}, {"geometry": {"type": "Point", "coordinates": [-95.44, 32.79]}, "type": "Feature", "id": "75783", "properties": {"other_cities": "", "city": "Quitman", "state": "TX", "county": "Wood County"}}, {"geometry": {"type": "Point", "coordinates": [-94.98, 31.86]}, "type": "Feature", "id": "75784", "properties": {"other_cities": "", "city": "Reklaw", "state": "TX", "county": "Cherokee County"}}, {"geometry": {"type": "Point", "coordinates": [-95.14, 31.79]}, "type": "Feature", "id": "75785", "properties": {"other_cities": "Dialville", "city": "Rusk", "state": "TX", "county": "Cherokee County"}}, {"geometry": {"type": "Point", "coordinates": [-94.9, 31.81]}, "type": "Feature", "id": "75788", "properties": {"other_cities": "", "city": "Sacul", "state": "TX", "county": "Nacogdoches County"}}, {"geometry": {"type": "Point", "coordinates": [-95.12, 32.14]}, "type": "Feature", "id": "75789", "properties": {"other_cities": "", "city": "Troup", "state": "TX", "county": "Cherokee County"}}, {"geometry": {"type": "Point", "coordinates": [-95.63, 32.52]}, "type": "Feature", "id": "75790", "properties": {"other_cities": "", "city": "Van", "state": "TX", "county": "Van Zandt County"}}, {"geometry": {"type": "Point", "coordinates": [-95.21, 32.22]}, "type": "Feature", "id": "75791", "properties": {"other_cities": "", "city": "Whitehouse", "state": "TX", "county": "Smith County"}}, {"geometry": {"type": "Point", "coordinates": [-95.17, 32.49]}, "type": "Feature", "id": "75792", "properties": {"other_cities": "", "city": "Winona", "state": "TX", "county": "Smith County"}}, {"geometry": {"type": "Point", "coordinates": [-95.11, 32.58]}, "type": "Feature", "id": "75797", "properties": {"other_cities": "", "city": "Big Sandy", "state": "TX", "county": "Upshur County"}}, {"geometry": {"type": "Point", "coordinates": [-95.3, 32.32]}, "type": "Feature", "id": "75798", "properties": {"other_cities": "", "city": "Tyler", "state": "TX", "county": "Smith County"}}, {"geometry": {"type": "Point", "coordinates": [-95.3, 32.32]}, "type": "Feature", "id": "75799", "properties": {"other_cities": "", "city": "Tyler", "state": "TX", "county": "Smith County"}}, {"geometry": {"type": "Point", "coordinates": [-95.64, 31.75]}, "type": "Feature", "id": "75801", "properties": {"other_cities": "", "city": "Palestine", "state": "TX", "county": "Anderson County"}}, {"geometry": {"type": "Point", "coordinates": [-95.64, 31.75]}, "type": "Feature", "id": "75802", "properties": {"other_cities": "", "city": "Palestine", "state": "TX", "county": "Anderson County"}}, {"geometry": {"type": "Point", "coordinates": [-95.64, 31.75]}, "type": "Feature", "id": "75803", "properties": {"other_cities": "", "city": "Palestine", "state": "TX", "county": "Anderson County"}}, {"geometry": {"type": "Point", "coordinates": [-96.06, 31.46]}, "type": "Feature", "id": "75831", "properties": {"other_cities": "Keechi", "city": "Buffalo", "state": "TX", "county": "Leon County"}}, {"geometry": {"type": "Point", "coordinates": [-95.97, 31.95]}, "type": "Feature", "id": "75832", "properties": {"other_cities": "", "city": "Cayuga", "state": "TX", "county": "Anderson County"}}, {"geometry": {"type": "Point", "coordinates": [-95.97, 31.25]}, "type": "Feature", "id": "75833", "properties": {"other_cities": "", "city": "Centerville", "state": "TX", "county": "Leon County"}}, {"geometry": {"type": "Point", "coordinates": [-94.97, 31.26]}, "type": "Feature", "id": "75834", "properties": {"other_cities": "", "city": "Centralia", "state": "TX", "county": "Trinity County"}}, {"geometry": {"type": "Point", "coordinates": [-95.45, 31.31]}, "type": "Feature", "id": "75835", "properties": {"other_cities": "", "city": "Crockett", "state": "TX", "county": "Houston County"}}, {"geometry": {"type": "Point", "coordinates": [-96.24, 31.47]}, "type": "Feature", "id": "75838", "properties": {"other_cities": "", "city": "Donie", "state": "TX", "county": "Freestone County"}}, {"geometry": {"type": "Point", "coordinates": [-95.57, 31.62]}, "type": "Feature", "id": "75839", "properties": {"other_cities": "Slocum", "city": "Elkhart", "state": "TX", "county": "Anderson County"}}, {"geometry": {"type": "Point", "coordinates": [-96.16, 31.71]}, "type": "Feature", "id": "75840", "properties": {"other_cities": "", "city": "Fairfield", "state": "TX", "county": "Freestone County"}}, {"geometry": {"type": "Point", "coordinates": [-95.48, 31.49]}, "type": "Feature", "id": "75844", "properties": {"other_cities": "", "city": "Grapeland", "state": "TX", "county": "Houston County"}}, {"geometry": {"type": "Point", "coordinates": [-95.12, 31.05]}, "type": "Feature", "id": "75845", "properties": {"other_cities": "", "city": "Groveton", "state": "TX", "county": "Trinity County"}}, {"geometry": {"type": "Point", "coordinates": [-96.14, 31.36]}, "type": "Feature", "id": "75846", "properties": {"other_cities": "", "city": "Jewett", "state": "TX", "county": "Leon County"}}, {"geometry": {"type": "Point", "coordinates": [-95.18, 31.35]}, "type": "Feature", "id": "75847", "properties": {"other_cities": "", "city": "Kennard", "state": "TX", "county": "Houston County"}}, {"geometry": {"type": "Point", "coordinates": [-96.32, 31.76]}, "type": "Feature", "id": "75848", "properties": {"other_cities": "", "city": "Kirvin", "state": "TX", "county": "Freestone County"}}, {"geometry": {"type": "Point", "coordinates": [-95.47, 31.38]}, "type": "Feature", "id": "75849", "properties": {"other_cities": "", "city": "Latexo", "state": "TX", "county": "Houston County"}}, {"geometry": {"type": "Point", "coordinates": [-95.97, 31.15]}, "type": "Feature", "id": "75850", "properties": {"other_cities": "Midway", "city": "Leona", "state": "TX", "county": "Leon County"}}, {"geometry": {"type": "Point", "coordinates": [-95.44, 31.12]}, "type": "Feature", "id": "75851", "properties": {"other_cities": "", "city": "Lovelady", "state": "TX", "county": "Houston County"}}, {"geometry": {"type": "Point", "coordinates": [-95.75, 31.02]}, "type": "Feature", "id": "75852", "properties": {"other_cities": "", "city": "Midway", "state": "TX", "county": "Madison County"}}, {"geometry": {"type": "Point", "coordinates": [-95.76, 31.93]}, "type": "Feature", "id": "75853", "properties": {"other_cities": "", "city": "Montalba", "state": "TX", "county": "Anderson County"}}, {"geometry": {"type": "Point", "coordinates": [-95.84, 31.58]}, "type": "Feature", "id": "75855", "properties": {"other_cities": "", "city": "Oakwood", "state": "TX", "county": "Leon County"}}, {"geometry": {"type": "Point", "coordinates": [-95.16, 31.15]},