{"type": "FeatureCollection", "features": [{"geometry": {"type": "Point", "coordinates": [-77.35, 38.92]}, "type": "Feature", "id": "20101", "properties": {"other_cities": "", "city": "Dulles", "state": "VA", "county": "Loudoun County"}}, {"geometry": {"type": "Point", "coordinates": [-77.35, 38.92]}, "type": "Feature", "id": "20102", "properties": {"other_cities": "", "city": "Dulles", "state": "VA", "county": "Loudoun County"}}, {"geometry": {"type": "Point", "coordinates": [-77.35, 38.92]}, "type": "Feature", "id": "20103", "properties": {"other_cities": "", "city": "Dulles", "state": "VA", "county": "Loudoun County"}}, {"geometry": {"type": "Point", "coordinates": [-77.35, 38.92]}, "type": "Feature", "id": "20104", "properties": {"other_cities": "", "city": "Dulles", "state": "VA", "county": "Loudoun County"}}, {"geometry": {"type": "Point", "coordinates": [-77.64, 38.97]}, "type": "Feature", "id": "20105", "properties": {"other_cities": "Stone Ridge", "city": "Aldie", "state": "VA", "county": "Loudoun County"}}, {"geometry": {"type": "Point", "coordinates": [-77.99, 38.67]}, "type": "Feature", "id": "20106", "properties": {"other_cities": "Viewtown", "city": "Amissville", "state": "VA", "county": "Rappahannock County"}}, {"geometry": {"type": "Point", "coordinates": [-77.52, 38.96]}, "type": "Feature", "id": "20107", "properties": {"other_cities": "", "city": "Arcola", "state": "VA", "county": "Loudoun County"}}, {"geometry": {"type": "Point", "coordinates": [-77.48, 38.74]}, "type": "Feature", "id": "20108", "properties": {"other_cities": "", "city": "Manassas", "state": "VA", "county": "Manassas City"}}, {"geometry": {"type": "Point", "coordinates": [-77.48, 38.74]}, "type": "Feature", "id": "20109", "properties": {"other_cities": "Sudley Spgs, Sudley Springs", "city": "Manassas", "state": "VA", "county": "Prince William County"}}, {"geometry": {"type": "Point", "coordinates": [-77.48, 38.74]}, "type": "Feature", "id": "20110", "properties": {"other_cities": "", "city": "Manassas", "state": "VA", "county": "Manassas City"}}, {"geometry": {"type": "Point", "coordinates": [-77.48, 38.74]}, "type": "Feature", "id": "20111", "properties": {"other_cities": "Manassas Park", "city": "Manassas", "state": "VA", "county": "Manassas Park City"}}, {"geometry": {"type": "Point", "coordinates": [-77.48, 38.74]}, "type": "Feature", "id": "20112", "properties": {"other_cities": "", "city": "Manassas", "state": "VA", "county": "Prince William County"}}, {"geometry": {"type": "Point", "coordinates": [-77.48, 38.74]}, "type": "Feature", "id": "20113", "properties": {"other_cities": "", "city": "Manassas", "state": "VA", "county": "Manassas City"}}, {"geometry": {"type": "Point", "coordinates": [-77.85, 38.87]}, "type": "Feature", "id": "20115", "properties": {"other_cities": "", "city": "Marshall", "state": "VA", "county": "Fauquier County"}}, {"geometry": {"type": "Point", "coordinates": [-77.85, 38.87]}, "type": "Feature", "id": "20116", "properties": {"other_cities": "", "city": "Marshall", "state": "VA", "county": "Fauquier County"}}, {"geometry": {"type": "Point", "coordinates": [-77.73, 38.97]}, "type": "Feature", "id": "20117", "properties": {"other_cities": "", "city": "Middleburg", "state": "VA", "county": "Loudoun County"}}, {"geometry": {"type": "Point", "coordinates": [-77.73, 38.97]}, "type": "Feature", "id": "20118", "properties": {"other_cities": "", "city": "Middleburg", "state": "VA", "county": "Loudoun County"}}, {"geometry": {"type": "Point", "coordinates": [-77.64, 38.61]}, "type": "Feature", "id": "20119", "properties": {"other_cities": "", "city": "Catlett", "state": "VA", "county": "Fauquier County"}}, {"geometry": {"type": "Point", "coordinates": [-77.44, 38.84]}, "type": "Feature", "id": "20120", "properties": {"other_cities": "Sully Station", "city": "Centreville", "state": "VA", "county": "Fairfax County"}}, {"geometry": {"type": "Point", "coordinates": [-77.44, 38.84]}, "type": "Feature", "id": "20121", "properties": {"other_cities": "", "city": "Centreville", "state": "VA", "county": "Fairfax County"}}, {"geometry": {"type": "Point", "coordinates": [-77.44, 38.84]}, "type": "Feature", "id": "20122", "properties": {"other_cities": "", "city": "Centreville", "state": "VA", "county": "Fairfax County"}}, {"geometry": {"type": "Point", "coordinates": [-77.38, 38.77]}, "type": "Feature", "id": "20124", "properties": {"other_cities": "", "city": "Clifton", "state": "VA", "county": "Fairfax County"}}, {"geometry": {"type": "Point", "coordinates": [-77.96, 38.74]}, "type": "Feature", "id": "20128", "properties": {"other_cities": "", "city": "Orlean", "state": "VA", "county": "Fauquier County"}}, {"geometry": {"type": "Point", "coordinates": [-77.61, 39.16]}, "type": "Feature", "id": "20129", "properties": {"other_cities": "Paeonian Spgs", "city": "Paeonian Springs", "state": "VA", "county": "Loudoun County"}}, {"geometry": {"type": "Point", "coordinates": [-77.95, 39.0]}, "type": "Feature", "id": "20130", "properties": {"other_cities": "", "city": "Paris", "state": "VA", "county": "Clarke County"}}, {"geometry": {"type": "Point", "coordinates": [-77.74, 39.05]}, "type": "Feature", "id": "20131", "properties": {"other_cities": "", "city": "Philomont", "state": "VA", "county": "Loudoun County"}}, {"geometry": {"type": "Point", "coordinates": [-77.71, 39.13]}, "type": "Feature", "id": "20132", "properties": {"other_cities": "Hillsboro", "city": "Purcellville", "state": "VA", "county": "Loudoun County"}}, {"geometry": {"type": "Point", "coordinates": [-77.71, 39.13]}, "type": "Feature", "id": "20134", "properties": {"other_cities": "Hillsboro", "city": "Purcellville", "state": "VA", "county": "Loudoun County"}}, {"geometry": {"type": "Point", "coordinates": [-77.83, 39.11]}, "type": "Feature", "id": "20135", "properties": {"other_cities": "Mount Weather", "city": "Bluemont", "state": "VA", "county": "Clarke County"}}, {"geometry": {"type": "Point", "coordinates": [-77.55, 38.73]}, "type": "Feature", "id": "20136", "properties": {"other_cities": "", "city": "Bristow", "state": "VA", "county": "Prince William County"}}, {"geometry": {"type": "Point", "coordinates": [-77.72, 38.81]}, "type": "Feature", "id": "20137", "properties": {"other_cities": "", "city": "Broad Run", "state": "VA", "county": "Fauquier County"}}, {"geometry": {"type": "Point", "coordinates": [-77.67, 38.63]}, "type": "Feature", "id": "20138", "properties": {"other_cities": "", "city": "Calverton", "state": "VA", "county": "Fauquier County"}}, {"geometry": {"type": "Point", "coordinates": [-77.64, 38.61]}, "type": "Feature", "id": "20139", "properties": {"other_cities": "", "city": "Casanova", "state": "VA", "county": "Fauquier County"}}, {"geometry": {"type": "Point", "coordinates": [-77.9, 38.81]}, "type": "Feature", "id": "20140", "properties": {"other_cities": "", "city": "Rectortown", "state": "VA", "county": "Fauquier County"}}, {"geometry": {"type": "Point", "coordinates": [-77.77, 39.13]}, "type": "Feature", "id": "20141", "properties": {"other_cities": "", "city": "Round Hill", "state": "VA", "county": "Loudoun County"}}, {"geometry": {"type": "Point", "coordinates": [-77.77, 39.13]}, "type": "Feature", "id": "20142", "properties": {"other_cities": "", "city": "Round Hill", "state": "VA", "county": "Loudoun County"}}, {"geometry": {"type": "Point", "coordinates": [-77.56, 38.84]}, "type": "Feature", "id": "20143", "properties": {"other_cities": "", "city": "Catharpin", "state": "VA", "county": "Prince William County"}}, {"geometry": {"type": "Point", "coordinates": [-77.92, 38.92]}, "type": "Feature", "id": "20144", "properties": {"other_cities": "", "city": "Delaplane", "state": "VA", "county": "Fauquier County"}}, {"geometry": {"type": "Point", "coordinates": [-77.48, 39.04]}, "type": "Feature", "id": "20146", "properties": {"other_cities": "", "city": "Ashburn", "state": "VA", "county": "Loudoun County"}}, {"geometry": {"type": "Point", "coordinates": [-77.48, 39.04]}, "type": "Feature", "id": "20147", "properties": {"other_cities": "", "city": "Ashburn", "state": "VA", "county": "Loudoun County"}}, {"geometry": {"type": "Point", "coordinates": [-77.48, 39.04]}, "type": "Feature", "id": "20148", "properties": {"other_cities": "Arcola, Brambleton, Broadlands", "city": "Ashburn", "state": "VA", "county": "Loudoun County"}}, {"geometry": {"type": "Point", "coordinates": [-77.48, 39.04]}, "type": "Feature", "id": "20149", "properties": {"other_cities": "", "city": "Ashburn", "state": "VA", "county": "Loudoun County"}}, {"geometry": {"type": "Point", "coordinates": [-77.4, 38.87]}, "type": "Feature", "id": "20151", "properties": {"other_cities": "Fairfax", "city": "Chantilly", "state": "VA", "county": "Fairfax County"}}, {"geometry": {"type": "Point", "coordinates": [-77.4, 38.87]}, "type": "Feature", "id": "20152", "properties": {"other_cities": "Fairfax, South Riding", "city": "Chantilly", "state": "VA", "county": "Loudoun County"}}, {"geometry": {"type": "Point", "coordinates": [-77.4, 38.87]}, "type": "Feature", "id": "20153", "properties": {"other_cities": "Fairfax", "city": "Chantilly", "state": "VA", "county": "Fairfax County"}}, {"geometry": {"type": "Point", "coordinates": [-77.61, 38.79]}, "type": "Feature", "id": "20155", "properties": {"other_cities": "", "city": "Gainesville", "state": "VA", "county": "Prince William County"}}, {"geometry": {"type": "Point", "coordinates": [-77.61, 38.79]}, "type": "Feature", "id": "20156", "properties": {"other_cities": "", "city": "Gainesville", "state": "VA", "county": "Prince William County"}}, {"geometry": {"type": "Point", "coordinates": [-77.66, 39.13]}, "type": "Feature", "id": "20158", "properties": {"other_cities": "", "city": "Hamilton", "state": "VA", "county": "Loudoun County"}}, {"geometry": {"type": "Point", "coordinates": [-77.66, 39.13]}, "type": "Feature", "id": "20159", "properties": {"other_cities": "", "city": "Hamilton", "state": "VA", "county": "Loudoun County"}}, {"geometry": {"type": "Point", "coordinates": [-77.69, 39.11]}, "type": "Feature", "id": "20160", "properties": {"other_cities": "Purcellville", "city": "Lincoln", "state": "VA", "county": "Loudoun County"}}, {"geometry": {"type": "Point", "coordinates": [-77.4, 39.0]}, "type": "Feature", "id": "20163", "properties": {"other_cities": "", "city": "Sterling", "state": "VA", "county": "Loudoun County"}}, {"geometry": {"type": "Point", "coordinates": [-77.4, 39.0]}, "type": "Feature", "id": "20164", "properties": {"other_cities": "", "city": "Sterling", "state": "VA", "county": "Loudoun County"}}, {"geometry": {"type": "Point", "coordinates": [-77.4, 39.0]}, "type": "Feature", "id": "20165", "properties": {"other_cities": "Potomac Falls", "city": "Sterling", "state": "VA", "county": "Loudoun County"}}, {"geometry": {"type": "Point", "coordinates": [-77.4, 39.0]}, "type": "Feature", "id": "20166", "properties": {"other_cities": "Dulles", "city": "Sterling", "state": "VA", "county": "Loudoun County"}}, {"geometry": {"type": "Point", "coordinates": [-77.4, 39.0]}, "type": "Feature", "id": "20167", "properties": {"other_cities": "", "city": "Sterling", "state": "VA", "county": "Loudoun County"}}, {"geometry": {"type": "Point", "coordinates": [-77.63, 38.81]}, "type": "Feature", "id": "20168", "properties": {"other_cities": "", "city": "Haymarket", "state": "VA", "county": "Prince William County"}}, {"geometry": {"type": "Point", "coordinates": [-77.63, 38.81]}, "type": "Feature", "id": "20169", "properties": {"other_cities": "", "city": "Haymarket", "state": "VA", "county": "Prince William County"}}, {"geometry": {"type": "Point", "coordinates": [-77.38, 38.96]}, "type": "Feature", "id": "20170", "properties": {"other_cities": "", "city": "Herndon", "state": "VA", "county": "Fairfax County"}}, {"geometry": {"type": "Point", "coordinates": [-77.38, 38.96]}, "type": "Feature", "id": "20171", "properties": {"other_cities": "Oak Hill", "city": "Herndon", "state": "VA", "county": "Fairfax County"}}, {"geometry": {"type": "Point", "coordinates": [-77.38, 38.96]}, "type": "Feature", "id": "20172", "properties": {"other_cities": "", "city": "Herndon", "state": "VA", "county": "Fairfax County"}}, {"geometry": {"type": "Point", "coordinates": [-77.55, 39.1]}, "type": "Feature", "id": "20175", "properties": {"other_cities": "", "city": "Leesburg", "state": "VA", "county": "Loudoun County"}}, {"geometry": {"type": "Point", "coordinates": [-77.55, 39.1]}, "type": "Feature", "id": "20176", "properties": {"other_cities": "Lansdowne", "city": "Leesburg", "state": "VA", "county": "Loudoun County"}}, {"geometry": {"type": "Point", "coordinates": [-77.55, 39.1]}, "type": "Feature", "id": "20177", "properties": {"other_cities": "", "city": "Leesburg", "state": "VA", "county": "Loudoun County"}}, {"geometry": {"type": "Point", "coordinates": [-77.55, 39.1]}, "type": "Feature", "id": "20178", "properties": {"other_cities": "", "city": "Leesburg", "state": "VA", "county": "Loudoun County"}}, {"geometry": {"type": "Point", "coordinates": [-77.63, 39.27]}, "type": "Feature", "id": "20180", "properties": {"other_cities": "", "city": "Lovettsville", "state": "VA", "county": "Loudoun County"}}, {"geometry": {"type": "Point", "coordinates": [-77.58, 38.69]}, "type": "Feature", "id": "20181", "properties": {"other_cities": "", "city": "Nokesville", "state": "VA", "county": "Prince William County"}}, {"geometry": {"type": "Point", "coordinates": [-77.58, 38.69]}, "type": "Feature", "id": "20182", "properties": {"other_cities": "", "city": "Nokesville", "state": "VA", "county": "Prince William County"}}, {"geometry": {"type": "Point", "coordinates": [-77.88, 38.99]}, "type": "Feature", "id": "20184", "properties": {"other_cities": "", "city": "Upperville", "state": "VA", "county": "Fauquier County"}}, {"geometry": {"type": "Point", "coordinates": [-77.88, 38.99]}, "type": "Feature", "id": "20185", "properties": {"other_cities": "", "city": "Upperville", "state": "VA", "county": "Fauquier County"}}, {"geometry": {"type": "Point", "coordinates": [-77.79, 38.71]}, "type": "Feature", "id": "20186", "properties": {"other_cities": "", "city": "Warrenton", "state": "VA", "county": "Fauquier County"}}, {"geometry": {"type": "Point", "coordinates": [-77.79, 38.71]}, "type": "Feature", "id": "20187", "properties": {"other_cities": "New Baltimore, Vint Hill Farms, Vint Hill Frm", "city": "Warrenton", "state": "VA", "county": "Fauquier County"}}, {"geometry": {"type": "Point", "coordinates": [-77.79, 38.71]}, "type": "Feature", "id": "20188", "properties": {"other_cities": "Vint Hill Farms, Vint Hill Frm", "city": "Warrenton", "state": "VA", "county": "Fauquier County"}}, {"geometry": {"type": "Point", "coordinates": [-77.04, 38.9]}, "type": "Feature", "id": "20189", "properties": {"other_cities": "", "city": "Dulles", "state": "VA", "county": "Loudoun County"}}, {"geometry": {"type": "Point", "coordinates": [-77.34, 38.95]}, "type": "Feature", "id": "20190", "properties": {"other_cities": "Herndon", "city": "Reston", "state": "VA", "county": "Fairfax County"}}, {"geometry": {"type": "Point", "coordinates": [-77.34, 38.95]}, "type": "Feature", "id": "20191", "properties": {"other_cities": "Herndon", "city": "Reston", "state": "VA", "county": "Fairfax County"}}, {"geometry": {"type": "Point", "coordinates": [-77.38, 38.96]}, "type": "Feature", "id": "20192", "properties": {"other_cities": "Reston", "city": "Herndon", "state": "VA", "county": "Fairfax County"}}, {"geometry": {"type": "Point", "coordinates": [-77.34, 38.93]}, "type": "Feature", "id": "20193", "properties": {"other_cities": "Herndon, Hundon, Sallie Mae", "city": "Reston", "state": "VA", "county": "Fairfax County"}}, {"geometry": {"type": "Point", "coordinates": [-77.34, 38.95]}, "type": "Feature", "id": "20194", "properties": {"other_cities": "Herndon", "city": "Reston", "state": "VA", "county": "Fairfax County"}}, {"geometry": {"type": "Point", "coordinates": [-77.34, 38.95]}, "type": "Feature", "id": "20195", "properties": {"other_cities": "Herndon", "city": "Reston", "state": "VA", "county": "Fairfax County"}}, {"geometry": {"type": "Point", "coordinates": [-77.34, 38.95]}, "type": "Feature", "id": "20196", "properties": {"other_cities": "Herndon", "city": "Reston", "state": "VA", "county": "Fairfax County"}}, {"geometry": {"type": "Point", "coordinates": [-77.61, 39.18]}, "type": "Feature", "id": "20197", "properties": {"other_cities": "", "city": "Waterford", "state": "VA", "county": "Loudoun County"}}, {"geometry": {"type": "Point", "coordinates": [-77.77, 38.86]}, "type": "Feature", "id": "20198", "properties": {"other_cities": "", "city": "The Plains", "state": "VA", "county": "Fauquier County"}}, {"geometry": {"type": "Point", "coordinates": [-77.45, 39.0]}, "type": "Feature", "id": "20199", "properties": {"other_cities": "Visa Lottery State Dept", "city": "Dulles", "state": "VA", "county": "Loudoun County"}}, {"geometry": {"type": "Point", "coordinates": [-77.05, 38.86]}, "type": "Feature", "id": "20598", "properties": {"other_cities": "Alexandria, Arlington, Fairfax, Falls Church, Herndon, Lorton, Mc Lean, Mclean, Reston, Springfield, Sterling", "city": "Dhs", "state": "VA", "county": "Fairfax County"}}, {"geometry": {"type": "Point", "coordinates": [-77.21, 38.83]}, "type": "Feature", "id": "22003", "properties": {"other_cities": "", "city": "Annandale", "state": "VA", "county": "Fairfax County"}}, {"geometry": {"type": "Point", "coordinates": [-77.27, 38.78]}, "type": "Feature", "id": "22009", "properties": {"other_cities": "Springfield", "city": "Burke", "state": "VA", "county": "Fairfax County"}}, {"geometry": {"type": "Point", "coordinates": [-77.27, 38.78]}, "type": "Feature", "id": "22015", "properties": {"other_cities": "Springfield", "city": "Burke", "state": "VA", "county": "Fairfax County"}}, {"geometry": {"type": "Point", "coordinates": [-77.34, 38.6]}, "type": "Feature", "id": "22025", "properties": {"other_cities": "Montclair", "city": "Dumfries", "state": "VA", "county": "Prince William County"}}, {"geometry": {"type": "Point", "coordinates": [-77.32, 38.56]}, "type": "Feature", "id": "22026", "properties": {"other_cities": "Southbridge", "city": "Dumfries", "state": "VA", "county": "Prince William County"}}, {"geometry": {"type": "Point", "coordinates": [-77.23, 38.89]}, "type": "Feature", "id": "22027", "properties": {"other_cities": "Vienna", "city": "Dunn Loring", "state": "VA", "county": "Fairfax County"}}, {"geometry": {"type": "Point", "coordinates": [-77.29, 38.85]}, "type": "Feature", "id": "22030", "properties": {"other_cities": "", "city": "Fairfax", "state": "VA", "county": "Fairfax County"}}, {"geometry": {"type": "Point", "coordinates": [-77.29, 38.85]}, "type": "Feature", "id": "22031", "properties": {"other_cities": "", "city": "Fairfax", "state": "VA", "county": "Fairfax County"}}, {"geometry": {"type": "Point", "coordinates": [-77.29, 38.85]}, "type": "Feature", "id": "22032", "properties": {"other_cities": "", "city": "Fairfax", "state": "VA", "county": "Fairfax County"}}, {"geometry": {"type": "Point", "coordinates": [-77.29, 38.85]}, "type": "Feature", "id": "22033", "properties": {"other_cities": "", "city": "Fairfax", "state": "VA", "county": "Fairfax County"}}, {"geometry": {"type": "Point", "coordinates": [-77.29, 38.85]}, "type": "Feature", "id": "22034", "properties": {"other_cities": "", "city": "Fairfax", "state": "VA", "county": "Fairfax City"}}, {"geometry": {"type": "Point", "coordinates": [-77.29, 38.85]}, "type": "Feature", "id": "22035", "properties": {"other_cities": "", "city": "Fairfax", "state": "VA", "county": "Fairfax City"}}, {"geometry": {"type": "Point", "coordinates": [-77.29, 38.85]}, "type": "Feature", "id": "22036", "properties": {"other_cities": "", "city": "Fairfax", "state": "VA", "county": "Fairfax City"}}, {"geometry": {"type": "Point", "coordinates": [-77.29, 38.85]}, "type": "Feature", "id": "22037", "properties": {"other_cities": "", "city": "Fairfax", "state": "VA", "county": "Fairfax City"}}, {"geometry": {"type": "Point", "coordinates": [-77.29, 38.85]}, "type": "Feature", "id": "22038", "properties": {"other_cities": "", "city": "Fairfax", "state": "VA", "county": "Fairfax City"}}, {"geometry": {"type": "Point", "coordinates": [-77.32, 38.8]}, "type": "Feature", "id": "22039", "properties": {"other_cities": "Fairfax Sta, Fx Station", "city": "Fairfax Station", "state": "VA", "county": "Fairfax County"}}, {"geometry": {"type": "Point", "coordinates": [-77.17, 38.88]}, "type": "Feature", "id": "22040", "properties": {"other_cities": "", "city": "Falls Church", "state": "VA", "county": "Falls Church City"}}, {"geometry": {"type": "Point", "coordinates": [-77.17, 38.88]}, "type": "Feature", "id": "22041", "properties": {"other_cities": "Baileys Crossroads, Baileys Xrds", "city": "Falls Church", "state": "VA", "county": "Fairfax County"}}, {"geometry": {"type": "Point", "coordinates": [-77.17, 38.88]}, "type": "Feature", "id": "22042", "properties": {"other_cities": "Mosby", "city": "Falls Church", "state": "VA", "county": "Fairfax County"}}, {"geometry": {"type": "Point", "coordinates": [-77.17, 38.88]}, "type": "Feature", "id": "22043", "properties": {"other_cities": "Pimmit", "city": "Falls Church", "state": "VA", "county": "Fairfax County"}}, {"geometry": {"type": "Point", "coordinates": [-77.17, 38.88]}, "type": "Feature", "id": "22044", "properties": {"other_cities": "Seven Corners", "city": "Falls Church", "state": "VA", "county": "Fairfax County"}}, {"geometry": {"type": "Point", "coordinates": [-77.17, 38.88]}, "type": "Feature", "id": "22046", "properties": {"other_cities": "", "city": "Falls Church", "state": "VA", "county": "Falls Church City"}}, {"geometry": {"type": "Point", "coordinates": [-77.22, 38.86]}, "type": "Feature", "id": "22047", "properties": {"other_cities": "", "city": "Falls Church", "state": "VA", "county": "Falls Church City"}}, {"geometry": {"type": "Point", "coordinates": [-77.14, 38.7]}, "type": "Feature", "id": "22060", "properties": {"other_cities": "Ft Belvoir", "city": "Fort Belvoir", "state": "VA", "county": "Fairfax County"}}, {"geometry": {"type": "Point", "coordinates": [-77.28, 39.01]}, "type": "Feature", "id": "22066", "properties": {"other_cities": "", "city": "Great Falls", "state": "VA", "county": "Fairfax County"}}, {"geometry": {"type": "Point", "coordinates": [-77.16, 38.93]}, "type": "Feature", "id": "22067", "properties": {"other_cities": "Mc Lean", "city": "Greenway", "state": "VA", "county": "Fairfax County"}}, {"geometry": {"type": "Point", "coordinates": [-77.24, 38.7]}, "type": "Feature", "id": "22079", "properties": {"other_cities": "Mason Neck", "city": "Lorton", "state": "VA", "county": "Fairfax County"}}, {"geometry": {"type": "Point", "coordinates": [-77.24, 38.87]}, "type": "Feature", "id": "22081", "properties": {"other_cities": "", "city": "Merrifield", "state": "VA", "county": "Fairfax County"}}, {"geometry": {"type": "Point", "coordinates": [-77.24, 38.87]}, "type": "Feature", "id": "22082", "properties": {"other_cities": "", "city": "Merrifield", "state": "VA", "county": "Fairfax County"}}, {"geometry": {"type": "Point", "coordinates": [-77.38, 38.96]}, "type": "Feature", "id": "22092", "properties": {"other_cities": "", "city": "Herndon", "state": "VA", "county": "Fairfax County"}}, {"geometry": {"type": "Point", "coordinates": [-77.48, 39.04]}, "type": "Feature", "id": "22093", "properties": {"other_cities": "Natl Assn Letter Carriers", "city": "Ashburn", "state": "VA", "county": "Loudoun County"}}, {"geometry": {"type": "Point", "coordinates": [-77.38, 38.96]}, "type": "Feature", "id": "22095", "properties": {"other_cities": "Reston", "city": "Herndon", "state": "VA", "county": "Fairfax County"}}, {"geometry": {"type": "Point", "coordinates": [-77.34, 38.95]}, "type": "Feature", "id": "22096", "properties": {"other_cities": "Herndon", "city": "Reston", "state": "VA", "county": "Fairfax County"}}, {"geometry": {"type": "Point", "coordinates": [-77.19, 38.94]}, "type": "Feature", "id": "22101", "properties": {"other_cities": "Mclean", "city": "Mc Lean", "state": "VA", "county": "Fairfax County"}}, {"geometry": {"type": "Point", "coordinates": [-77.19, 38.94]}, "type": "Feature", "id": "22102", "properties": {"other_cities": "Mclean, Tysons, Tysons Corner, West Mclean", "city": "Mc Lean", "state": "VA", "county": "Fairfax County"}}, {"geometry": {"type": "Point", "coordinates": [-77.16, 38.93]}, "type": "Feature", "id": "22103", "properties": {"other_cities": "Mc Lean, Mclean", "city": "West Mclean", "state": "VA", "county": "Fairfax County"}}, {"geometry": {"type": "Point", "coordinates": [-77.19, 38.94]}, "type": "Feature", "id": "22106", "properties": {"other_cities": "Mclean", "city": "Mc Lean", "state": "VA", "county": "Fairfax County"}}, {"geometry": {"type": "Point", "coordinates": [-77.18, 38.93]}, "type": "Feature", "id": "22107", "properties": {"other_cities": "", "city": "Mc Lean", "state": "VA", "county": "Fairfax County"}}, {"geometry": {"type": "Point", "coordinates": [-77.18, 38.93]}, "type": "Feature", "id": "22108", "properties": {"other_cities": "", "city": "Mc Lean", "state": "VA", "county": "Fairfax County"}}, {"geometry": {"type": "Point", "coordinates": [-77.19, 38.94]}, "type": "Feature", "id": "22109", "properties": {"other_cities": "", "city": "Mc Lean", "state": "VA", "county": "Fairfax County"}}, {"geometry": {"type": "Point", "coordinates": [-77.24, 38.87]}, "type": "Feature", "id": "22116", "properties": {"other_cities": "", "city": "Merrifield", "state": "VA", "county": "Fairfax County"}}, {"geometry": {"type": "Point", "coordinates": [-77.24, 38.87]}, "type": "Feature", "id": "22118", "properties": {"other_cities": "", "city": "Merrifield", "state": "VA", "county": "Fairfax County"}}, {"geometry": {"type": "Point", "coordinates": [-77.24, 38.87]}, "type": "Feature", "id": "22119", "properties": {"other_cities": "", "city": "Merrifield", "state": "VA", "county": "Fairfax County"}}, {"geometry": {"type": "Point", "coordinates": [-77.22, 38.87]}, "type": "Feature", "id": "22120", "properties": {"other_cities": "Continental Telephone", "city": "Merrifield", "state": "VA", "county": "Fairfax County"}}, {"geometry": {"type": "Point", "coordinates": [-77.1, 38.71]}, "type": "Feature", "id": "22121", "properties": {"other_cities": "", "city": "Mount Vernon", "state": "VA", "county": "Fairfax County"}}, {"geometry": {"type": "Point", "coordinates": [-77.2, 38.73]}, "type": "Feature", "id": "22122", "properties": {"other_cities": "", "city": "Newington", "state": "VA", "county": "Fairfax County"}}, {"geometry": {"type": "Point", "coordinates": [-77.3, 38.89]}, "type": "Feature", "id": "22124", "properties": {"other_cities": "Vienna", "city": "Oakton", "state": "VA", "county": "Fairfax County"}}, {"geometry": {"type": "Point", "coordinates": [-77.26, 38.68]}, "type": "Feature", "id": "22125", "properties": {"other_cities": "", "city": "Occoquan", "state": "VA", "county": "Prince William County"}}, {"geometry": {"type": "Point", "coordinates": [-77.29, 38.52]}, "type": "Feature", "id": "22134", "properties": {"other_cities": "", "city": "Quantico", "state": "VA", "county": "Prince William County"}}, {"geometry": {"type": "Point", "coordinates": [-77.29, 38.52]}, "type": "Feature", "id": "22135", "properties": {"other_cities": "Fbi Acad", "city": "Quantico", "state": "VA", "county": "Prince William County"}}, {"geometry": {"type": "Point", "coordinates": [-77.17, 38.78]}, "type": "Feature", "id": "22150", "properties": {"other_cities": "", "city": "Springfield", "state": "VA", "county": "Fairfax County"}}, {"geometry": {"type": "Point", "coordinates": [-77.17, 38.78]}, "type": "Feature", "id": "22151", "properties": {"other_cities": "N Springfield, North Springfield", "city": "Springfield", "state": "VA", "county": "Fairfax County"}}, {"geometry": {"type": "Point", "coordinates": [-77.17, 38.78]}, "type": "Feature", "id": "22152", "properties": {"other_cities": "W Springfield, West Springfield", "city": "Springfield", "state": "VA", "county": "Fairfax County"}}, {"geometry": {"type": "Point", "coordinates": [-77.17, 38.78]}, "type": "Feature", "id": "22153", "properties": {"other_cities": "", "city": "Springfield", "state": "VA", "county": "Fairfax County"}}, {"geometry": {"type": "Point", "coordinates": [-77.17, 38.78]}, "type": "Feature", "id": "22156", "properties": {"other_cities": "", "city": "Springfield", "state": "VA", "county": "Fairfax County"}}, {"geometry": {"type": "Point", "coordinates": [-77.17, 38.78]}, "type": "Feature", "id": "22158", "properties": {"other_cities": "", "city": "Springfield", "state": "VA", "county": "Fairfax County"}}, {"geometry": {"type": "Point", "coordinates": [-77.17, 38.78]}, "type": "Feature", "id": "22159", "properties": {"other_cities": "", "city": "Springfield", "state": "VA", "county": "Fairfax County"}}, {"geometry": {"type": "Point", "coordinates": [-77.17, 38.78]}, "type": "Feature", "id": "22160", "properties": {"other_cities": "", "city": "Springfield", "state": "VA", "county": "Fairfax County"}}, {"geometry": {"type": "Point", "coordinates": [-77.17, 38.78]}, "type": "Feature", "id": "22161", "properties": {"other_cities": "", "city": "Springfield", "state": "VA", "county": "Fairfax County"}}, {"geometry": {"type": "Point", "coordinates": [-77.31, 38.54]}, "type": "Feature", "id": "22172", "properties": {"other_cities": "", "city": "Triangle", "state": "VA", "county": "Prince William County"}}, {"geometry": {"type": "Point", "coordinates": [-77.26, 38.9]}, "type": "Feature", "id": "22180", "properties": {"other_cities": "", "city": "Vienna", "state": "VA", "county": "Fairfax County"}}, {"geometry": {"type": "Point", "coordinates": [-77.26, 38.9]}, "type": "Feature", "id": "22181", "properties": {"other_cities": "", "city": "Vienna", "state": "VA", "county": "Fairfax County"}}, {"geometry": {"type": "Point", "coordinates": [-77.26, 38.9]}, "type": "Feature", "id": "22182", "properties": {"other_cities": "Tysons, Tysons Corner", "city": "Vienna", "state": "VA", "county": "Fairfax County"}}, {"geometry": {"type": "Point", "coordinates": [-77.26, 38.9]}, "type": "Feature", "id": "22183", "properties": {"other_cities": "", "city": "Vienna", "state": "VA", "county": "Fairfax County"}}, {"geometry": {"type": "Point", "coordinates": [-77.26, 38.9]}, "type": "Feature", "id": "22184", "properties": {"other_cities": "", "city": "Vienna", "state": "VA", "county": "Fairfax County"}}, {"geometry": {"type": "Point", "coordinates": [-77.26, 38.9]}, "type": "Feature", "id": "22185", "properties": {"other_cities": "Oakton", "city": "Vienna", "state": "VA", "county": "Fairfax County"}}, {"geometry": {"type": "Point", "coordinates": [-77.26, 38.63]}, "type": "Feature", "id": "22191", "properties": {"other_cities": "", "city": "Woodbridge", "state": "VA", "county": "Prince William County"}}, {"geometry": {"type": "Point", "coordinates": [-77.26, 38.63]}, "type": "Feature", "id": "22192", "properties": {"other_cities": "Lake Ridge, Prince William, Prince Wm", "city": "Woodbridge", "state": "VA", "county": "Prince William County"}}, {"geometry": {"type": "Point", "coordinates": [-77.26, 38.63]}, "type": "Feature", "id": "22193", "properties": {"other_cities": "Dale City", "city": "Woodbridge", "state": "VA", "county": "Prince William County"}}, {"geometry": {"type": "Point", "coordinates": [-77.26, 38.63]}, "type": "Feature", "id": "22194", "properties": {"other_cities": "", "city": "Woodbridge", "state": "VA", "county": "Prince William County"}}, {"geometry": {"type": "Point", "coordinates": [-77.26, 38.63]}, "type": "Feature", "id": "22195", "properties": {"other_cities": "", "city": "Woodbridge", "state": "VA", "county": "Prince William County"}}, {"geometry": {"type": "Point", "coordinates": [-77.24, 38.7]}, "type": "Feature", "id": "22199", "properties": {"other_cities": "", "city": "Lorton", "state": "VA", "county": "Fairfax County"}}, {"geometry": {"type": "Point", "coordinates": [-77.1, 38.87]}, "type": "Feature", "id": "22201", "properties": {"other_cities": "", "city": "Arlington", "state": "VA", "county": "Arlington County"}}, {"geometry": {"type": "Point", "coordinates": [-77.1, 38.87]}, "type": "Feature", "id": "22202", "properties": {"other_cities": "", "city": "Arlington", "state": "VA", "county": "Arlington County"}}, {"geometry": {"type": "Point", "coordinates": [-77.1, 38.87]}, "type": "Feature", "id": "22203", "properties": {"other_cities": "", "city": "Arlington", "state": "VA", "county": "Arlington County"}}, {"geometry": {"type": "Point", "coordinates": [-77.1, 38.87]}, "type": "Feature", "id": "22204", "properties": {"other_cities": "", "city": "Arlington", "state": "VA", "county": "Arlington County"}}, {"geometry": {"type": "Point", "coordinates": [-77.1, 38.87]}, "type": "Feature", "id": "22205", "properties": {"other_cities": "", "city": "Arlington", "state": "VA", "county": "Arlington County"}}, {"geometry": {"type": "Point", "coordinates": [-77.1, 38.87]}, "type": "Feature", "id": "22206", "properties": {"other_cities": "", "city": "Arlington", "state": "VA", "county": "Arlington County"}}, {"geometry": {"type": "Point", "coordinates": [-77.1, 38.87]}, "type": "Feature", "id": "22207", "properties": {"other_cities": "", "city": "Arlington", "state": "VA", "county": "Arlington County"}}, {"geometry": {"type": "Point", "coordinates": [-77.1, 38.87]}, "type": "Feature", "id": "22209", "properties": {"other_cities": "Rosslyn", "city": "Arlington", "state": "VA", "county": "Arlington County"}}, {"geometry": {"type": "Point", "coordinates": [-77.1, 38.87]}, "type": "Feature", "id": "22210", "properties": {"other_cities": "", "city": "Arlington", "state": "VA", "county": "Arlington County"}}, {"geometry": {"type": "Point", "coordinates": [-77.07, 38.87]}, "type": "Feature", "id": "22211", "properties": {"other_cities": "Ft Myer", "city": "Fort Myer", "state": "VA", "county": "Arlington County"}}, {"geometry": {"type": "Point", "coordinates": [-77.1, 38.87]}, "type": "Feature", "id": "22212", "properties": {"other_cities": "", "city": "Arlington", "state": "VA", "county": "Arlington County"}}, {"geometry": {"type": "Point", "coordinates": [-77.1, 38.87]}, "type": "Feature", "id": "22213", "properties": {"other_cities": "", "city": "Arlington", "state": "VA", "county": "Arlington County"}}, {"geometry": {"type": "Point", "coordinates": [-77.1, 38.87]}, "type": "Feature", "id": "22214", "properties": {"other_cities": "", "city": "Arlington", "state": "VA", "county": "Arlington County"}}, {"geometry": {"type": "Point", "coordinates": [-77.1, 38.87]}, "type": "Feature", "id": "22215", "properties": {"other_cities": "", "city": "Arlington", "state": "VA", "county": "Arlington County"}}, {"geometry": {"type": "Point", "coordinates": [-77.1, 38.87]}, "type": "Feature", "id": "22216", "properties": {"other_cities": "", "city": "Arlington", "state": "VA", "county": "Arlington County"}}, {"geometry": {"type": "Point", "coordinates": [-77.1, 38.87]}, "type": "Feature", "id": "22217", "properties": {"other_cities": "", "city": "Arlington", "state": "VA", "county": "Arlington County"}}, {"geometry": {"type": "Point", "coordinates": [-77.09, 38.88]}, "type": "Feature", "id": "22218", "properties": {"other_cities": "Visa Lottery", "city": "Arlington", "state": "VA", "county": "Arlington County"}}, {"geometry": {"type": "Point", "coordinates": [-77.1, 38.87]}, "type": "Feature", "id": "22219", "properties": {"other_cities": "", "city": "Arlington", "state": "VA", "county": "Arlington County"}}, {"geometry": {"type": "Point", "coordinates": [-77.1, 38.87]}, "type": "Feature", "id": "22222", "properties": {"other_cities": "", "city": "Arlington", "state": "VA", "county": "Arlington County"}}, {"geometry": {"type": "Point", "coordinates": [-77.09, 38.88]}, "type": "Feature", "id": "22223", "properties": {"other_cities": "", "city": "Arlington", "state": "VA", "county": "Arlington County"}}, {"geometry": {"type": "Point", "coordinates": [-77.1, 38.87]}, "type": "Feature", "id": "22225", "properties": {"other_cities": "", "city": "Arlington", "state": "VA", "county": "Arlington County"}}, {"geometry": {"type": "Point", "coordinates": [-77.1, 38.87]}, "type": "Feature", "id": "22226", "properties": {"other_cities": "", "city": "Arlington", "state": "VA", "county": "Arlington County"}}, {"geometry": {"type": "Point", "coordinates": [-77.1, 38.87]}, "type": "Feature", "id": "22227", "properties": {"other_cities": "", "city": "Arlington", "state": "VA", "county": "Arlington County"}}, {"geometry": {"type": "Point", "coordinates": [-77.07, 38.89]}, "type": "Feature", "id": "22229", "properties": {"other_cities": "Shared Firm Zip", "city": "Arlington", "state": "VA", "county": "Arlington County"}}, {"geometry": {"type": "Point", "coordinates": [-77.1, 38.87]}, "type": "Feature", "id": "22230", "properties": {"other_cities": "", "city": "Arlington", "state": "VA", "county": "Arlington County"}}, {"geometry": {"type": "Point", "coordinates": [-77.07, 38.89]}, "type": "Feature", "id": "22234", "properties": {"other_cities": "Gannett", "city": "Arlington", "state": "VA", "county": "Arlington County"}}, {"geometry": {"type": "Point", "coordinates": [-77.1, 38.87]}, "type": "Feature", "id": "22240", "properties": {"other_cities": "", "city": "Arlington", "state": "VA", "county": "Arlington County"}}, {"geometry": {"type": "Point", "coordinates": [-77.1, 38.87]}, "type": "Feature", "id": "22241", "properties": {"other_cities": "", "city": "Arlington", "state": "VA", "county": "Arlington County"}}, {"geometry": {"type": "Point", "coordinates": [-77.1, 38.87]}, "type": "Feature", "id": "22242", "properties": {"other_cities": "", "city": "Arlington", "state": "VA", "county": "Arlington County"}}, {"geometry": {"type": "Point", "coordinates": [-77.1, 38.87]}, "type": "Feature", "id": "22243", "properties": {"other_cities": "", "city": "Arlington", "state": "VA", "county": "Arlington County"}}, {"geometry": {"type": "Point", "coordinates": [-77.1, 38.87]}, "type": "Feature", "id": "22244", "properties": {"other_cities": "", "city": "Arlington", "state": "VA", "county": "Arlington County"}}, {"geometry": {"type": "Point", "coordinates": [-77.1, 38.87]}, "type": "Feature", "id": "22245", "properties": {"other_cities": "", "city": "Arlington", "state": "VA", "county": "Arlington County"}}, {"geometry": {"type": "Point", "coordinates": [-77.1, 38.87]}, "type": "Feature", "id": "22246", "properties": {"other_cities": "", "city": "Arlington", "state": "VA", "county": "Arlington County"}}, {"geometry": {"type": "Point", "coordinates": [-77.08, 38.82]}, "type": "Feature", "id": "22301", "properties": {"other_cities": "Potomac", "city": "Alexandria", "state": "VA", "county": "Alexandria City"}}, {"geometry": {"type": "Point", "coordinates": [-77.08, 38.82]}, "type": "Feature", "id": "22302", "properties": {"other_cities": "", "city": "Alexandria", "state": "VA", "county": "Alexandria City"}}, {"geometry": {"type": "Point", "coordinates": [-77.08, 38.82]}, "type": "Feature", "id": "22303", "properties": {"other_cities": "Jefferson Manor, Jefferson Mnr", "city": "Alexandria", "state": "VA", "county": "Fairfax County"}}, {"geometry": {"type": "Point", "coordinates": [-77.08, 38.82]}, "type": "Feature", "id": "22304", "properties": {"other_cities": "", "city": "Alexandria", "state": "VA", "county": "Alexandria City"}}, {"geometry": {"type": "Point", "coordinates": [-77.08, 38.82]}, "type": "Feature", "id": "22305", "properties": {"other_cities": "", "city": "Alexandria", "state": "VA", "county": "Alexandria City"}}, {"geometry": {"type": "Point", "coordinates": [-77.08, 38.82]}, "type": "Feature", "id": "22306", "properties": {"other_cities": "Community", "city": "Alexandria", "state": "VA", "county": "Fairfax County"}}, {"geometry": {"type": "Point", "coordinates": [-77.08, 38.82]}, "type": "Feature", "id": "22307", "properties": {"other_cities": "Belleview", "city": "Alexandria", "state": "VA", "county": "Fairfax County"}}, {"geometry": {"type": "Point", "coordinates": [-77.08, 38.82]}, "type": "Feature", "id": "22308", "properties": {"other_cities": "", "city": "Alexandria", "state": "VA", "county": "Fairfax County"}}, {"geometry": {"type": "Point", "coordinates": [-77.08, 38.82]}, "type": "Feature", "id": "22309", "properties": {"other_cities": "Engleside", "city": "Alexandria", "state": "VA", "county": "Fairfax County"}}, {"geometry": {"type": "Point", "coordinates": [-77.08, 38.82]}, "type": "Feature", "id": "22310", "properties": {"other_cities": "Franconia", "city": "Alexandria", "state": "VA", "county": "Fairfax County"}}, {"geometry": {"type": "Point", "coordinates": [-77.08, 38.82]}, "type": "Feature", "id": "22311", "properties": {"other_cities": "", "city": "Alexandria", "state": "VA", "county": "Alexandria City"}}, {"geometry": {"type": "Point", "coordinates": [-77.08, 38.82]}, "type": "Feature", "id": "22312", "properties": {"other_cities": "", "city": "Alexandria", "state": "VA", "county": "Fairfax County"}}, {"geometry": {"type": "Point", "coordinates": [-77.08, 38.82]}, "type": "Feature", "id": "22313", "properties": {"other_cities": "", "city": "Alexandria", "state": "VA", "county": "Alexandria City"}}, {"geometry": {"type": "Point", "coordinates": [-77.08, 38.82]}, "type": "Feature", "id": "22314", "properties": {"other_cities": "", "city": "Alexandria", "state": "VA", "county": "Alexandria City"}}, {"geometry": {"type": "Point", "coordinates": [-77.08, 38.82]}, "type": "Feature", "id": "22315", "properties": {"other_cities": "Kingstowne", "city": "Alexandria", "state": "VA", "county": "Fairfax County"}}, {"geometry": {"type": "Point", "coordinates": [-77.08, 38.82]}, "type": "Feature", "id": "22320", "properties": {"other_cities": "", "city": "Alexandria", "state": "VA", "county": "Alexandria City"}}, {"geometry": {"type": "Point", "coordinates": [-77.05, 38.8]}, "type": "Feature", "id": "22321", "properties": {"other_cities": "Firm Zip", "city": "Alexandria", "state": "VA", "county": "Alexandria City"}}, {"geometry": {"type": "Point", "coordinates": [-77.08, 38.82]}, "type": "Feature", "id": "22331", "properties": {"other_cities": "", "city": "Alexandria", "state": "VA", "county": "Alexandria City"}}, {"geometry": {"type": "Point", "coordinates": [-77.08, 38.82]}, "type": "Feature", "id": "22332", "properties": {"other_cities": "", "city": "Alexandria", "state": "VA", "county": "Alexandria City"}}, {"geometry": {"type": "Point", "coordinates": [-77.08, 38.82]}, "type": "Feature", "id": "22333", "properties": {"other_cities": "", "city": "Alexandria", "state": "VA", "county": "Alexandria City"}}, {"geometry": {"type": "Point", "coordinates": [-77.08, 38.82]}, "type": "Feature", "id": "22334", "properties": {"other_cities": "", "city": "Alexandria", "state": "VA", "county": "Alexandria City"}}, {"geometry": {"type": "Point", "coordinates": [-77.04, 38.8]}, "type": "Feature", "id": "22336", "properties": {"other_cities": "", "city": "Alexandria", "state": "VA", "county": "Alexandria City"}}, {"geometry": {"type": "Point", "coordinates": [-2.12, 48.31]}, "type": "Feature", "id": "22350", "properties": {"other_cities": "", "city": "Alexandria", "state": "VA", "county": ""}}, {"geometry": {"type": "Point", "coordinates": [-77.48, 38.29]}, "type": "Feature", "id": "22401", "properties": {"other_cities": "Fredericksbrg", "city": "Fredericksburg", "state": "VA", "county": "Fredericksburg City"}}, {"geometry": {"type": "Point", "coordinates": [-77.48, 38.29]}, "type": "Feature", "id": "22402", "properties": {"other_cities": "Fredericksbrg", "city": "Fredericksburg", "state": "VA", "county": "Fredericksburg City"}}, {"geometry": {"type": "Point", "coordinates": [-77.48, 38.29]}, "type": "Feature", "id": "22403", "properties": {"other_cities": "Falmouth, Fredericksbrg", "city": "Fredericksburg", "state": "VA", "county": "Fredericksburg City"}}, {"geometry": {"type": "Point", "coordinates": [-77.48, 38.29]}, "type": "Feature", "id": "22404", "properties": {"other_cities": "Fredericksbrg", "city": "Fredericksburg", "state": "VA", "county": "Fredericksburg City"}}, {"geometry": {"type": "Point", "coordinates": [-77.48, 38.29]}, "type": "Feature", "id": "22405", "properties": {"other_cities": "Falmouth, Fredericksbrg", "city": "Fredericksburg", "state": "VA", "county": "Stafford County"}}, {"geometry": {"type": "Point", "coordinates": [-77.48, 38.29]}, "type": "Feature", "id": "22406", "properties": {"other_cities": "Falmouth, Fredericksbrg", "city": "Fredericksburg", "state": "VA", "county": "Stafford County"}}, {"geometry": {"type": "Point", "coordinates": [-77.48, 38.29]}, "type": "Feature", "id": "22407", "properties": {"other_cities": "Fredericksbrg", "city": "Fredericksburg", "state": "VA", "county": "Spotsylvania County"}}, {"geometry": {"type": "Point", "coordinates": [-77.48, 38.29]}, "type": "Feature", "id": "22408", "properties": {"other_cities": "Fredericksbrg", "city": "Fredericksburg", "state": "VA", "county": "Spotsylvania County"}}, {"geometry": {"type": "Point", "coordinates": [-77.48, 38.29]}, "type": "Feature", "id": "22412", "properties": {"other_cities": "Falmouth, Fredericksbrg", "city": "Fredericksburg", "state": "VA", "county": "Fredericksburg City"}}, {"geometry": {"type": "Point", "coordinates": [-77.35, 38.04]}, "type": "Feature", "id": "22427", "properties": {"other_cities": "Fort A P Hill", "city": "Bowling Green", "state": "VA", "county": "Caroline County"}}, {"geometry": {"type": "Point", "coordinates": [-77.35, 38.04]}, "type": "Feature", "id": "22428", "properties": {"other_cities": "", "city": "Bowling Green", "state": "VA", "county": "Caroline County"}}, {"geometry": {"type": "Point", "coordinates": [-77.34, 38.37]}, "type": "Feature", "id": "22430", "properties": {"other_cities": "", "city": "Brooke", "state": "VA", "county": "Stafford County"}}, {"geometry": {"type": "Point", "coordinates": [-76.34, 37.88]}, "type": "Feature", "id": "22432", "properties": {"other_cities": "", "city": "Burgess", "state": "VA", "county": "Northumberland County"}}, {"geometry": {"type": "Point", "coordinates": [-77.86, 38.34]}, "type": "Feature", "id": "22433", "properties": {"other_cities": "", "city": "Burr Hill", "state": "VA", "county": "Orange County"}}, {"geometry": {"type": "Point", "coordinates": [-76.55, 37.96]}, "type": "Feature", "id": "22435", "properties": {"other_cities": "", "city": "Callao", "state": "VA", "county": "Northumberland County"}}, {"geometry": {"type": "Point", "coordinates": [-76.96, 37.98]}, "type": "Feature", "id": "22436", "properties": {"other_cities": "Supply", "city": "Caret", "state": "VA", "county": "Essex County"}}, {"geometry": {"type": "Point", "coordinates": [-76.77, 37.8]}, "type": "Feature", "id": "22437", "properties": {"other_cities": "", "city": "Center Cross", "state": "VA", "county": "Essex County"}}, {"geometry": {"type": "Point", "coordinates": [-76.99, 38.01]}, "type": "Feature", "id": "22438", "properties": {"other_cities": "Chance", "city": "Champlain", "state": "VA", "county": "Essex County"}}, {"geometry": {"type": "Point", "coordinates": [-76.63, 38.14]}, "type": "Feature", "id": "22442", "properties": {"other_cities": "", "city": "Coles Point", "state": "VA", "county": "Westmoreland County"}}, {"geometry": {"type": "Point", "coordinates": [-76.97, 38.25]}, "type": "Feature", "id": "22443", "properties": {"other_cities": "Colonial Bch, Oak Grove, Washgtns Brhp, Washingtons Birthplace", "city": "Colonial Beach", "state": "VA", "county": "Westmoreland County"}}, {"geometry": {"type": "Point", "coordinates": [-77.38, 38.19]}, "type": "Feature", "id": "22446", "properties": {"other_cities": "", "city": "Corbin", "state": "VA", "county": "Caroline County"}}, {"geometry": {"type": "Point", "coordinates": [-77.05, 38.33]}, "type": "Feature", "id": "22448", "properties": {"other_cities": "", "city": "Dahlgren", "state": "VA", "county": "King George County"}}, {"geometry": {"type": "Point", "coordinates": [-77.21, 38.23]}, "type": "Feature", "id": "22451", "properties": {"other_cities": "", "city": "Dogue", "state": "VA", "county": "King George County"}}, {"geometry": {"type": "Point", "coordinates": [-76.82, 37.85]}, "type": "Feature", "id": "22454", "properties": {"other_cities": "Howertons", "city": "Dunnsville", "state": "VA", "county": "Essex County"}}, {"geometry": {"type": "Point", "coordinates": [-76.36, 37.9]}, "type": "Feature", "id": "22456", "properties": {"other_cities": "", "city": "Edwardsville", "state": "VA", "county": "Northumberland County"}}, {"geometry": {"type": "Point", "coordinates": [-76.62, 37.88]}, "type": "Feature", "id": "22460", "properties": {"other_cities": "", "city": "Farnham", "state": "VA", "county": "Richmond County"}}, {"geometry": {"type": "Point", "coordinates": [-77.42, 38.48]}, "type": "Feature", "id": "22463", "properties": {"other_cities": "", "city": "Garrisonville", "state": "VA", "county": "Stafford County"}}, {"geometry": {"type": "Point", "coordinates": [-76.65, 38.07]}, "type": "Feature", "id": "22469", "properties": {"other_cities": "", "city": "Hague", "state": "VA", "county": "Westmoreland County"}}, {"geometry": {"type": "Point", "coordinates": [-77.61, 38.39]}, "type": "Feature", "id": "22471", "properties": {"other_cities": "", "city": "Hartwood", "state": "VA", "county": "Stafford County"}}, {"geometry": {"type": "Point", "coordinates": [-76.66, 37.95]}, "type": "Feature", "id": "22472", "properties": {"other_cities": "", "city": "Haynesville", "state": "VA", "county": "Richmond County"}}, {"geometry": {"type": "Point", "coordinates": [-76.47, 37.91]}, "type": "Feature", "id": "22473", "properties": {"other_cities": "", "city": "Heathsville", "state": "VA", "county": "Northumberland County"}}, {"geometry": {"type": "Point", "coordinates": [-77.06, 38.04]}, "type": "Feature", "id": "22476", "properties": {"other_cities": "", "city": "Hustle", "state": "VA", "county": "Essex County"}}, {"geometry": {"type": "Point", "coordinates": [-76.42, 37.66]}, "type": "Feature", "id": "22480", "properties": {"other_cities": "", "city": "Irvington", "state": "VA", "county": "Lancaster County"}}, {"geometry": {"type": "Point", "coordinates": [-77.13, 38.21]}, "type": "Feature", "id": "22481", "properties": {"other_cities": "", "city": "Jersey", "state": "VA", "county": "King George County"}}, {"geometry": {"type": "Point", "coordinates": [-76.38, 37.71]}, "type": "Feature", "id": "22482", "properties": {"other_cities": "", "city": "Kilmarnock", "state": "VA", "county": "Northumberland County"}}, {"geometry": {"type": "Point", "coordinates": [-77.18, 38.26]}, "type": "Feature", "id": "22485", "properties": {"other_cities": "Shiloh", "city": "King George", "state": "VA", "county": "King George County"}}, {"geometry": {"type": "Point", "coordinates": [-76.57, 38.02]}, "type": "Feature", "id": "22488", "properties": {"other_cities": "", "city": "Kinsale", "state": "VA", "county": "Westmoreland County"}}, {"geometry": {"type": "Point", "coordinates": [-77.51, 38.01]}, "type": "Feature", "id": "22501", "properties": {"other_cities": "", "city": "Ladysmith", "state": "VA", "county": "Caroline County"}}, {"geometry": {"type": "Point", "coordinates": [-76.46, 37.76]}, "type": "Feature", "id": "22503", "properties": {"other_cities": "Alfonso, Regina", "city": "Lancaster", "state": "VA", "county": "Lancaster County"}}, {"geometry": {"type": "Point", "coordinates": [-76.73, 37.77]}, "type": "Feature", "id": "22504", "properties": {"other_cities": "", "city": "Laneview", "state": "VA", "county": "Essex County"}}, {"geometry": {"type": "Point", "coordinates": [-76.51, 37.77]}, "type": "Feature", "id": "22507", "properties": {"other_cities": "", "city": "Lively", "state": "VA", "county": "Lancaster County"}}, {"geometry": {"type": "Point", "coordinates": [-77.79, 38.33]}, "type": "Feature", "id": "22508", "properties": {"other_cities": "Lake Of The Woods, Lake Of Woods, Mine Run", "city": "Locust Grove", "state": "VA", "county": "Orange County"}}, {"geometry": {"type": "Point", "coordinates": [-77.05, 38.07]}, "type": "Feature", "id": "22509", "properties": {"other_cities": "", "city": "Loretto", "state": "VA", "county": "Essex County"}}, {"geometry": {"type": "Point", "coordinates": [-76.51, 37.96]}, "type": "Feature", "id": "22511", "properties": {"other_cities": "Lewisetta", "city": "Lottsburg", "state": "VA", "county": "Northumberland County"}}, {"geometry": {"type": "Point", "coordinates": [-76.5, 37.71]}, "type": "Feature", "id": "22513", "properties": {"other_cities": "", "city": "Merry Point", "state": "VA", "county": "Lancaster County"}}, {"geometry": {"type": "Point", "coordinates": [-77.36, 38.02]}, "type": "Feature", "id": "22514", "properties": {"other_cities": "", "city": "Milford", "state": "VA", "county": "Caroline County"}}, {"geometry": {"type": "Point", "coordinates": [-76.53, 37.72]}, "type": "Feature", "id": "22517", "properties": {"other_cities": "", "city": "Mollusk", "state": "VA", "county": "Lancaster County"}}, {"geometry": {"type": "Point", "coordinates": [-76.82, 38.09]}, "type": "Feature", "id": "22520", "properties": {"other_cities": "", "city": "Montross", "state": "VA", "county": "Westmoreland County"}}, {"geometry": {"type": "Point", "coordinates": [-76.61, 37.8]}, "type": "Feature", "id": "22523", "properties": {"other_cities": "", "city": "Morattico", "state": "VA", "county": "Lancaster County"}}, {"geometry": {"type": "Point", "coordinates": [-76.71, 38.09]}, "type": "Feature", "id": "22524", "properties": {"other_cities": "", "city": "Mount Holly", "state": "VA", "county": "Westmoreland County"}}, {"geometry": {"type": "Point", "coordinates": [-77.05, 38.27]}, "type": "Feature", "id": "22526", "properties": {"other_cities": "", "city": "Ninde", "state": "VA", "county": "King George County"}}, {"geometry": {"type": "Point", "coordinates": [-76.55, 37.79]}, "type": "Feature", "id": "22528", "properties": {"other_cities": "", "city": "Nuttsville", "state": "VA", "county": "Lancaster County"}}, {"geometry": {"type": "Point", "coordinates": [-76.66, 38.0]}, "type": "Feature", "id": "22529", "properties": {"other_cities": "", "city": "Oldhams", "state": "VA", "county": "Westmoreland County"}}, {"geometry": {"type": "Point", "coordinates": [-76.28, 37.9]}, "type": "Feature", "id": "22530", "properties": {"other_cities": "", "city": "Ophelia", "state": "VA", "county": "Northumberland County"}}, {"geometry": {"type": "Point", "coordinates": [-77.63, 38.03]}, "type": "Feature", "id": "22534", "properties": {"other_cities": "", "city": "Partlow", "state": "VA", "county": "Spotsylvania County"}}, {"geometry": {"type": "Point", "coordinates": [-77.19, 38.16]}, "type": "Feature", "id": "22535", "properties": {"other_cities": "", "city": "Port Royal", "state": "VA", "county": "Caroline County"}}, {"geometry": {"type": "Point", "coordinates": [-77.3, 38.15]}, "type": "Feature", "id": "22538", "properties": {"other_cities": "Raphanck Acad", "city": "Rappahannock Academy", "state": "VA", "county": "Caroline County"}}, {"geometry": {"type": "Point", "coordinates": [-76.29, 37.86]}, "type": "Feature", "id": "22539", "properties": {"other_cities": "", "city": "Reedville", "state": "VA", "county": "Northumberland County"}}, {"geometry": {"type": "Point", "coordinates": [-77.9, 38.28]}, "type": "Feature", "id": "22542", "properties": {"other_cities": "", "city": "Rhoadesville", "state": "VA", "county": "Orange County"}}, {"geometry": {"type": "Point", "coordinates": [-77.06, 38.18]}, "type": "Feature", "id": "22544", "properties": {"other_cities": "", "city": "Rollins Fork", "state": "VA", "county": "King George County"}}, {"geometry": {"type": "Point", "coordinates": [-77.51, 38.5]}, "type": "Feature", "id": "22545", "properties": {"other_cities": "", "city": "Ruby", "state": "VA", "county": "Stafford County"}}, {"geometry": {"type": "Point", "coordinates": [-77.54, 38.0]}, "type": "Feature", "id": "22546", "properties": {"other_cities": "", "city": "Ruther Glen", "state": "VA", "county": "Caroline County"}}, {"geometry": {"type": "Point", "coordinates": [-77.32, 38.27]}, "type": "Feature", "id": "22547", "properties": {"other_cities": "", "city": "Sealston", "state": "VA", "county": "King George County"}}, {"geometry": {"type": "Point", "coordinates": [-76.7, 37.84]}, "type": "Feature", "id": "22548", "properties": {"other_cities": "", "city": "Sharps", "state": "VA", "county": "Richmond County"}}, {"geometry": {"type": "Point", "coordinates": [-77.7, 38.17]}, "type": "Feature", "id": "22551", "properties": {"other_cities": "", "city": "Spotsylvania", "state": "VA", "county": "Spotsylvania County"}}, {"geometry": {"type": "Point", "coordinates": [-77.22, 37.99]}, "type": "Feature", "id": "22552", "properties": {"other_cities": "", "city": "Sparta", "state": "VA", "county": "Caroline County"}}, {"geometry": {"type": "Point", "coordinates": [-77.68, 38.19]}, "type": "Feature", "id": "22553", "properties": {"other_cities": "Snell", "city": "Spotsylvania", "state": "VA", "county": "Spotsylvania County"}}, {"geometry": {"type": "Point", "coordinates": [-77.4, 38.42]}, "type": "Feature", "id": "22554", "properties": {"other_cities": "", "city": "Stafford", "state": "VA", "county": "Stafford County"}}, {"geometry": {"type": "Point", "coordinates": [-77.4, 38.42]}, "type": "Feature", "id": "22555", "properties": {"other_cities": "", "city": "Stafford", "state": "VA", "county": "Stafford County"}}, {"geometry": {"type": "Point", "coordinates": [-77.4, 38.42]}, "type": "Feature", "id": "22556", "properties": {"other_cities": "", "city": "Stafford", "state": "VA", "county": "Stafford County"}}, {"geometry": {"type": "Point", "coordinates": [-76.81, 38.12]}, "type": "Feature", "id": "22558", "properties": {"other_cities": "", "city": "Stratford", "state": "VA", "county": "Westmoreland County"}}, {"geometry": {"type": "Point", "coordinates": [-76.86, 37.92]}, "type": "Feature", "id": "22560", "properties": {"other_cities": "", "city": "Tappahannock", "state": "VA", "county": "Essex County"}}, {"geometry": {"type": "Point", "coordinates": [-77.52, 38.13]}, "type": "Feature", "id": "22565", "properties": {"other_cities": "", "city": "Thornburg", "state": "VA", "county": "Spotsylvania County"}}, {"geometry": {"type": "Point", "coordinates": [-77.96, 38.25]}, "type": "Feature", "id": "22567", "properties": {"other_cities": "", "city": "Unionville", "state": "VA", "county": "Orange County"}}, {"geometry": {"type": "Point", "coordinates": [-76.6, 37.94]}, "type": "Feature", "id": "22570", "properties": {"other_cities": "", "city": "Village", "state": "VA", "county": "Richmond County"}}, {"geometry": {"type": "Point", "coordinates": [-76.76, 37.96]}, "type": "Feature", "id": "22572", "properties": {"other_cities": "Foneswood", "city": "Warsaw", "state": "VA", "county": "Richmond County"}}, {"geometry": {"type": "Point", "coordinates": [-76.44, 37.65]}, "type": "Feature", "id": "22576", "properties": {"other_cities": "", "city": "Weems", "state": "VA", "county": "Lancaster County"}}, {"geometry": {"type": "Point", "coordinates": [-76.55, 38.06]}, "type": "Feature", "id": "22577", "properties": {"other_cities": "", "city": "Sandy Point", "state": "VA", "county": "Westmoreland County"}}, {"geometry": {"type": "Point", "coordinates": [-76.39, 37.64]}, "type": "Feature", "id": "22578", "properties": {"other_cities": "", "city": "White Stone", "state": "VA", "county": "Lancaster County"}}, {"geometry": {"type": "Point", "coordinates": [-76.37, 37.81]}, "type": "Feature", "id": "22579", "properties": {"other_cities": "Wicomico Chur", "city": "Wicomico Church", "state": "VA", "county": "Northumberland County"}}, {"geometry": {"type": "Point", "coordinates": [-77.4, 38.11]}, "type": "Feature", "id": "22580", "properties": {"other_cities": "", "city": "Woodford", "state": "VA", "county": "Caroline County"}}, {"geometry": {"type": "Point", "coordinates": [-76.8, 38.11]}, "type": "Feature", "id": "22581", "properties": {"other_cities": "", "city": "Zacata", "state": "VA", "county": "Westmoreland County"}}, {"geometry": {"type": "Point", "coordinates": [-78.17, 39.17]}, "type": "Feature", "id": "22601", "properties": {"other_cities": "Hayfield", "city": "Winchester", "state": "VA", "county": "Winchester City"}}, {"geometry": {"type": "Point", "coordinates": [-78.17, 39.17]}, "type": "Feature", "id": "22602", "properties": {"other_cities": "", "city": "Winchester", "state": "VA", "county": "Frederick County"}}, {"geometry": {"type": "Point", "coordinates": [-78.17, 39.17]}, "type": "Feature", "id": "22603", "properties": {"other_cities": "", "city": "Winchester", "state": "VA", "county": "Frederick County"}}, {"geometry": {"type": "Point", "coordinates": [-78.17, 39.17]}, "type": "Feature", "id": "22604", "properties": {"other_cities": "", "city": "Winchester", "state": "VA", "county": "Winchester City"}}, {"geometry": {"type": "Point", "coordinates": [-78.31, 38.83]}, "type": "Feature", "id": "22610", "properties": {"other_cities": "Browntown", "city": "Bentonville", "state": "VA", "county": "Warren County"}}, {"geometry": {"type": "Point", "coordinates": [-77.98, 39.14]}, "type": "Feature", "id": "22611", "properties": {"other_cities": "Mount Weather", "city": "Berryville", "state": "VA", "county": "Clarke County"}}, {"geometry": {"type": "Point", "coordinates": [-78.05, 39.09]}, "type": "Feature", "id": "22620", "properties": {"other_cities": "", "city": "Boyce", "state": "VA", "county": "Clarke County"}}, {"geometry": {"type": "Point", "coordinates": [-78.05, 39.25]}, "type": "Feature", "id": "22622", "properties": {"other_cities": "", "city": "Brucetown", "state": "VA", "county": "Frederick County"}}, {"geometry": {"type": "Point", "coordinates": [-78.13, 38.85]}, "type": "Feature", "id": "22623", "properties": {"other_cities": "", "city": "Chester Gap", "state": "VA", "county": "Rappahannock County"}}, {"geometry": {"type": "Point", "coordinates": [-78.1, 39.26]}, "type": "Feature", "id": "22624", "properties": {"other_cities": "", "city": "Clear Brook", "state": "VA", "county": "Frederick County"}}, {"geometry": {"type": "Point", "coordinates": [-78.29, 39.32]}, "type": "Feature", "id": "22625", "properties": {"other_cities": "Cross Jnct, Whitacre", "city": "Cross Junction", "state": "VA", "county": "Frederick County"}}, {"geometry": {"type": "Point", "coordinates": [-78.4, 38.97]}, "type": "Feature", "id": "22626", "properties": {"other_cities": "", "city": "Fishers Hill", "state": "VA", "county": "Shenandoah County"}}, {"geometry": {"type": "Point", "coordinates": [-78.1, 38.76]}, "type": "Feature", "id": "22627", "properties": {"other_cities": "Huntly", "city": "Flint Hill", "state": "VA", "county": "Rappahannock County"}}, {"geometry": {"type": "Point", "coordinates": [-78.18, 38.92]}, "type": "Feature", "id": "22630", "properties": {"other_cities": "Lake Frederick, Lk Frederick, Riverton", "city": "Front Royal", "state": "VA", "county": "Warren County"}}, {"geometry": {"type": "Point", "coordinates": [-78.33, 39.26]}, "type": "Feature", "id": "22637", "properties": {"other_cities": "", "city": "Gore", "state": "VA", "county": "Frederick County"}}, {"geometry": {"type": "Point", "coordinates": [-77.99, 38.83]}, "type": "Feature", "id": "22639", "properties": {"other_cities": "", "city": "Hume", "state": "VA", "county": "Fauquier County"}}, {"geometry": {"type": "Point", "coordinates": [-78.14, 38.8]}, "type": "Feature", "id": "22640", "properties": {"other_cities": "", "city": "Huntly", "state": "VA", "county": "Rappahannock County"}}, {"geometry": {"type": "Point", "coordinates": [-78.35, 38.98]}, "type": "Feature", "id": "22641", "properties": {"other_cities": "Lebanon Ch, Lebanon Church", "city": "Strasburg", "state": "VA", "county": "Shenandoah County"}}, {"geometry": {"type": "Point", "coordinates": [-78.07, 38.9]}, "type": "Feature", "id": "22642", "properties": {"other_cities": "", "city": "Linden", "state": "VA", "county": "Warren County"}}, {"geometry": {"type": "Point", "coordinates": [-78.0, 38.9]}, "type": "Feature", "id": "22643", "properties": {"other_cities": "", "city": "Markham", "state": "VA", "county": "Fauquier County"}}, {"geometry": {"type": "Point", "coordinates": [-78.51, 38.98]}, "type": "Feature", "id": "22644", "properties": {"other_cities": "", "city": "Maurertown", "state": "VA", "county": "Shenandoah County"}}, {"geometry": {"type": "Point", "coordinates": [-78.27, 39.02]}, "type": "Feature", "id": "22645", "properties": {"other_cities": "", "city": "Middletown", "state": "VA", "county": "Frederick County"}}, {"geometry": {"type": "Point", "coordinates": [-78.03, 39.06]}, "type": "Feature", "id": "22646", "properties": {"other_cities": "", "city": "Millwood", "state": "VA", "county": "Clarke County"}}, {"geometry": {"type": "Point", "coordinates": [-78.27, 39.02]}, "type": "Feature", "id": "22649", "properties": {"other_cities": "Reliance", "city": "Middletown", "state": "VA", "county": "Frederick County"}}, {"geometry": {"type": "Point", "coordinates": [-78.38, 38.76]}, "type": "Feature", "id": "22650", "properties": {"other_cities": "", "city": "Rileyville", "state": "VA", "county": "Page County"}}, {"geometry": {"type": "Point", "coordinates": [-78.42, 38.84]}, "type": "Feature", "id": "22652", "properties": {"other_cities": "Saint Davids Church, Seven Fountains, Seven Fountns, St Davids Ch", "city": "Fort Valley", "state": "VA", "county": "Shenandoah County"}}, {"geometry": {"type": "Point", "coordinates": [-78.45, 39.08]}, "type": "Feature", "id": "22654", "properties": {"other_cities": "", "city": "Star Tannery", "state": "VA", "county": "Frederick County"}}, {"geometry": {"type": "Point", "coordinates": [-78.22, 39.09]}, "type": "Feature", "id": "22655", "properties": {"other_cities": "", "city": "Stephens City", "state": "VA", "county": "Frederick County"}}, {"geometry": {"type": "Point", "coordinates": [-78.09, 39.2]}, "type": "Feature", "id": "22656", "properties": {"other_cities": "", "city": "Stephenson", "state": "VA", "county": "Frederick County"}}, {"geometry": {"type": "Point", "coordinates": [-78.35, 38.98]}, "type": "Feature", "id": "22657", "properties": {"other_cities": "", "city": "Strasburg", "state": "VA", "county": "Shenandoah County"}}, {"geometry": {"type": "Point", "coordinates": [-78.43, 38.94]}, "type": "Feature", "id": "22660", "properties": {"other_cities": "", "city": "Toms Brook", "state": "VA", "county": "Shenandoah County"}}, {"geometry": {"type": "Point", "coordinates": [-78.1, 39.05]}, "type": "Feature", "id": "22663", "properties": {"other_cities": "", "city": "White Post", "state": "VA", "county": "Clarke County"}}, {"geometry": {"type": "Point", "coordinates": [-78.51, 38.87]}, "type": "Feature", "id": "22664", "properties": {"other_cities": "", "city": "Woodstock", "state": "VA", "county": "Shenandoah County"}}, {"geometry": {"type": "Point", "coordinates": [-78.0, 38.47]}, "type": "Feature", "id": "22701", "properties": {"other_cities": "Raccoon Ford, Winston", "city": "Culpeper", "state": "VA", "county": "Culpeper County"}}, {"geometry": {"type": "Point", "coordinates": [-78.24, 38.32]}, "type": "Feature", "id": "22709", "properties": {"other_cities": "", "city": "Aroda", "state": "VA", "county": "Madison County"}}, {"geometry": {"type": "Point", "coordinates": [-78.33, 38.4]}, "type": "Feature", "id": "22711", "properties": {"other_cities": "", "city": "Banco", "state": "VA", "county": "Madison County"}}, {"geometry": {"type": "Point", "coordinates": [-77.76, 38.57]}, "type": "Feature", "id": "22712", "properties": {"other_cities": "Morrisville", "city": "Bealeton", "state": "VA", "county": "Fauquier County"}}, {"geometry": {"type": "Point", "coordinates": [-78.14, 38.54]}, "type": "Feature", "id": "22713", "properties": {"other_cities": "", "city": "Boston", "state": "VA", "county": "Culpeper County"}}, {"geometry": {"type": "Point", "coordinates": [-77.89, 38.52]}, "type": "Feature", "id": "22714", "properties": {"other_cities": "Brandy Sta", "city": "Brandy Station", "state": "VA", "county": "Culpeper County"}}, {"geometry": {"type": "Point", "coordinates": [-78.16, 38.41]}, "type": "Feature", "id": "22715", "properties": {"other_cities": "", "city": "Brightwood", "state": "VA", "county": "Madison County"}}, {"geometry": {"type": "Point", "coordinates": [-78.1, 38.6]}, "type": "Feature", "id": "22716", "properties": {"other_cities": "", "city": "Castleton", "state": "VA", "county": "Rappahannock County"}}, {"geometry": {"type": "Point", "coordinates": [-77.85, 38.51]}, "type": "Feature", "id": "22718", "properties": {"other_cities": "", "city": "Elkwood", "state": "VA", "county": "Culpeper County"}}, {"geometry": {"type": "Point", "coordinates": [-78.26, 38.52]}, "type": "Feature", "id": "22719", "properties": {"other_cities": "Madison", "city": "Etlan", "state": "VA", "county": "Madison County"}}, {"geometry": {"type": "Point", "coordinates": [-77.65, 38.44]}, "type": "Feature", "id": "22720", "properties": {"other_cities": "", "city": "Goldvein", "state": "VA", "county": "Fauquier County"}}, {"geometry": {"type": "Point", "coordinates": [-78.28, 38.39]}, "type": "Feature", "id": "22721", "properties": {"other_cities": "", "city": "Graves Mill", "state": "VA", "county": "Madison County"}}, {"geometry": {"type": "Point", "coordinates": [-78.17, 38.46]}, "type": "Feature", "id": "22722", "properties": {"other_cities": "", "city": "Haywood", "state": "VA", "county": "Madison County"}}, {"geometry": {"type": "Point", "coordinates": [-78.38, 38.35]}, "type": "Feature", "id": "22723", "properties": {"other_cities": "", "city": "Hood", "state": "VA", "county": "Madison County"}}, {"geometry": {"type": "Point", "coordinates": [-77.91, 38.63]}, "type": "Feature", "id": "22724", "properties": {"other_cities": "", "city": "Jeffersonton", "state": "VA", "county": "Culpeper County"}}, {"geometry": {"type": "Point", "coordinates": [-78.15, 38.45]}, "type": "Feature", "id": "22725", "properties": {"other_cities": "", "city": "Leon", "state": "VA", "county": "Madison County"}}, {"geometry": {"type": "Point", "coordinates": [-77.82, 38.41]}, "type": "Feature", "id": "22726", "properties": {"other_cities": "", "city": "Lignum", "state": "VA", "county": "Culpeper County"}}, {"geometry": {"type": "Point", "coordinates": [-78.25, 38.37]}, "type": "Feature", "id": "22727", "properties": {"other_cities": "Banco, Etlan, Graves Mill", "city": "Madison", "state": "VA", "county": "Madison County"}}, {"geometry": {"type": "Point", "coordinates": [-77.72, 38.59]}, "type": "Feature", "id": "22728", "properties": {"other_cities": "", "city": "Midland", "state": "VA", "county": "Fauquier County"}}, {"geometry": {"type": "Point", "coordinates": [-78.0, 38.37]}, "type": "Feature", "id": "22729", "properties": {"other_cities": "", "city": "Mitchells", "state": "VA", "county": "Culpeper County"}}, {"geometry": {"type": "Point", "coordinates": [-78.16, 38.36]}, "type": "Feature", "id": "22730", "properties": {"other_cities": "", "city": "Oakpark", "state": "VA", "county": "Madison County"}}, {"geometry": {"type": "Point", "coordinates": [-78.27, 38.35]}, "type": "Feature", "id": "22731", "properties": {"other_cities": "", "city": "Pratts", "state": "VA", "county": "Madison County"}}, {"geometry": {"type": "Point", "coordinates": [-78.17, 38.31]}, "type": "Feature", "id": "22732", "properties": {"other_cities": "", "city": "Radiant", "state": "VA", "county": "Madison County"}}, {"geometry": {"type": "Point", "coordinates": [-78.06, 38.31]}, "type": "Feature", "id": "22733", "properties": {"other_cities": "", "city": "Rapidan", "state": "VA", "county": "Culpeper County"}}, {"geometry": {"type": "Point", "coordinates": [-77.8, 38.53]}, "type": "Feature", "id": "22734", "properties": {"other_cities": "", "city": "Remington", "state": "VA", "county": "Fauquier County"}}, {"geometry": {"type": "Point", "coordinates": [-78.13, 38.49]}, "type": "Feature", "id": "22735", "properties": {"other_cities": "", "city": "Reva", "state": "VA", "county": "Culpeper County"}}, {"geometry": {"type": "Point", "coordinates": [-77.72, 38.4]}, "type": "Feature", "id": "22736", "properties": {"other_cities": "", "city": "Richardsville", "state": "VA", "county": "Culpeper County"}}, {"geometry": {"type": "Point", "coordinates": [-77.97, 38.58]}, "type": "Feature", "id": "22737", "properties": {"other_cities": "", "city": "Rixeyville", "state": "VA", "county": "Culpeper County"}}, {"geometry": {"type": "Point", "coordinates": [-78.27, 38.29]}, "type": "Feature", "id": "22738", "properties": {"other_cities": "Uno", "city": "Rochelle", "state": "VA", "county": "Madison County"}}, {"geometry": {"type": "Point", "coordinates": [-77.6, 38.52]}, "type": "Feature", "id": "22739", "properties": {"other_cities": "", "city": "Somerville", "state": "VA", "county": "Fauquier County"}}, {"geometry": {"type": "Point", "coordinates": [-78.25, 38.67]}, "type": "Feature", "id": "22740", "properties": {"other_cities": "", "city": "Sperryville", "state": "VA", "county": "Rappahannock County"}}, {"geometry": {"type": "Point", "coordinates": [-77.9, 38.44]}, "type": "Feature", "id": "22741", "properties": {"other_cities": "", "city": "Stevensburg", "state": "VA", "county": "Culpeper County"}}, {"geometry": {"type": "Point", "coordinates": [-77.72, 38.46]}, "type": "Feature", "id": "22742", "properties": {"other_cities": "", "city": "Sumerduck", "state": "VA", "county": "Fauquier County"}}, {"geometry": {"type": "Point", "coordinates": [-78.32, 38.48]}, "type": "Feature", "id": "22743", "properties": {"other_cities": "", "city": "Syria", "state": "VA", "county": "Madison County"}}, {"geometry": {"type": "Point", "coordinates": [-78.03, 38.63]}, "type": "Feature", "id": "22746", "properties": {"other_cities": "", "city": "Viewtown", "state": "VA", "county": "Rappahannock County"}}, {"geometry": {"type": "Point", "coordinates": [-78.15, 38.71]}, "type": "Feature", "id": "22747", "properties": {"other_cities": "", "city": "Washington", "state": "VA", "county": "Rappahannock County"}}, {"geometry": {"type": "Point", "coordinates": [-78.34, 38.35]}, "type": "Feature", "id": "22748", "properties": {"other_cities": "", "city": "Wolftown", "state": "VA", "county": "Madison County"}}, {"geometry": {"type": "Point", "coordinates": [-78.17, 38.6]}, "type": "Feature", "id": "22749", "properties": {"other_cities": "", "city": "Woodville", "state": "VA", "county": "Rappahannock County"}}, {"geometry": {"type": "Point", "coordinates": [-78.87, 38.43]}, "type": "Feature", "id": "22801", "properties": {"other_cities": "", "city": "Harrisonburg", "state": "VA", "county": "Harrisonburg City"}}, {"geometry": {"type": "Point", "coordinates": [-78.87, 38.43]}, "type": "Feature", "id": "22802", "properties": {"other_cities": "", "city": "Harrisonburg", "state": "VA", "county": "Rockingham County"}}, {"geometry": {"type": "Point", "coordinates": [-78.94, 38.51]}, "type": "Feature", "id": "22803", "properties": {"other_cities": "", "city": "Harrisonburg", "state": "VA", "county": "Harrisonburg City"}}, {"geometry": {"type": "Point", "coordinates": [-78.87, 38.43]}, "type": "Feature", "id": "22807", "properties": {"other_cities": "", "city": "Harrisonburg", "state": "VA", "county": "Harrisonburg City"}}, {"geometry": {"type": "Point", "coordinates": [-78.78, 38.8]}, "type": "Feature", "id": "22810", "properties": {"other_cities": "", "city": "Basye", "state": "VA", "county": "Shenandoah County"}}, {"geometry": {"type": "Point", "coordinates": [-78.96, 38.79]}, "type": "Feature", "id": "22811", "properties": {"other_cities": "", "city": "Bergton", "state": "VA", "county": "Rockingham County"}}, {"geometry": {"type": "Point", "coordinates": [-78.96, 38.38]}, "type": "Feature", "id": "22812", "properties": {"other_cities": "", "city": "Bridgewater", "state": "VA", "county": "Rockingham County"}}, {"geometry": {"type": "Point", "coordinates": [-78.79, 38.6]}, "type": "Feature", "id": "22815", "properties": {"other_cities": "", "city": "Broadway", "state": "VA", "county": "Rockingham County"}}, {"geometry": {"type": "Point", "coordinates": [-79.0, 38.75]}, "type": "Feature", "id": "22820", "properties": {"other_cities": "", "city": "Criders", "state": "VA", "county": "Rockingham County"}}, {"geometry": {"type": "Point", "coordinates": [-79.08, 38.47]}, "type": "Feature", "id": "22821", "properties": {"other_cities": "Montezuma", "city": "Dayton", "state": "VA", "county": "Rockingham County"}}, {"geometry": {"type": "Point", "coordinates": [-78.56, 38.82]}, "type": "Feature", "id": "22824", "properties": {"other_cities": "", "city": "Edinburg", "state": "VA", "county": "Shenandoah County"}}, {"geometry": {"type": "Point", "coordinates": [-78.61, 38.41]}, "type": "Feature", "id": "22827", "properties": {"other_cities": "", "city": "Elkton", "state": "VA", "county": "Rockingham County"}}, {"geometry": {"type": "Point", "coordinates": [-78.98, 38.63]}, "type": "Feature", "id": "22830", "properties": {"other_cities": "", "city": "Fulks Run", "state": "VA", "county": "Rockingham County"}}, {"geometry": {"type": "Point", "coordinates": [-79.0, 38.48]}, "type": "Feature", "id": "22831", "properties": {"other_cities": "", "city": "Hinton", "state": "VA", "county": "Rockingham County"}}, {"geometry": {"type": "Point", "coordinates": [-78.76, 38.45]}, "type": "Feature", "id": "22832", "properties": {"other_cities": "", "city": "Keezletown", "state": "VA", "county": "Rockingham County"}}, {"geometry": {"type": "Point", "coordinates": [-78.73, 38.54]}, "type": "Feature", "id": "22833", "properties": {"other_cities": "", "city": "Lacey Spring", "state": "VA", "county": "Rockingham County"}}, {"geometry": {"type": "Point", "coordinates": [-78.83, 38.52]}, "type": "Feature", "id": "22834", "properties": {"other_cities": "", "city": "Linville", "state": "VA", "county": "Rockingham County"}}, {"geometry": {"type": "Point", "coordinates": [-78.45, 38.66]}, "type": "Feature", "id": "22835", "properties": {"other_cities": "", "city": "Luray", "state": "VA", "county": "Page County"}}, {"geometry": {"type": "Point", "coordinates": [-78.74, 38.36]}, "type": "Feature", "id": "22840", "properties": {"other_cities": "Massanutten, Mcgaheysville", "city": "Mc Gaheysville", "state": "VA", "county": "Rockingham County"}}, {"geometry": {"type": "Point", "coordinates": [-78.94, 38.35]}, "type": "Feature", "id": "22841", "properties": {"other_cities": "Mt Crawford", "city": "Mount Crawford", "state": "VA", "county": "Rockingham County"}}, {"geometry": {"type": "Point", "coordinates": [-78.63, 38.74]}, "type": "Feature", "id": "22842", "properties": {"other_cities": "", "city": "Mount Jackson", "state": "VA", "county": "Shenandoah County"}}, {"geometry": {"type": "Point", "coordinates": [-79.16, 38.36]}, "type": "Feature", "id": "22843", "properties": {"other_cities": "", "city": "Mount Solon", "state": "VA", "county": "Augusta County"}}, {"geometry": {"type": "Point", "coordinates": [-78.67, 38.64]}, "type": "Feature", "id": "22844", "properties": {"other_cities": "", "city": "New Market", "state": "VA", "county": "Shenandoah County"}}, {"geometry": {"type": "Point", "coordinates": [-78.82, 38.79]}, "type": "Feature", "id": "22845", "properties": {"other_cities": "Orkney Sprngs", "city": "Orkney Springs", "state": "VA", "county": "Shenandoah County"}}, {"geometry": {"type": "Point", "coordinates": [-78.79, 38.36]}, "type": "Feature", "id": "22846", "properties": {"other_cities": "", "city": "Penn Laird", "state": "VA", "county": "Rockingham County"}}, {"geometry": {"type": "Point", "coordinates": [-78.71, 38.72]}, "type": "Feature", "id": "22847", "properties": {"other_cities": "Shenandoah Caverns, Shendoah Cvrn", "city": "Quicksburg", "state": "VA", "county": "Shenandoah County"}}, {"geometry": {"type": "Point", "coordinates": [-78.87, 38.36]}, "type": "Feature", "id": "22848", "properties": {"other_cities": "Pleasant Vly", "city": "Pleasant Valley", "state": "VA", "county": "Rockingham County"}}, {"geometry": {"type": "Point", "coordinates": [-78.62, 38.48]}, "type": "Feature", "id": "22849", "properties": {"other_cities": "", "city": "Shenandoah", "state": "VA", "county": "Page County"}}, {"geometry": {"type": "Point", "coordinates": [-78.9, 38.56]}, "type": "Feature", "id": "22850", "properties": {"other_cities": "", "city": "Singers Glen", "state": "VA", "county": "Rockingham County"}}, {"geometry": {"type": "Point", "coordinates": [-78.5, 38.57]}, "type": "Feature", "id": "22851", "properties": {"other_cities": "", "city": "Stanley", "state": "VA", "county": "Page County"}}, {"geometry": {"type": "Point", "coordinates": [-78.77, 38.63]}, "type": "Feature", "id": "22853", "properties": {"other_cities": "", "city": "Timberville", "state": "VA", "county": "Rockingham County"}}, {"geometry": {"type": "Point", "coordinates": [-78.48, 38.03]}, "type": "Feature", "id": "22901", "properties": {"other_cities": "Charlottesvle", "city": "Charlottesville", "state": "VA", "county": "Albemarle County"}}, {"geometry": {"type": "Point", "coordinates": [-78.48, 38.03]}, "type": "Feature", "id": "22902", "properties": {"other_cities": "Charlottesvle, Monticello", "city": "Charlottesville", "state": "VA", "county": "Albemarle County"}}, {"geometry": {"type": "Point", "coordinates": [-78.48, 38.03]}, "type": "Feature", "id": "22903", "properties": {"other_cities": "Charlottesvle, University", "city": "Charlottesville", "state": "VA", "county": "Albemarle County"}}, {"geometry": {"type": "Point", "coordinates": [-78.48, 38.03]}, "type": "Feature", "id": "22904", "properties": {"other_cities": "Charlottesvle, Newcomb Hall", "city": "Charlottesville", "state": "VA", "county": "Charlottesville City"}}, {"geometry": {"type": "Point", "coordinates": [-78.48, 38.03]}, "type": "Feature", "id": "22905", "properties": {"other_cities": "Charlottesvle", "city": "Charlottesville", "state": "VA", "county": "Charlottesville City"}}, {"geometry": {"type": "Point", "coordinates": [-78.48, 38.03]}, "type": "Feature", "id": "22906", "properties": {"other_cities": "Charlottesvle", "city": "Charlottesville", "state": "VA", "county": "Charlottesville City"}}, {"geometry": {"type": "Point", "coordinates": [-78.48, 38.03]}, "type": "Feature", "id": "22907", "properties": {"other_cities": "Charlottesvle", "city": "Charlottesville", "state": "VA", "county": "Charlottesville City"}}, {"geometry": {"type": "Point", "coordinates": [-78.48, 38.03]}, "type": "Feature", "id": "22908", "properties": {"other_cities": "Charlottesvle", "city": "Charlottesville", "state": "VA", "county": "Charlottesville City"}}, {"geometry": {"type": "Point", "coordinates": [-78.48, 38.03]}, "type": "Feature", "id": "22909", "properties": {"other_cities": "Charlottesvle", "city": "Charlottesville", "state": "VA", "county": "Charlottesville City"}}, {"geometry": {"type": "Point", "coordinates": [-78.48, 38.03]}, "type": "Feature", "id": "22910", "properties": {"other_cities": "Charlottesvle", "city": "Charlottesville", "state": "VA", "county": "Charlottesville City"}}, {"geometry": {"type": "Point", "coordinates": [-78.48, 38.03]}, "type": "Feature", "id": "22911", "properties": {"other_cities": "Charlottesvle", "city": "Charlottesville", "state": "VA", "county": "Albemarle County"}}, {"geometry": {"type": "Point", "coordinates": [-78.83, 38.03]}, "type": "Feature", "id": "22920", "properties": {"other_cities": "", "city": "Afton", "state": "VA", "county": "Nelson County"}}, {"geometry": {"type": "Point", "coordinates": [-78.9, 37.68]}, "type": "Feature", "id": "22922", "properties": {"other_cities": "Tye River", "city": "Arrington", "state": "VA", "county": "Nelson County"}}, {"geometry": {"type": "Point", "coordinates": [-78.28, 38.17]}, "type": "Feature", "id": "22923", "properties": {"other_cities": "Burnleys, Eheart", "city": "Barboursville", "state": "VA", "county": "Orange County"}}, {"geometry": {"type": "Point", "coordinates": [-78.63, 38.01]}, "type": "Feature", "id": "22924", "properties": {"other_cities": "", "city": "Batesville", "state": "VA", "county": "Albemarle County"}}, {"geometry": {"type": "Point", "coordinates": [-78.7, 37.89]}, "type": "Feature", "id": "22931", "properties": {"other_cities": "", "city": "Covesville", "state": "VA", "county": "Albemarle County"}}, {"geometry": {"type": "Point", "coordinates": [-78.69, 38.06]}, "type": "Feature", "id": "22932", "properties": {"other_cities": "Yancey Mills", "city": "Crozet", "state": "VA", "county": "Albemarle County"}}, {"geometry": {"type": "Point", "coordinates": [-78.57, 38.26]}, "type": "Feature", "id": "22935", "properties": {"other_cities": "Boonesville, Nortonsville, St George", "city": "Dyke", "state": "VA", "county": "Greene County"}}, {"geometry": {"type": "Point", "coordinates": [-78.48, 38.15]}, "type": "Feature", "id": "22936", "properties": {"other_cities": "", "city": "Earlysville", "state": "VA", "county": "Albemarle County"}}, {"geometry": {"type": "Point", "coordinates": [-78.6, 37.83]}, "type": "Feature", "id": "22937", "properties": {"other_cities": "", "city": "Esmont", "state": "VA", "county": "Albemarle County"}}, {"geometry": {"type": "Point", "coordinates": [-78.75, 37.85]}, "type": "Feature", "id": "22938", "properties": {"other_cities": "", "city": "Faber", "state": "VA", "county": "Nelson County"}}, {"geometry": {"type": "Point", "coordinates": [-78.96, 38.09]}, "type": "Feature", "id": "22939", "properties": {"other_cities": "", "city": "Fishersville", "state": "VA", "county": "Augusta County"}}, {"geometry": {"type": "Point", "coordinates": [-78.56, 38.15]}, "type": "Feature", "id": "22940", "properties": {"other_cities": "Mission Home", "city": "Free Union", "state": "VA", "county": "Albemarle County"}}, {"geometry": {"type": "Point", "coordinates": [-78.18, 38.13]}, "type": "Feature", "id": "22942", "properties": {"other_cities": "Zion Crossrds, Zion Crossroads", "city": "Gordonsville", "state": "VA", "county": "Louisa County"}}, {"geometry": {"type": "Point", "coordinates": [-78.77, 38.05]}, "type": "Feature", "id": "22943", "properties": {"other_cities": "", "city": "Greenwood", "state": "VA", "county": "Albemarle County"}}, {"geometry": {"type": "Point", "coordinates": [-78.59, 38.05]}, "type": "Feature", "id": "22945", "properties": {"other_cities": "", "city": "Ivy", "state": "VA", "county": "Albemarle County"}}, {"geometry": {"type": "Point", "coordinates": [-78.55, 37.86]}, "type": "Feature", "id": "22946", "properties": {"other_cities": "", "city": "Keene", "state": "VA", "county": "Albemarle County"}}, {"geometry": {"type": "Point", "coordinates": [-78.35, 38.02]}, "type": "Feature", "id": "22947", "properties": {"other_cities": "Boyd Tavern, Campbell, Cismont, Cobham, Shadwell", "city": "Keswick", "state": "VA", "county": "Albemarle County"}}, {"geometry": {"type": "Point", "coordinates": [-78.11, 38.33]}, "type": "Feature", "id": "22948", "properties": {"other_cities": "", "city": "Locust Dale", "state": "VA", "county": "Madison County"}}, {"geometry": {"type": "Point", "coordinates": [-78.88, 37.77]}, "type": "Feature", "id": "22949", "properties": {"other_cities": "", "city": "Lovingston", "state": "VA", "county": "Nelson County"}}, {"geometry": {"type": "Point", "coordinates": [-78.96, 37.96]}, "type": "Feature", "id": "22952", "properties": {"other_cities": "Sherando", "city": "Lyndhurst", "state": "VA", "county": "Augusta County"}}, {"geometry": {"type": "Point", "coordinates": [-78.11, 38.19]}, "type": "Feature", "id": "22957", "properties": {"other_cities": "Mntpelier Sta", "city": "Montpelier Station", "state": "VA", "county": "Orange County"}}, {"geometry": {"type": "Point", "coordinates": [-78.88, 37.85]}, "type": "Feature", "id": "22958", "properties": {"other_cities": "", "city": "Nellysford", "state": "VA", "county": "Nelson County"}}, {"geometry": {"type": "Point", "coordinates": [-78.63, 37.94]}, "type": "Feature", "id": "22959", "properties": {"other_cities": "", "city": "North Garden", "state": "VA", "county": "Albemarle County"}}, {"geometry": {"type": "Point", "coordinates": [-78.11, 38.24]}, "type": "Feature", "id": "22960", "properties": {"other_cities": "Madison Mills, Montford, Nasons, Thornhill", "city": "Orange", "state": "VA", "county": "Orange County"}}, {"geometry": {"type": "Point", "coordinates": [-78.26, 37.86]}, "type": "Feature", "id": "22963", "properties": {"other_cities": "Bybee, Cunningham, Wildwood, Wilmington", "city": "Palmyra", "state": "VA", "county": "Fluvanna County"}}, {"geometry": {"type": "Point", "coordinates": [-79.02, 37.71]}, "type": "Feature", "id": "22964", "properties": {"other_cities": "", "city": "Piney River", "state": "VA", "county": "Nelson County"}}, {"geometry": {"type": "Point", "coordinates": [-78.38, 38.25]}, "type": "Feature", "id": "22965", "properties": {"other_cities": "", "city": "Quinque", "state": "VA", "county": "Greene County"}}, {"geometry": {"type": "Point", "coordinates": [-78.97, 37.74]}, "type": "Feature", "id": "22967", "properties": {"other_cities": "Lowesville, Massies Mill, Wintergreen Resort, Wintergrn Rst", "city": "Roseland", "state": "VA", "county": "Nelson County"}}, {"geometry": {"type": "Point", "coordinates": [-78.37, 38.23]}, "type": "Feature", "id": "22968", "properties": {"other_cities": "Advance Mills", "city": "Ruckersville", "state": "VA", "county": "Greene County"}}, {"geometry": {"type": "Point", "coordinates": [-78.69, 37.79]}, "type": "Feature", "id": "22969", "properties": {"other_cities": "", "city": "Schuyler", "state": "VA", "county": "Nelson County"}}, {"geometry": {"type": "Point", "coordinates": [-78.83, 37.72]}, "type": "Feature", "id": "22971", "properties": {"other_cities": "Rockfish", "city": "Shipman", "state": "VA", "county": "Nelson County"}}, {"geometry": {"type": "Point", "coordinates": [-78.23, 38.2]}, "type": "Feature", "id": "22972", "properties": {"other_cities": "", "city": "Somerset", "state": "VA", "county": "Orange County"}}, {"geometry": {"type": "Point", "coordinates": [-78.43, 38.3]}, "type": "Feature", "id": "22973", "properties": {"other_cities": "", "city": "Stanardsville", "state": "VA", "county": "Greene County"}}, {"geometry": {"type": "Point", "coordinates": [-78.24, 37.94]}, "type": "Feature", "id": "22974", "properties": {"other_cities": "", "city": "Troy", "state": "VA", "county": "Fluvanna County"}}, {"geometry": {"type": "Point", "coordinates": [-79.0, 37.82]}, "type": "Feature", "id": "22976", "properties": {"other_cities": "Roseland", "city": "Tyro", "state": "VA", "county": "Nelson County"}}, {"geometry": {"type": "Point", "coordinates": [-78.9, 38.06]}, "type": "Feature", "id": "22980", "properties": {"other_cities": "", "city": "Waynesboro", "state": "VA", "county": "Waynesboro City"}}, {"geometry": {"type": "Point", "coordinates": [-78.66, 38.11]}, "type": "Feature", "id": "22987", "properties": {"other_cities": "", "city": "White Hall", "state": "VA", "county": "Albemarle County"}}, {"geometry": {"type": "Point", "coordinates": [-78.05, 38.21]}, "type": "Feature", "id": "22989", "properties": {"other_cities": "Woodberry For", "city": "Woodberry Forest", "state": "VA", "county": ""}}, {"geometry": {"type": "Point", "coordinates": [-76.44, 37.28]}, "type": "Feature", "id": "23001", "properties": {"other_cities": "", "city": "Achilles", "state": "VA", "county": "Gloucester County"}}, {"geometry": {"type": "Point", "coordinates": [-77.96, 37.34]}, "type": "Feature", "id": "23002", "properties": {"other_cities": "Amelia Ct Hse", "city": "Amelia Court House", "state": "VA", "county": "Amelia County"}}, {"geometry": {"type": "Point", "coordinates": [-76.57, 37.43]}, "type": "Feature", "id": "23003", "properties": {"other_cities": "", "city": "Ark", "state": "VA", "county": "Gloucester County"}}, {"geometry": {"type": "Point", "coordinates": [-78.41, 37.66]}, "type": "Feature", "id": "23004", "properties": {"other_cities": "", "city": "Arvonia", "state": "VA", "county": "Buckingham County"}}, {"geometry": {"type": "Point", "coordinates": [-77.47, 37.76]}, "type": "Feature", "id": "23005", "properties": {"other_cities": "", "city": "Ashland", "state": "VA", "county": "Hanover County"}}, {"geometry": {"type": "Point", "coordinates": [-77.12, 37.77]}, "type": "Feature", "id": "23009", "properties": {"other_cities": "", "city": "Aylett", "state": "VA", "county": "King William County"}}, {"geometry": {"type": "Point", "coordinates": [-76.84, 37.45]}, "type": "Feature", "id": "23011", "properties": {"other_cities": "", "city": "Barhamsville", "state": "VA", "county": "New Kent County"}}, {"geometry": {"type": "Point", "coordinates": [-78.02, 37.76]}, "type": "Feature", "id": "23014", "properties": {"other_cities": "", "city": "Beaumont", "state": "VA", "county": "Powhatan County"}}, {"geometry": {"type": "Point", "coordinates": [-77.65, 37.94]}, "type": "Feature", "id": "23015", "properties": {"other_cities": "", "city": "Beaverdam", "state": "VA", "county": "Hanover County"}}, {"geometry": {"type": "Point", "coordinates": [-76.45, 37.27]}, "type": "Feature", "id": "23018", "properties": {"other_cities": "", "city": "Bena", "state": "VA", "county": "Gloucester County"}}, {"geometry": {"type": "Point", "coordinates": [-76.35, 37.39]}, "type": "Feature", "id": "23021", "properties": {"other_cities": "", "city": "Bohannon", "state": "VA", "county": "Mathews County"}}, {"geometry": {"type": "Point", "coordinates": [-78.29, 37.71]}, "type": "Feature", "id": "23022", "properties": {"other_cities": "", "city": "Bremo Bluff", "state": "VA", "county": "Fluvanna County"}}, {"geometry": {"type": "Point", "coordinates": [-76.93, 37.77]}, "type": "Feature", "id": "23023", "properties": {"other_cities": "", "city": "Bruington", "state": "VA", "county": "King and Queen County"}}, {"geometry": {"type": "Point", "coordinates": [-77.73, 37.96]}, "type": "Feature", "id": "23024", "properties": {"other_cities": "", "city": "Bumpass", "state": "VA", "county": "Louisa County"}}, {"geometry": {"type": "Point", "coordinates": [-76.37, 37.42]}, "type": "Feature", "id": "23025", "properties": {"other_cities": "Miles", "city": "Cardinal", "state": "VA", "county": "Mathews County"}}, {"geometry": {"type": "Point", "coordinates": [-78.1, 37.66]}, "type": "Feature", "id": "23027", "properties": {"other_cities": "Tamworth", "city": "Cartersville", "state": "VA", "county": "Cumberland County"}}, {"geometry": {"type": "Point", "coordinates": [-77.07, 37.34]}, "type": "Feature", "id": "23030", "properties": {"other_cities": "", "city": "Charles City", "state": "VA", "county": "Charles City County"}}, {"geometry": {"type": "Point", "coordinates": [-76.6, 37.57]}, "type": "Feature", "id": "23031", "properties": {"other_cities": "", "city": "Christchurch", "state": "VA", "county": "Middlesex County"}}, {"geometry": {"type": "Point", "coordinates": [-76.68, 37.67]}, "type": "Feature", "id": "23032", "properties": {"other_cities": "", "city": "Church View", "state": "VA", "county": "Middlesex County"}}, {"geometry": {"type": "Point", "coordinates": [-76.39, 37.5]}, "type": "Feature", "id": "23035", "properties": {"other_cities": "Blakes", "city": "Cobbs Creek", "state": "VA", "county": "Mathews County"}}, {"geometry": {"type": "Point", "coordinates": [-78.16, 37.75]}, "type": "Feature", "id": "23038", "properties": {"other_cities": "", "city": "Columbia", "state": "VA", "county": "Cumberland County"}}, {"geometry": {"type": "Point", "coordinates": [-77.79, 37.63]}, "type": "Feature", "id": "23039", "properties": {"other_cities": "", "city": "Crozier", "state": "VA", "county": "Goochland County"}}, {"geometry": {"type": "Point", "coordinates": [-78.24, 37.49]}, "type": "Feature", "id": "23040", "properties": {"other_cities": "", "city": "Cumberland", "state": "VA", "county": "Cumberland County"}}, {"geometry": {"type": "Point", "coordinates": [-76.32, 37.55]}, "type": "Feature", "id": "23043", "properties": {"other_cities": "", "city": "Deltaville", "state": "VA", "county": "Middlesex County"}}, {"geometry": {"type": "Point", "coordinates": [-76.28, 37.43]}, "type": "Feature", "id": "23045", "properties": {"other_cities": "", "city": "Diggs", "state": "VA", "county": "Mathews County"}}, {"geometry": {"type": "Point", "coordinates": [-77.46, 37.86]}, "type": "Feature", "id": "23047", "properties": {"other_cities": "", "city": "Doswell", "state": "VA", "county": "Hanover County"}}, {"geometry": {"type": "Point", "coordinates": [-76.46, 37.49]}, "type": "Feature", "id": "23050", "properties": {"other_cities": "", "city": "Dutton", "state": "VA", "county": "Mathews County"}}, {"geometry": {"type": "Point", "coordinates": [-78.26, 37.76]}, "type": "Feature", "id": "23055", "properties": {"other_cities": "", "city": "Fork Union", "state": "VA", "county": "Fluvanna County"}}, {"geometry": {"type": "Point", "coordinates": [-76.38, 37.45]}, "type": "Feature", "id": "23056", "properties": {"other_cities": "Mobjack", "city": "Foster", "state": "VA", "county": "Mathews County"}}, {"geometry": {"type": "Point", "coordinates": [-77.48, 37.66]}, "type": "Feature", "id": "23058", "properties": {"other_cities": "", "city": "Glen Allen", "state": "VA", "county": "Henrico County"}}, {"geometry": {"type": "Point", "coordinates": [-77.48, 37.66]}, "type": "Feature", "id": "23059", "properties": {"other_cities": "", "city": "Glen Allen", "state": "VA", "county": "Hanover County"}}, {"geometry": {"type": "Point", "coordinates": [-77.48, 37.66]}, "type": "Feature", "id": "23060", "properties": {"other_cities": "", "city": "Glen Allen", "state": "VA", "county": "Henrico County"}}, {"geometry": {"type": "Point", "coordinates": [-76.54, 37.43]}, "type": "Feature", "id": "23061", "properties": {"other_cities": "Bellamy, Naxera, Pinero, Zanoni", "city": "Gloucester", "state": "VA", "county": "Gloucester County"}}, {"geometry": {"type": "Point", "coordinates": [-76.49, 37.26]}, "type": "Feature", "id": "23062", "properties": {"other_cities": "Glou Point, Gloucester Pt", "city": "Gloucester Point", "state": "VA", "county": "Gloucester County"}}, {"geometry": {"type": "Point", "coordinates": [-77.88, 37.68]}, "type": "Feature", "id": "23063", "properties": {"other_cities": "Fife", "city": "Goochland", "state": "VA", "county": "Goochland County"}}, {"geometry": {"type": "Point", "coordinates": [-76.3, 37.5]}, "type": "Feature", "id": "23064", "properties": {"other_cities": "", "city": "Grimstead", "state": "VA", "county": "Mathews County"}}, {"geometry": {"type": "Point", "coordinates": [-77.89, 37.77]}, "type": "Feature", "id": "23065", "properties": {"other_cities": "", "city": "Gum Spring", "state": "VA", "county": "Goochland County"}}, {"geometry": {"type": "Point", "coordinates": [-76.28, 37.5]}, "type": "Feature", "id": "23066", "properties": {"other_cities": "", "city": "Gwynn", "state": "VA", "county": "Mathews County"}}, {"geometry": {"type": "Point", "coordinates": [-77.99, 37.82]}, "type": "Feature", "id": "23067", "properties": {"other_cities": "", "city": "Hadensville", "state": "VA", "county": "Goochland County"}}, {"geometry": {"type": "Point", "coordinates": [-76.37, 37.49]}, "type": "Feature", "id": "23068", "properties": {"other_cities": "", "city": "Hallieford", "state": "VA", "county": "Mathews County"}}, {"geometry": {"type": "Point", "coordinates": [-77.37, 37.76]}, "type": "Feature", "id": "23069", "properties": {"other_cities": "Mangohick", "city": "Hanover", "state": "VA", "county": "Hanover County"}}, {"geometry": {"type": "Point", "coordinates": [-76.38, 37.55]},