{"type": "FeatureCollection", "features": [{"geometry": {"type": "Point", "coordinates": [-122.26, 47.3]}, "type": "Feature", "id": "98001", "properties": {"other_cities": "Algona, Federal Way", "city": "Auburn", "state": "WA", "county": "King County"}}, {"geometry": {"type": "Point", "coordinates": [-122.2, 47.31]}, "type": "Feature", "id": "98002", "properties": {"other_cities": "", "city": "Auburn", "state": "WA", "county": "King County"}}, {"geometry": {"type": "Point", "coordinates": [-122.31, 47.3]}, "type": "Feature", "id": "98003", "properties": {"other_cities": "Auburn", "city": "Federal Way", "state": "WA", "county": "King County"}}, {"geometry": {"type": "Point", "coordinates": [-122.21, 47.61]}, "type": "Feature", "id": "98004", "properties": {"other_cities": "Beaux Arts, Clyde Hill, Hunts Point, Yarrow Point", "city": "Bellevue", "state": "WA", "county": "King County"}}, {"geometry": {"type": "Point", "coordinates": [-122.16, 47.62]}, "type": "Feature", "id": "98005", "properties": {"other_cities": "", "city": "Bellevue", "state": "WA", "county": "King County"}}, {"geometry": {"type": "Point", "coordinates": [-122.14, 47.55]}, "type": "Feature", "id": "98006", "properties": {"other_cities": "Issaquah", "city": "Bellevue", "state": "WA", "county": "King County"}}, {"geometry": {"type": "Point", "coordinates": [-122.14, 47.62]}, "type": "Feature", "id": "98007", "properties": {"other_cities": "", "city": "Bellevue", "state": "WA", "county": "King County"}}, {"geometry": {"type": "Point", "coordinates": [-122.11, 47.6]}, "type": "Feature", "id": "98008", "properties": {"other_cities": "", "city": "Bellevue", "state": "WA", "county": "King County"}}, {"geometry": {"type": "Point", "coordinates": [-122.2, 47.61]}, "type": "Feature", "id": "98009", "properties": {"other_cities": "", "city": "Bellevue", "state": "WA", "county": "King County"}}, {"geometry": {"type": "Point", "coordinates": [-121.99, 47.32]}, "type": "Feature", "id": "98010", "properties": {"other_cities": "", "city": "Black Diamond", "state": "WA", "county": "King County"}}, {"geometry": {"type": "Point", "coordinates": [-122.2, 47.74]}, "type": "Feature", "id": "98011", "properties": {"other_cities": "", "city": "Bothell", "state": "WA", "county": "King County"}}, {"geometry": {"type": "Point", "coordinates": [-122.19, 47.84]}, "type": "Feature", "id": "98012", "properties": {"other_cities": "Mill Creek", "city": "Bothell", "state": "WA", "county": "Snohomish County"}}, {"geometry": {"type": "Point", "coordinates": [-122.45, 47.38]}, "type": "Feature", "id": "98013", "properties": {"other_cities": "Vashon", "city": "Burton", "state": "WA", "county": "King County"}}, {"geometry": {"type": "Point", "coordinates": [-121.89, 47.64]}, "type": "Feature", "id": "98014", "properties": {"other_cities": "", "city": "Carnation", "state": "WA", "county": "King County"}}, {"geometry": {"type": "Point", "coordinates": [-122.2, 47.61]}, "type": "Feature", "id": "98015", "properties": {"other_cities": "", "city": "Bellevue", "state": "WA", "county": "King County"}}, {"geometry": {"type": "Point", "coordinates": [-121.93, 47.73]}, "type": "Feature", "id": "98019", "properties": {"other_cities": "", "city": "Duvall", "state": "WA", "county": "King County"}}, {"geometry": {"type": "Point", "coordinates": [-122.37, 47.8]}, "type": "Feature", "id": "98020", "properties": {"other_cities": "Woodway", "city": "Edmonds", "state": "WA", "county": "Snohomish County"}}, {"geometry": {"type": "Point", "coordinates": [-122.2, 47.79]}, "type": "Feature", "id": "98021", "properties": {"other_cities": "", "city": "Bothell", "state": "WA", "county": "Snohomish County"}}, {"geometry": {"type": "Point", "coordinates": [-121.6, 47.1]}, "type": "Feature", "id": "98022", "properties": {"other_cities": "", "city": "Enumclaw", "state": "WA", "county": "King County"}}, {"geometry": {"type": "Point", "coordinates": [-122.37, 47.3]}, "type": "Feature", "id": "98023", "properties": {"other_cities": "Auburn", "city": "Federal Way", "state": "WA", "county": "King County"}}, {"geometry": {"type": "Point", "coordinates": [-121.88, 47.58]}, "type": "Feature", "id": "98024", "properties": {"other_cities": "", "city": "Fall City", "state": "WA", "county": "King County"}}, {"geometry": {"type": "Point", "coordinates": [-121.89, 47.43]}, "type": "Feature", "id": "98025", "properties": {"other_cities": "", "city": "Hobart", "state": "WA", "county": "King County"}}, {"geometry": {"type": "Point", "coordinates": [-122.32, 47.83]}, "type": "Feature", "id": "98026", "properties": {"other_cities": "", "city": "Edmonds", "state": "WA", "county": "Snohomish County"}}, {"geometry": {"type": "Point", "coordinates": [-122.0, 47.5]}, "type": "Feature", "id": "98027", "properties": {"other_cities": "", "city": "Issaquah", "state": "WA", "county": "King County"}}, {"geometry": {"type": "Point", "coordinates": [-122.24, 47.75]}, "type": "Feature", "id": "98028", "properties": {"other_cities": "Bothell", "city": "Kenmore", "state": "WA", "county": "King County"}}, {"geometry": {"type": "Point", "coordinates": [-122.0, 47.55]}, "type": "Feature", "id": "98029", "properties": {"other_cities": "", "city": "Issaquah", "state": "WA", "county": "King County"}}, {"geometry": {"type": "Point", "coordinates": [-122.19, 47.36]}, "type": "Feature", "id": "98030", "properties": {"other_cities": "", "city": "Kent", "state": "WA", "county": "King County"}}, {"geometry": {"type": "Point", "coordinates": [-122.19, 47.4]}, "type": "Feature", "id": "98031", "properties": {"other_cities": "", "city": "Kent", "state": "WA", "county": "King County"}}, {"geometry": {"type": "Point", "coordinates": [-122.26, 47.39]}, "type": "Feature", "id": "98032", "properties": {"other_cities": "", "city": "Kent", "state": "WA", "county": "King County"}}, {"geometry": {"type": "Point", "coordinates": [-122.18, 47.67]}, "type": "Feature", "id": "98033", "properties": {"other_cities": "", "city": "Kirkland", "state": "WA", "county": "King County"}}, {"geometry": {"type": "Point", "coordinates": [-122.2, 47.72]}, "type": "Feature", "id": "98034", "properties": {"other_cities": "", "city": "Kirkland", "state": "WA", "county": "King County"}}, {"geometry": {"type": "Point", "coordinates": [-122.19, 47.38]}, "type": "Feature", "id": "98035", "properties": {"other_cities": "", "city": "Kent", "state": "WA", "county": "King County"}}, {"geometry": {"type": "Point", "coordinates": [-122.28, 47.8]}, "type": "Feature", "id": "98036", "properties": {"other_cities": "Brier", "city": "Lynnwood", "state": "WA", "county": "Snohomish County"}}, {"geometry": {"type": "Point", "coordinates": [-122.28, 47.85]}, "type": "Feature", "id": "98037", "properties": {"other_cities": "", "city": "Lynnwood", "state": "WA", "county": "Snohomish County"}}, {"geometry": {"type": "Point", "coordinates": [-121.99, 47.4]}, "type": "Feature", "id": "98038", "properties": {"other_cities": "", "city": "Maple Valley", "state": "WA", "county": "King County"}}, {"geometry": {"type": "Point", "coordinates": [-122.23, 47.62]}, "type": "Feature", "id": "98039", "properties": {"other_cities": "", "city": "Medina", "state": "WA", "county": "King County"}}, {"geometry": {"type": "Point", "coordinates": [-122.22, 47.56]}, "type": "Feature", "id": "98040", "properties": {"other_cities": "", "city": "Mercer Island", "state": "WA", "county": "King County"}}, {"geometry": {"type": "Point", "coordinates": [-122.21, 47.75]}, "type": "Feature", "id": "98041", "properties": {"other_cities": "", "city": "Bothell", "state": "WA", "county": "King County"}}, {"geometry": {"type": "Point", "coordinates": [-122.1, 47.36]}, "type": "Feature", "id": "98042", "properties": {"other_cities": "Covington", "city": "Kent", "state": "WA", "county": "King County"}}, {"geometry": {"type": "Point", "coordinates": [-122.3, 47.79]}, "type": "Feature", "id": "98043", "properties": {"other_cities": "Mountlake Ter", "city": "Mountlake Terrace", "state": "WA", "county": "Snohomish County"}}, {"geometry": {"type": "Point", "coordinates": [-121.62, 47.44]}, "type": "Feature", "id": "98045", "properties": {"other_cities": "", "city": "North Bend", "state": "WA", "county": "King County"}}, {"geometry": {"type": "Point", "coordinates": [-122.3, 47.83]}, "type": "Feature", "id": "98046", "properties": {"other_cities": "", "city": "Lynnwood", "state": "WA", "county": "Snohomish County"}}, {"geometry": {"type": "Point", "coordinates": [-122.24, 47.25]}, "type": "Feature", "id": "98047", "properties": {"other_cities": "Auburn", "city": "Pacific", "state": "WA", "county": "King County"}}, {"geometry": {"type": "Point", "coordinates": [-121.92, 47.53]}, "type": "Feature", "id": "98050", "properties": {"other_cities": "", "city": "Preston", "state": "WA", "county": "King County"}}, {"geometry": {"type": "Point", "coordinates": [-121.92, 47.34]}, "type": "Feature", "id": "98051", "properties": {"other_cities": "", "city": "Ravensdale", "state": "WA", "county": "King County"}}, {"geometry": {"type": "Point", "coordinates": [-122.12, 47.68]}, "type": "Feature", "id": "98052", "properties": {"other_cities": "", "city": "Redmond", "state": "WA", "county": "King County"}}, {"geometry": {"type": "Point", "coordinates": [-122.01, 47.66]}, "type": "Feature", "id": "98053", "properties": {"other_cities": "", "city": "Redmond", "state": "WA", "county": "King County"}}, {"geometry": {"type": "Point", "coordinates": [-122.32, 47.34]}, "type": "Feature", "id": "98054", "properties": {"other_cities": "", "city": "Redondo", "state": "WA", "county": "King County"}}, {"geometry": {"type": "Point", "coordinates": [-122.21, 47.46]}, "type": "Feature", "id": "98055", "properties": {"other_cities": "", "city": "Renton", "state": "WA", "county": "King County"}}, {"geometry": {"type": "Point", "coordinates": [-122.18, 47.51]}, "type": "Feature", "id": "98056", "properties": {"other_cities": "Newcastle", "city": "Renton", "state": "WA", "county": "King County"}}, {"geometry": {"type": "Point", "coordinates": [-122.19, 47.48]}, "type": "Feature", "id": "98057", "properties": {"other_cities": "", "city": "Renton", "state": "WA", "county": "King County"}}, {"geometry": {"type": "Point", "coordinates": [-122.11, 47.43]}, "type": "Feature", "id": "98058", "properties": {"other_cities": "", "city": "Renton", "state": "WA", "county": "King County"}}, {"geometry": {"type": "Point", "coordinates": [-122.1, 47.49]}, "type": "Feature", "id": "98059", "properties": {"other_cities": "Newcastle", "city": "Renton", "state": "WA", "county": "King County"}}, {"geometry": {"type": "Point", "coordinates": [-122.55, 47.65]}, "type": "Feature", "id": "98061", "properties": {"other_cities": "", "city": "Rollingbay", "state": "WA", "county": "Kitsap County"}}, {"geometry": {"type": "Point", "coordinates": [-122.36, 47.46]}, "type": "Feature", "id": "98062", "properties": {"other_cities": "", "city": "Seahurst", "state": "WA", "county": "King County"}}, {"geometry": {"type": "Point", "coordinates": [-122.31, 47.3]}, "type": "Feature", "id": "98063", "properties": {"other_cities": "Auburn", "city": "Federal Way", "state": "WA", "county": "King County"}}, {"geometry": {"type": "Point", "coordinates": [-122.23, 47.39]}, "type": "Feature", "id": "98064", "properties": {"other_cities": "", "city": "Kent", "state": "WA", "county": "King County"}}, {"geometry": {"type": "Point", "coordinates": [-121.8, 47.53]}, "type": "Feature", "id": "98065", "properties": {"other_cities": "", "city": "Snoqualmie", "state": "WA", "county": "King County"}}, {"geometry": {"type": "Point", "coordinates": [-121.37, 47.42]}, "type": "Feature", "id": "98068", "properties": {"other_cities": "Snoqualmie Ps", "city": "Snoqualmie Pass", "state": "WA", "county": "Kittitas County"}}, {"geometry": {"type": "Point", "coordinates": [-122.45, 47.42]}, "type": "Feature", "id": "98070", "properties": {"other_cities": "", "city": "Vashon", "state": "WA", "county": "King County"}}, {"geometry": {"type": "Point", "coordinates": [-122.11, 47.25]}, "type": "Feature", "id": "98071", "properties": {"other_cities": "", "city": "Auburn", "state": "WA", "county": "King County"}}, {"geometry": {"type": "Point", "coordinates": [-122.09, 47.75]}, "type": "Feature", "id": "98072", "properties": {"other_cities": "", "city": "Woodinville", "state": "WA", "county": "King County"}}, {"geometry": {"type": "Point", "coordinates": [-122.11, 47.67]}, "type": "Feature", "id": "98073", "properties": {"other_cities": "", "city": "Redmond", "state": "WA", "county": "King County"}}, {"geometry": {"type": "Point", "coordinates": [-122.02, 47.62]}, "type": "Feature", "id": "98074", "properties": {"other_cities": "Redmond", "city": "Sammamish", "state": "WA", "county": "King County"}}, {"geometry": {"type": "Point", "coordinates": [-122.03, 47.58]}, "type": "Feature", "id": "98075", "properties": {"other_cities": "Issaquah", "city": "Sammamish", "state": "WA", "county": "King County"}}, {"geometry": {"type": "Point", "coordinates": [-122.04, 47.75]}, "type": "Feature", "id": "98077", "properties": {"other_cities": "", "city": "Woodinville", "state": "WA", "county": "King County"}}, {"geometry": {"type": "Point", "coordinates": [-122.22, 47.85]}, "type": "Feature", "id": "98082", "properties": {"other_cities": "Bothell", "city": "Mill Creek", "state": "WA", "county": ""}}, {"geometry": {"type": "Point", "coordinates": [-122.19, 47.68]}, "type": "Feature", "id": "98083", "properties": {"other_cities": "", "city": "Kirkland", "state": "WA", "county": "King County"}}, {"geometry": {"type": "Point", "coordinates": [-122.28, 47.85]}, "type": "Feature", "id": "98087", "properties": {"other_cities": "", "city": "Lynnwood", "state": "WA", "county": "Snohomish County"}}, {"geometry": {"type": "Point", "coordinates": [-122.23, 47.38]}, "type": "Feature", "id": "98089", "properties": {"other_cities": "", "city": "Kent", "state": "WA", "county": "King County"}}, {"geometry": {"type": "Point", "coordinates": [-122.1, 47.28]}, "type": "Feature", "id": "98092", "properties": {"other_cities": "", "city": "Auburn", "state": "WA", "county": "King County"}}, {"geometry": {"type": "Point", "coordinates": [-122.35, 47.3]}, "type": "Feature", "id": "98093", "properties": {"other_cities": "Auburn", "city": "Federal Way", "state": "WA", "county": "King County"}}, {"geometry": {"type": "Point", "coordinates": [-122.33, 47.61]}, "type": "Feature", "id": "98101", "properties": {"other_cities": "", "city": "Seattle", "state": "WA", "county": "King County"}}, {"geometry": {"type": "Point", "coordinates": [-122.32, 47.63]}, "type": "Feature", "id": "98102", "properties": {"other_cities": "", "city": "Seattle", "state": "WA", "county": "King County"}}, {"geometry": {"type": "Point", "coordinates": [-122.34, 47.67]}, "type": "Feature", "id": "98103", "properties": {"other_cities": "", "city": "Seattle", "state": "WA", "county": "King County"}}, {"geometry": {"type": "Point", "coordinates": [-122.32, 47.6]}, "type": "Feature", "id": "98104", "properties": {"other_cities": "", "city": "Seattle", "state": "WA", "county": "King County"}}, {"geometry": {"type": "Point", "coordinates": [-122.29, 47.66]}, "type": "Feature", "id": "98105", "properties": {"other_cities": "", "city": "Seattle", "state": "WA", "county": "King County"}}, {"geometry": {"type": "Point", "coordinates": [-122.35, 47.54]}, "type": "Feature", "id": "98106", "properties": {"other_cities": "", "city": "Seattle", "state": "WA", "county": "King County"}}, {"geometry": {"type": "Point", "coordinates": [-122.38, 47.66]}, "type": "Feature", "id": "98107", "properties": {"other_cities": "", "city": "Seattle", "state": "WA", "county": "King County"}}, {"geometry": {"type": "Point", "coordinates": [-122.31, 47.54]}, "type": "Feature", "id": "98108", "properties": {"other_cities": "Tukwila", "city": "Seattle", "state": "WA", "county": "King County"}}, {"geometry": {"type": "Point", "coordinates": [-122.34, 47.63]}, "type": "Feature", "id": "98109", "properties": {"other_cities": "", "city": "Seattle", "state": "WA", "county": "King County"}}, {"geometry": {"type": "Point", "coordinates": [-122.53, 47.64]}, "type": "Feature", "id": "98110", "properties": {"other_cities": "Bainbridge Is, Seattle", "city": "Bainbridge Island", "state": "WA", "county": "Kitsap County"}}, {"geometry": {"type": "Point", "coordinates": [-122.33, 47.61]}, "type": "Feature", "id": "98111", "properties": {"other_cities": "", "city": "Seattle", "state": "WA", "county": "King County"}}, {"geometry": {"type": "Point", "coordinates": [-122.29, 47.63]}, "type": "Feature", "id": "98112", "properties": {"other_cities": "", "city": "Seattle", "state": "WA", "county": "King County"}}, {"geometry": {"type": "Point", "coordinates": [-122.33, 47.61]}, "type": "Feature", "id": "98113", "properties": {"other_cities": "", "city": "Seattle", "state": "WA", "county": "King County"}}, {"geometry": {"type": "Point", "coordinates": [-122.31, 47.58]}, "type": "Feature", "id": "98114", "properties": {"other_cities": "", "city": "Seattle", "state": "WA", "county": "King County"}}, {"geometry": {"type": "Point", "coordinates": [-122.28, 47.68]}, "type": "Feature", "id": "98115", "properties": {"other_cities": "", "city": "Seattle", "state": "WA", "county": "King County"}}, {"geometry": {"type": "Point", "coordinates": [-122.4, 47.57]}, "type": "Feature", "id": "98116", "properties": {"other_cities": "", "city": "Seattle", "state": "WA", "county": "King County"}}, {"geometry": {"type": "Point", "coordinates": [-122.38, 47.68]}, "type": "Feature", "id": "98117", "properties": {"other_cities": "", "city": "Seattle", "state": "WA", "county": "King County"}}, {"geometry": {"type": "Point", "coordinates": [-122.27, 47.54]}, "type": "Feature", "id": "98118", "properties": {"other_cities": "", "city": "Seattle", "state": "WA", "county": "King County"}}, {"geometry": {"type": "Point", "coordinates": [-122.37, 47.63]}, "type": "Feature", "id": "98119", "properties": {"other_cities": "", "city": "Seattle", "state": "WA", "county": "King County"}}, {"geometry": {"type": "Point", "coordinates": [-122.34, 47.61]}, "type": "Feature", "id": "98121", "properties": {"other_cities": "", "city": "Seattle", "state": "WA", "county": "King County"}}, {"geometry": {"type": "Point", "coordinates": [-122.3, 47.61]}, "type": "Feature", "id": "98122", "properties": {"other_cities": "", "city": "Seattle", "state": "WA", "county": "King County"}}, {"geometry": {"type": "Point", "coordinates": [-122.33, 47.57]}, "type": "Feature", "id": "98124", "properties": {"other_cities": "", "city": "Seattle", "state": "WA", "county": "King County"}}, {"geometry": {"type": "Point", "coordinates": [-122.3, 47.71]}, "type": "Feature", "id": "98125", "properties": {"other_cities": "", "city": "Seattle", "state": "WA", "county": "King County"}}, {"geometry": {"type": "Point", "coordinates": [-122.37, 47.55]}, "type": "Feature", "id": "98126", "properties": {"other_cities": "", "city": "Seattle", "state": "WA", "county": "King County"}}, {"geometry": {"type": "Point", "coordinates": [-122.33, 47.61]}, "type": "Feature", "id": "98127", "properties": {"other_cities": "", "city": "Seattle", "state": "WA", "county": "King County"}}, {"geometry": {"type": "Point", "coordinates": [-122.33, 47.61]}, "type": "Feature", "id": "98129", "properties": {"other_cities": "", "city": "Seattle", "state": "WA", "county": "King County"}}, {"geometry": {"type": "Point", "coordinates": [-122.29, 47.46]}, "type": "Feature", "id": "98131", "properties": {"other_cities": "", "city": "Seattle", "state": "WA", "county": "King County"}}, {"geometry": {"type": "Point", "coordinates": [-122.29, 47.46]}, "type": "Feature", "id": "98132", "properties": {"other_cities": "", "city": "Seattle", "state": "WA", "county": "King County"}}, {"geometry": {"type": "Point", "coordinates": [-122.34, 47.73]}, "type": "Feature", "id": "98133", "properties": {"other_cities": "Shoreline", "city": "Seattle", "state": "WA", "county": "King County"}}, {"geometry": {"type": "Point", "coordinates": [-122.33, 47.57]}, "type": "Feature", "id": "98134", "properties": {"other_cities": "", "city": "Seattle", "state": "WA", "county": "King County"}}, {"geometry": {"type": "Point", "coordinates": [-122.39, 47.53]}, "type": "Feature", "id": "98136", "properties": {"other_cities": "", "city": "Seattle", "state": "WA", "county": "King County"}}, {"geometry": {"type": "Point", "coordinates": [-122.26, 47.47]}, "type": "Feature", "id": "98138", "properties": {"other_cities": "Tukwila", "city": "Seattle", "state": "WA", "county": "King County"}}, {"geometry": {"type": "Point", "coordinates": [-122.33, 47.61]}, "type": "Feature", "id": "98139", "properties": {"other_cities": "", "city": "Seattle", "state": "WA", "county": "King County"}}, {"geometry": {"type": "Point", "coordinates": [-122.33, 47.61]}, "type": "Feature", "id": "98141", "properties": {"other_cities": "", "city": "Seattle", "state": "WA", "county": "King County"}}, {"geometry": {"type": "Point", "coordinates": [-122.3, 47.58]}, "type": "Feature", "id": "98144", "properties": {"other_cities": "", "city": "Seattle", "state": "WA", "county": "King County"}}, {"geometry": {"type": "Point", "coordinates": [-122.31, 47.65]}, "type": "Feature", "id": "98145", "properties": {"other_cities": "", "city": "Seattle", "state": "WA", "county": "King County"}}, {"geometry": {"type": "Point", "coordinates": [-122.36, 47.49]}, "type": "Feature", "id": "98146", "properties": {"other_cities": "Burien", "city": "Seattle", "state": "WA", "county": "King County"}}, {"geometry": {"type": "Point", "coordinates": [-122.31, 47.44]}, "type": "Feature", "id": "98148", "properties": {"other_cities": "Burien, Des Moines, Normandy Park, Seatac", "city": "Seattle", "state": "WA", "county": "King County"}}, {"geometry": {"type": "Point", "coordinates": [-122.33, 47.6]}, "type": "Feature", "id": "98151", "properties": {"other_cities": "Goodwill Games 1990", "city": "Seattle", "state": "WA", "county": "King County"}}, {"geometry": {"type": "Point", "coordinates": [-122.33, 47.6]}, "type": "Feature", "id": "98154", "properties": {"other_cities": "", "city": "Seattle", "state": "WA", "county": "King County"}}, {"geometry": {"type": "Point", "coordinates": [-122.29, 47.75]}, "type": "Feature", "id": "98155", "properties": {"other_cities": "Lake Forest Park, Lk Forest Pk, Shoreline", "city": "Seattle", "state": "WA", "county": "King County"}}, {"geometry": {"type": "Point", "coordinates": [-122.31, 47.44]}, "type": "Feature", "id": "98158", "properties": {"other_cities": "Seatac", "city": "Seattle", "state": "WA", "county": "King County"}}, {"geometry": {"type": "Point", "coordinates": [-122.38, 47.77]}, "type": "Feature", "id": "98160", "properties": {"other_cities": "", "city": "Seattle", "state": "WA", "county": "King County"}}, {"geometry": {"type": "Point", "coordinates": [-122.33, 47.6]}, "type": "Feature", "id": "98161", "properties": {"other_cities": "", "city": "Seattle", "state": "WA", "county": "King County"}}, {"geometry": {"type": "Point", "coordinates": [-122.33, 47.6]}, "type": "Feature", "id": "98164", "properties": {"other_cities": "", "city": "Seattle", "state": "WA", "county": "King County"}}, {"geometry": {"type": "Point", "coordinates": [-122.33, 47.61]}, "type": "Feature", "id": "98165", "properties": {"other_cities": "", "city": "Seattle", "state": "WA", "county": "King County"}}, {"geometry": {"type": "Point", "coordinates": [-122.35, 47.44]}, "type": "Feature", "id": "98166", "properties": {"other_cities": "Burien, Normandy Park", "city": "Seattle", "state": "WA", "county": "King County"}}, {"geometry": {"type": "Point", "coordinates": [-122.29, 47.48]}, "type": "Feature", "id": "98168", "properties": {"other_cities": "Burien, Seatac, Tukwila", "city": "Seattle", "state": "WA", "county": "King County"}}, {"geometry": {"type": "Point", "coordinates": [-122.33, 47.61]}, "type": "Feature", "id": "98170", "properties": {"other_cities": "", "city": "Seattle", "state": "WA", "county": "King County"}}, {"geometry": {"type": "Point", "coordinates": [-122.33, 47.6]}, "type": "Feature", "id": "98171", "properties": {"other_cities": "", "city": "Seattle", "state": "WA", "county": "King County"}}, {"geometry": {"type": "Point", "coordinates": [-122.33, 47.6]}, "type": "Feature", "id": "98174", "properties": {"other_cities": "", "city": "Seattle", "state": "WA", "county": "King County"}}, {"geometry": {"type": "Point", "coordinates": [-122.33, 47.61]}, "type": "Feature", "id": "98175", "properties": {"other_cities": "", "city": "Seattle", "state": "WA", "county": "King County"}}, {"geometry": {"type": "Point", "coordinates": [-122.37, 47.73]}, "type": "Feature", "id": "98177", "properties": {"other_cities": "Shoreline", "city": "Seattle", "state": "WA", "county": "King County"}}, {"geometry": {"type": "Point", "coordinates": [-122.25, 47.49]}, "type": "Feature", "id": "98178", "properties": {"other_cities": "Tukwila", "city": "Seattle", "state": "WA", "county": "King County"}}, {"geometry": {"type": "Point", "coordinates": [-122.33, 47.61]}, "type": "Feature", "id": "98181", "properties": {"other_cities": "", "city": "Seattle", "state": "WA", "county": "King County"}}, {"geometry": {"type": "Point", "coordinates": [-122.33, 47.6]}, "type": "Feature", "id": "98184", "properties": {"other_cities": "", "city": "Seattle", "state": "WA", "county": "King County"}}, {"geometry": {"type": "Point", "coordinates": [-122.29, 47.66]}, "type": "Feature", "id": "98185", "properties": {"other_cities": "", "city": "Seattle", "state": "WA", "county": "King County"}}, {"geometry": {"type": "Point", "coordinates": [-122.28, 47.44]}, "type": "Feature", "id": "98188", "properties": {"other_cities": "Seatac, Tukwila", "city": "Seattle", "state": "WA", "county": "King County"}}, {"geometry": {"type": "Point", "coordinates": [-122.25, 47.42]}, "type": "Feature", "id": "98189", "properties": {"other_cities": "", "city": "Seattle", "state": "WA", "county": ""}}, {"geometry": {"type": "Point", "coordinates": [-122.29, 47.5]}, "type": "Feature", "id": "98190", "properties": {"other_cities": "Capital One", "city": "Seattle", "state": "WA", "county": "King County"}}, {"geometry": {"type": "Point", "coordinates": [-122.33, 47.61]}, "type": "Feature", "id": "98191", "properties": {"other_cities": "", "city": "Seattle", "state": "WA", "county": "King County"}}, {"geometry": {"type": "Point", "coordinates": [-122.33, 47.61]}, "type": "Feature", "id": "98194", "properties": {"other_cities": "", "city": "Seattle", "state": "WA", "county": "King County"}}, {"geometry": {"type": "Point", "coordinates": [-122.29, 47.65]}, "type": "Feature", "id": "98195", "properties": {"other_cities": "", "city": "Seattle", "state": "WA", "county": "King County"}}, {"geometry": {"type": "Point", "coordinates": [-122.31, 47.38]}, "type": "Feature", "id": "98198", "properties": {"other_cities": "Des Moines, Normandy Park, Seatac", "city": "Seattle", "state": "WA", "county": "King County"}}, {"geometry": {"type": "Point", "coordinates": [-122.4, 47.65]}, "type": "Feature", "id": "98199", "properties": {"other_cities": "", "city": "Seattle", "state": "WA", "county": "King County"}}, {"geometry": {"type": "Point", "coordinates": [-122.2, 47.98]}, "type": "Feature", "id": "98201", "properties": {"other_cities": "", "city": "Everett", "state": "WA", "county": "Snohomish County"}}, {"geometry": {"type": "Point", "coordinates": [-122.24, 47.94]}, "type": "Feature", "id": "98203", "properties": {"other_cities": "", "city": "Everett", "state": "WA", "county": "Snohomish County"}}, {"geometry": {"type": "Point", "coordinates": [-122.25, 47.89]}, "type": "Feature", "id": "98204", "properties": {"other_cities": "", "city": "Everett", "state": "WA", "county": "Snohomish County"}}, {"geometry": {"type": "Point", "coordinates": [-122.1, 48.0]}, "type": "Feature", "id": "98205", "properties": {"other_cities": "", "city": "Everett", "state": "WA", "county": "Snohomish County"}}, {"geometry": {"type": "Point", "coordinates": [-122.22, 47.92]}, "type": "Feature", "id": "98206", "properties": {"other_cities": "", "city": "Everett", "state": "WA", "county": "Snohomish County"}}, {"geometry": {"type": "Point", "coordinates": [-122.19, 47.96]}, "type": "Feature", "id": "98207", "properties": {"other_cities": "", "city": "Everett", "state": "WA", "county": "Snohomish County"}}, {"geometry": {"type": "Point", "coordinates": [-122.18, 47.9]}, "type": "Feature", "id": "98208", "properties": {"other_cities": "", "city": "Everett", "state": "WA", "county": "Snohomish County"}}, {"geometry": {"type": "Point", "coordinates": [-122.2, 47.97]}, "type": "Feature", "id": "98213", "properties": {"other_cities": "", "city": "Everett", "state": "WA", "county": "Snohomish County"}}, {"geometry": {"type": "Point", "coordinates": [-122.19, 48.7]}, "type": "Feature", "id": "98220", "properties": {"other_cities": "", "city": "Acme", "state": "WA", "county": "Whatcom County"}}, {"geometry": {"type": "Point", "coordinates": [-122.6, 48.46]}, "type": "Feature", "id": "98221", "properties": {"other_cities": "", "city": "Anacortes", "state": "WA", "county": "Skagit County"}}, {"geometry": {"type": "Point", "coordinates": [-122.8, 48.56]}, "type": "Feature", "id": "98222", "properties": {"other_cities": "Anacortes, Blakely Is", "city": "Blakely Island", "state": "WA", "county": "San Juan County"}}, {"geometry": {"type": "Point", "coordinates": [-121.67, 48.18]}, "type": "Feature", "id": "98223", "properties": {"other_cities": "", "city": "Arlington", "state": "WA", "county": "Snohomish County"}}, {"geometry": {"type": "Point", "coordinates": [-121.49, 47.73]}, "type": "Feature", "id": "98224", "properties": {"other_cities": "", "city": "Baring", "state": "WA", "county": "King County"}}, {"geometry": {"type": "Point", "coordinates": [-122.48, 48.73]}, "type": "Feature", "id": "98225", "properties": {"other_cities": "", "city": "Bellingham", "state": "WA", "county": "Whatcom County"}}, {"geometry": {"type": "Point", "coordinates": [-122.41, 48.79]}, "type": "Feature", "id": "98226", "properties": {"other_cities": "", "city": "Bellingham", "state": "WA", "county": "Whatcom County"}}, {"geometry": {"type": "Point", "coordinates": [-122.4, 48.8]}, "type": "Feature", "id": "98227", "properties": {"other_cities": "", "city": "Bellingham", "state": "WA", "county": "Whatcom County"}}, {"geometry": {"type": "Point", "coordinates": [-122.46, 48.74]}, "type": "Feature", "id": "98228", "properties": {"other_cities": "", "city": "Bellingham", "state": "WA", "county": "Whatcom County"}}, {"geometry": {"type": "Point", "coordinates": [-122.41, 48.68]}, "type": "Feature", "id": "98229", "properties": {"other_cities": "", "city": "Bellingham", "state": "WA", "county": "Whatcom County"}}, {"geometry": {"type": "Point", "coordinates": [-122.72, 48.93]}, "type": "Feature", "id": "98230", "properties": {"other_cities": "", "city": "Blaine", "state": "WA", "county": "Whatcom County"}}, {"geometry": {"type": "Point", "coordinates": [-122.74, 48.99]}, "type": "Feature", "id": "98231", "properties": {"other_cities": "", "city": "Blaine", "state": "WA", "county": "Whatcom County"}}, {"geometry": {"type": "Point", "coordinates": [-122.44, 48.56]}, "type": "Feature", "id": "98232", "properties": {"other_cities": "", "city": "Bow", "state": "WA", "county": "Skagit County"}}, {"geometry": {"type": "Point", "coordinates": [-122.31, 48.53]}, "type": "Feature", "id": "98233", "properties": {"other_cities": "", "city": "Burlington", "state": "WA", "county": "Skagit County"}}, {"geometry": {"type": "Point", "coordinates": [-122.23, 48.46]}, "type": "Feature", "id": "98235", "properties": {"other_cities": "", "city": "Clearlake", "state": "WA", "county": "Skagit County"}}, {"geometry": {"type": "Point", "coordinates": [-122.41, 47.95]}, "type": "Feature", "id": "98236", "properties": {"other_cities": "", "city": "Clinton", "state": "WA", "county": "Island County"}}, {"geometry": {"type": "Point", "coordinates": [-121.77, 48.56]}, "type": "Feature", "id": "98237", "properties": {"other_cities": "", "city": "Concrete", "state": "WA", "county": "Skagit County"}}, {"geometry": {"type": "Point", "coordinates": [-122.34, 48.33]}, "type": "Feature", "id": "98238", "properties": {"other_cities": "", "city": "Conway", "state": "WA", "county": "Skagit County"}}, {"geometry": {"type": "Point", "coordinates": [-122.66, 48.18]}, "type": "Feature", "id": "98239", "properties": {"other_cities": "", "city": "Coupeville", "state": "WA", "county": "Island County"}}, {"geometry": {"type": "Point", "coordinates": [-122.62, 48.94]}, "type": "Feature", "id": "98240", "properties": {"other_cities": "", "city": "Custer", "state": "WA", "county": "Whatcom County"}}, {"geometry": {"type": "Point", "coordinates": [-121.53, 48.19]}, "type": "Feature", "id": "98241", "properties": {"other_cities": "", "city": "Darrington", "state": "WA", "county": "Snohomish County"}}, {"geometry": {"type": "Point", "coordinates": [-123.01, 48.62]}, "type": "Feature", "id": "98243", "properties": {"other_cities": "", "city": "Deer Harbor", "state": "WA", "county": "San Juan County"}}, {"geometry": {"type": "Point", "coordinates": [-122.06, 48.8]}, "type": "Feature", "id": "98244", "properties": {"other_cities": "", "city": "Deming", "state": "WA", "county": "Whatcom County"}}, {"geometry": {"type": "Point", "coordinates": [-122.81, 48.65]}, "type": "Feature", "id": "98245", "properties": {"other_cities": "", "city": "Eastsound", "state": "WA", "county": "San Juan County"}}, {"geometry": {"type": "Point", "coordinates": [-122.3, 48.9]}, "type": "Feature", "id": "98247", "properties": {"other_cities": "Nooksack", "city": "Everson", "state": "WA", "county": "Whatcom County"}}, {"geometry": {"type": "Point", "coordinates": [-122.63, 48.86]}, "type": "Feature", "id": "98248", "properties": {"other_cities": "", "city": "Ferndale", "state": "WA", "county": "Whatcom County"}}, {"geometry": {"type": "Point", "coordinates": [-122.47, 48.01]}, "type": "Feature", "id": "98249", "properties": {"other_cities": "", "city": "Freeland", "state": "WA", "county": "Island County"}}, {"geometry": {"type": "Point", "coordinates": [-123.06, 48.53]}, "type": "Feature", "id": "98250", "properties": {"other_cities": "Roche Harbor", "city": "Friday Harbor", "state": "WA", "county": "San Juan County"}}, {"geometry": {"type": "Point", "coordinates": [-121.66, 47.86]}, "type": "Feature", "id": "98251", "properties": {"other_cities": "", "city": "Gold Bar", "state": "WA", "county": "Snohomish County"}}, {"geometry": {"type": "Point", "coordinates": [-121.74, 48.05]}, "type": "Feature", "id": "98252", "properties": {"other_cities": "", "city": "Granite Falls", "state": "WA", "county": "Snohomish County"}}, {"geometry": {"type": "Point", "coordinates": [-122.57, 48.09]}, "type": "Feature", "id": "98253", "properties": {"other_cities": "", "city": "Greenbank", "state": "WA", "county": "Island County"}}, {"geometry": {"type": "Point", "coordinates": [-121.99, 48.52]}, "type": "Feature", "id": "98255", "properties": {"other_cities": "", "city": "Hamilton", "state": "WA", "county": "Skagit County"}}, {"geometry": {"type": "Point", "coordinates": [-121.43, 47.84]}, "type": "Feature", "id": "98256", "properties": {"other_cities": "", "city": "Index", "state": "WA", "county": "Snohomish County"}}, {"geometry": {"type": "Point", "coordinates": [-122.53, 48.41]}, "type": "Feature", "id": "98257", "properties": {"other_cities": "", "city": "La Conner", "state": "WA", "county": "Skagit County"}}, {"geometry": {"type": "Point", "coordinates": [-122.05, 48.04]}, "type": "Feature", "id": "98258", "properties": {"other_cities": "", "city": "Lake Stevens", "state": "WA", "county": "Snohomish County"}}, {"geometry": {"type": "Point", "coordinates": [-122.3, 48.16]}, "type": "Feature", "id": "98259", "properties": {"other_cities": "N Lakewood", "city": "North Lakewood", "state": "WA", "county": "Snohomish County"}}, {"geometry": {"type": "Point", "coordinates": [-122.44, 48.04]}, "type": "Feature", "id": "98260", "properties": {"other_cities": "", "city": "Langley", "state": "WA", "county": "Island County"}}, {"geometry": {"type": "Point", "coordinates": [-122.87, 48.49]}, "type": "Feature", "id": "98261", "properties": {"other_cities": "", "city": "Lopez Island", "state": "WA", "county": "San Juan County"}}, {"geometry": {"type": "Point", "coordinates": [-122.66, 48.69]}, "type": "Feature", "id": "98262", "properties": {"other_cities": "", "city": "Lummi Island", "state": "WA", "county": "Whatcom County"}}, {"geometry": {"type": "Point", "coordinates": [-122.06, 48.52]}, "type": "Feature", "id": "98263", "properties": {"other_cities": "", "city": "Lyman", "state": "WA", "county": "Skagit County"}}, {"geometry": {"type": "Point", "coordinates": [-122.43, 48.95]}, "type": "Feature", "id": "98264", "properties": {"other_cities": "", "city": "Lynden", "state": "WA", "county": "Whatcom County"}}, {"geometry": {"type": "Point", "coordinates": [-122.07, 48.95]}, "type": "Feature", "id": "98266", "properties": {"other_cities": "", "city": "Maple Falls", "state": "WA", "county": "Whatcom County"}}, {"geometry": {"type": "Point", "coordinates": [-121.27, 48.44]}, "type": "Feature", "id": "98267", "properties": {"other_cities": "", "city": "Marblemount", "state": "WA", "county": "Skagit County"}}, {"geometry": {"type": "Point", "coordinates": [-122.14, 48.05]}, "type": "Feature", "id": "98270", "properties": {"other_cities": "", "city": "Marysville", "state": "WA", "county": "Snohomish County"}}, {"geometry": {"type": "Point", "coordinates": [-122.24, 48.09]}, "type": "Feature", "id": "98271", "properties": {"other_cities": "Tulalip", "city": "Marysville", "state": "WA", "county": "Snohomish County"}}, {"geometry": {"type": "Point", "coordinates": [-121.88, 47.87]}, "type": "Feature", "id": "98272", "properties": {"other_cities": "", "city": "Monroe", "state": "WA", "county": "Snohomish County"}}, {"geometry": {"type": "Point", "coordinates": [-122.42, 48.42]}, "type": "Feature", "id": "98273", "properties": {"other_cities": "", "city": "Mount Vernon", "state": "WA", "county": "Skagit County"}}, {"geometry": {"type": "Point", "coordinates": [-121.98, 48.36]}, "type": "Feature", "id": "98274", "properties": {"other_cities": "", "city": "Mount Vernon", "state": "WA", "county": "Skagit County"}}, {"geometry": {"type": "Point", "coordinates": [-122.3, 47.91]}, "type": "Feature", "id": "98275", "properties": {"other_cities": "", "city": "Mukilteo", "state": "WA", "county": "Snohomish County"}}, {"geometry": {"type": "Point", "coordinates": [-122.32, 48.92]}, "type": "Feature", "id": "98276", "properties": {"other_cities": "Everson", "city": "Nooksack", "state": "WA", "county": "Whatcom County"}}, {"geometry": {"type": "Point", "coordinates": [-122.63, 48.32]}, "type": "Feature", "id": "98277", "properties": {"other_cities": "", "city": "Oak Harbor", "state": "WA", "county": "Island County"}}, {"geometry": {"type": "Point", "coordinates": [-122.62, 48.28]}, "type": "Feature", "id": "98278", "properties": {"other_cities": "Nas Whidbey, Whidbey Island Naval Air", "city": "Oak Harbor", "state": "WA", "county": "Island County"}}, {"geometry": {"type": "Point", "coordinates": [-122.8, 48.63]}, "type": "Feature", "id": "98279", "properties": {"other_cities": "", "city": "Olga", "state": "WA", "county": "San Juan County"}}, {"geometry": {"type": "Point", "coordinates": [-122.88, 48.61]}, "type": "Feature", "id": "98280", "properties": {"other_cities": "", "city": "Orcas", "state": "WA", "county": "San Juan County"}}, {"geometry": {"type": "Point", "coordinates": [-123.05, 48.98]}, "type": "Feature", "id": "98281", "properties": {"other_cities": "", "city": "Point Roberts", "state": "WA", "county": "Whatcom County"}}, {"geometry": {"type": "Point", "coordinates": [-122.49, 48.16]}, "type": "Feature", "id": "98282", "properties": {"other_cities": "Stanwood", "city": "Camano Island", "state": "WA", "county": "Island County"}}, {"geometry": {"type": "Point", "coordinates": [-121.54, 48.56]}, "type": "Feature", "id": "98283", "properties": {"other_cities": "", "city": "Rockport", "state": "WA", "county": "Skagit County"}}, {"geometry": {"type": "Point", "coordinates": [-122.13, 48.59]}, "type": "Feature", "id": "98284", "properties": {"other_cities": "", "city": "Sedro Woolley", "state": "WA", "county": "Skagit County"}}, {"geometry": {"type": "Point", "coordinates": [-122.96, 48.57]}, "type": "Feature", "id": "98286", "properties": {"other_cities": "", "city": "Shaw Island", "state": "WA", "county": "San Juan County"}}, {"geometry": {"type": "Point", "coordinates": [-122.25, 48.19]}, "type": "Feature", "id": "98287", "properties": {"other_cities": "", "city": "Silvana", "state": "WA", "county": "Snohomish County"}}, {"geometry": {"type": "Point", "coordinates": [-121.33, 47.64]}, "type": "Feature", "id": "98288", "properties": {"other_cities": "", "city": "Skykomish", "state": "WA", "county": "King County"}}, {"geometry": {"type": "Point", "coordinates": [-122.0, 47.94]}, "type": "Feature", "id": "98290", "properties": {"other_cities": "", "city": "Snohomish", "state": "WA", "county": "Snohomish County"}}, {"geometry": {"type": "Point", "coordinates": [-122.09, 47.92]}, "type": "Feature", "id": "98291", "properties": {"other_cities": "", "city": "Snohomish", "state": "WA", "county": "Snohomish County"}}, {"geometry": {"type": "Point", "coordinates": [-122.28, 48.21]}, "type": "Feature", "id": "98292", "properties": {"other_cities": "", "city": "Stanwood", "state": "WA", "county": "Snohomish County"}}, {"geometry": {"type": "Point", "coordinates": [-121.74, 47.86]}, "type": "Feature", "id": "98293", "properties": {"other_cities": "", "city": "Startup", "state": "WA", "county": "Snohomish County"}}, {"geometry": {"type": "Point", "coordinates": [-121.74, 47.85]}, "type": "Feature", "id": "98294", "properties": {"other_cities": "", "city": "Sultan", "state": "WA", "county": "Snohomish County"}}, {"geometry": {"type": "Point", "coordinates": [-122.23, 48.94]}, "type": "Feature", "id": "98295", "properties": {"other_cities": "", "city": "Sumas", "state": "WA", "county": "Whatcom County"}}, {"geometry": {"type": "Point", "coordinates": [-122.09, 47.85]}, "type": "Feature", "id": "98296", "properties": {"other_cities": "", "city": "Snohomish", "state": "WA", "county": "Snohomish County"}}, {"geometry": {"type": "Point", "coordinates": [-123.03, 48.69]}, "type": "Feature", "id": "98297", "properties": {"other_cities": "", "city": "Waldron", "state": "WA", "county": "San Juan County"}}, {"geometry": {"type": "Point", "coordinates": [-122.7, 47.15]}, "type": "Feature", "id": "98303", "properties": {"other_cities": "Anderson Is", "city": "Anderson Island", "state": "WA", "county": "Pierce County"}}, {"geometry": {"type": "Point", "coordinates": [-122.0, 46.77]}, "type": "Feature", "id": "98304", "properties": {"other_cities": "", "city": "Ashford", "state": "WA", "county": "Pierce County"}}, {"geometry": {"type": "Point", "coordinates": [-124.28, 48.05]}, "type": "Feature", "id": "98305", "properties": {"other_cities": "", "city": "Beaver", "state": "WA", "county": "Clallam County"}}, {"geometry": {"type": "Point", "coordinates": [-122.62, 47.59]}, "type": "Feature", "id": "98310", "properties": {"other_cities": "", "city": "Bremerton", "state": "WA", "county": "Kitsap County"}}, {"geometry": {"type": "Point", "coordinates": [-122.63, 47.63]}, "type": "Feature", "id": "98311", "properties": {"other_cities": "", "city": "Bremerton", "state": "WA", "county": "Kitsap County"}}, {"geometry": {"type": "Point", "coordinates": [-122.75, 47.57]}, "type": "Feature", "id": "98312", "properties": {"other_cities": "", "city": "Bremerton", "state": "WA", "county": "Kitsap County"}}, {"geometry": {"type": "Point", "coordinates": [-122.64, 47.55]}, "type": "Feature", "id": "98314", "properties": {"other_cities": "", "city": "Bremerton", "state": "WA", "county": "Kitsap County"}}, {"geometry": {"type": "Point", "coordinates": [-122.71, 47.72]}, "type": "Feature", "id": "98315", "properties": {"other_cities": "", "city": "Silverdale", "state": "WA", "county": "Kitsap County"}}, {"geometry": {"type": "Point", "coordinates": [-122.99, 47.69]}, "type": "Feature", "id": "98320", "properties": {"other_cities": "", "city": "Brinnon", "state": "WA", "county": "Jefferson County"}}, {"geometry": {"type": "Point", "coordinates": [-122.04, 47.13]}, "type": "Feature", "id": "98321", "properties": {"other_cities": "", "city": "Buckley", "state": "WA", "county": "Pierce County"}}, {"geometry": {"type": "Point", "coordinates": [-122.63, 47.41]}, "type": "Feature", "id": "98322", "properties": {"other_cities": "", "city": "Burley", "state": "WA", "county": "Kitsap County"}}, {"geometry": {"type": "Point", "coordinates": [-121.98, 47.01]}, "type": "Feature", "id": "98323", "properties": {"other_cities": "", "city": "Carbonado", "state": "WA", "county": "Pierce County"}}, {"geometry": {"type": "Point", "coordinates": [-123.17, 48.1]}, "type": "Feature", "id": "98324", "properties": {"other_cities": "", "city": "Carlsborg", "state": "WA", "county": "Clallam County"}}, {"geometry": {"type": "Point", "coordinates": [-122.78, 47.97]}, "type": "Feature", "id": "98325", "properties": {"other_cities": "", "city": "Chimacum", "state": "WA", "county": "Jefferson County"}}, {"geometry": {"type": "Point", "coordinates": [-124.53, 48.17]}, "type": "Feature", "id": "98326", "properties": {"other_cities": "", "city": "Clallam Bay", "state": "WA", "county": "Clallam County"}}, {"geometry": {"type": "Point", "coordinates": [-122.64, 47.09]}, "type": "Feature", "id": "98327", "properties": {"other_cities": "", "city": "Dupont", "state": "WA", "county": "Pierce County"}}, {"geometry": {"type": "Point", "coordinates": [-122.25, 46.86]}, "type": "Feature", "id": "98328", "properties": {"other_cities": "", "city": "Eatonville", "state": "WA", "county": "Pierce County"}}, {"geometry": {"type": "Point", "coordinates": [-122.71, 47.37]}, "type": "Feature", "id": "98329", "properties": {"other_cities": "", "city": "Gig Harbor", "state": "WA", "county": "Pierce County"}}, {"geometry": {"type": "Point", "coordinates": [-122.16, 46.76]}, "type": "Feature", "id": "98330", "properties": {"other_cities": "", "city": "Elbe", "state": "WA", "county": "Pierce County"}}, {"geometry": {"type": "Point", "coordinates": [-124.26, 47.79]}, "type": "Feature", "id": "98331", "properties": {"other_cities": "", "city": "Forks", "state": "WA", "county": "Jefferson County"}}, {"geometry": {"type": "Point", "coordinates": [-122.6, 47.36]}, "type": "Feature", "id": "98332", "properties": {"other_cities": "", "city": "Gig Harbor", "state": "WA", "county": "Pierce County"}}, {"geometry": {"type": "Point", "coordinates": [-122.63, 47.24]}, "type": "Feature", "id": "98333", "properties": {"other_cities": "", "city": "Fox Island", "state": "WA", "county": "Pierce County"}}, {"geometry": {"type": "Point", "coordinates": [-122.62, 47.29]}, "type": "Feature", "id": "98335", "properties": {"other_cities": "", "city": "Gig Harbor", "state": "WA", "county": "Pierce County"}}, {"geometry": {"type": "Point", "coordinates": [-122.14, 46.53]}, "type": "Feature", "id": "98336", "properties": {"other_cities": "", "city": "Glenoma", "state": "WA", "county": "Lewis County"}}, {"geometry": {"type": "Point", "coordinates": [-122.64, 47.56]}, "type": "Feature", "id": "98337", "properties": {"other_cities": "Gorst", "city": "Bremerton", "state": "WA", "county": "Kitsap County"}}, {"geometry": {"type": "Point", "coordinates": [-122.29, 47.01]}, "type": "Feature", "id": "98338", "properties": {"other_cities": "", "city": "Graham", "state": "WA", "county": "Pierce County"}}, {"geometry": {"type": "Point", "coordinates": [-122.74, 48.0]}, "type": "Feature", "id": "98339", "properties": {"other_cities": "", "city": "Port Hadlock", "state": "WA", "county": "Jefferson County"}}, {"geometry": {"type": "Point", "coordinates": [-122.57, 47.91]}, "type": "Feature", "id": "98340", "properties": {"other_cities": "", "city": "Hansville", "state": "WA", "county": "Kitsap County"}}, {"geometry": {"type": "Point", "coordinates": [-122.53, 47.75]}, "type": "Feature", "id": "98342", "properties": {"other_cities": "", "city": "Indianola", "state": "WA", "county": "Kitsap County"}}, {"geometry": {"type": "Point", "coordinates": [-123.73, 48.13]}, "type": "Feature", "id": "98343", "properties": {"other_cities": "", "city": "Joyce", "state": "WA", "county": "Clallam County"}}, {"geometry": {"type": "Point", "coordinates": [-122.22, 46.98]}, "type": "Feature", "id": "98344", "properties": {"other_cities": "", "city": "Kapowsin", "state": "WA", "county": "Pierce County"}}, {"geometry": {"type": "Point", "coordinates": [-122.62, 47.69]}, "type": "Feature", "id": "98345", "properties": {"other_cities": "", "city": "Keyport", "state": "WA", "county": "Kitsap County"}}, {"geometry": {"type": "Point", "coordinates": [-122.53, 47.81]}, "type": "Feature", "id": "98346", "properties": {"other_cities": "", "city": "Kingston", "state": "WA", "county": "Kitsap County"}}, {"geometry": {"type": "Point", "coordinates": [-122.27, 46.82]}, "type": "Feature", "id": "98348", "properties": {"other_cities": "", "city": "La Grande", "state": "WA", "county": "Thurston County"}}, {"geometry": {"type": "Point", "coordinates": [-122.77, 47.28]}, "type": "Feature", "id": "98349", "properties": {"other_cities": "Home", "city": "Lakebay", "state": "WA", "county": "Pierce County"}}, {"geometry": {"type": "Point", "coordinates": [-124.61, 47.9]}, "type": "Feature", "id": "98350", "properties": {"other_cities": "", "city": "La Push", "state": "WA", "county": "Clallam County"}}, {"geometry": {"type": "Point", "coordinates": [-122.76, 47.2]}, "type": "Feature", "id": "98351", "properties": {"other_cities": "Lakebay", "city": "Longbranch", "state": "WA", "county": "Pierce County"}}, {"geometry": {"type": "Point", "coordinates": [-122.24, 47.16]}, "type": "Feature", "id": "98352", "properties": {"other_cities": "", "city": "Sumner", "state": "WA", "county": "Pierce County"}}, {"geometry": {"type": "Point", "coordinates": [-122.54, 47.55]}, "type": "Feature", "id": "98353", "properties": {"other_cities": "", "city": "Manchester", "state": "WA", "county": "Kitsap County"}}, {"geometry": {"type": "Point", "coordinates": [-122.31, 47.25]}, "type": "Feature", "id": "98354", "properties": {"other_cities": "", "city": "Milton", "state": "WA", "county": "Pierce County"}}, {"geometry": {"type": "Point", "coordinates": [-122.11, 46.71]}, "type": "Feature", "id": "98355", "properties": {"other_cities": "", "city": "Mineral", "state": "WA", "county": "Lewis County"}}, {"geometry": {"type": "Point", "coordinates": [-122.33, 46.57]}, "type": "Feature", "id": "98356", "properties": {"other_cities": "", "city": "Morton", "state": "WA", "county": "Lewis County"}}, {"geometry": {"type": "Point", "coordinates": [-124.63, 48.33]}, "type": "Feature", "id": "98357", "properties": {"other_cities": "", "city": "Neah Bay", "state": "WA", "county": "Clallam County"}}, {"geometry": {"type": "Point", "coordinates": [-122.68, 48.05]}, "type": "Feature", "id": "98358", "properties": {"other_cities": "", "city": "Nordland", "state": "WA", "county": "Jefferson County"}}, {"geometry": {"type": "Point", "coordinates": [-122.57, 47.43]}, "type": "Feature", "id": "98359", "properties": {"other_cities": "", "city": "Olalla", "state": "WA", "county": "Kitsap County"}}, {"geometry": {"type": "Point", "coordinates": [-122.1, 47.03]}, "type": "Feature", "id": "98360", "properties": {"other_cities": "", "city": "Orting", "state": "WA", "county": "Pierce County"}}, {"geometry": {"type": "Point", "coordinates": [-121.55, 46.56]}, "type": "Feature", "id": "98361", "properties": {"other_cities": "", "city": "Packwood", "state": "WA", "county": "Lewis County"}}, {"geometry": {"type": "Point", "coordinates": [-123.25, 47.99]}, "type": "Feature", "id": "98362", "properties": {"other_cities": "", "city": "Port Angeles", "state": "WA", "county": "Clallam County"}}, {"geometry": {"type": "Point", "coordinates": [-123.82, 48.02]}, "type": "Feature", "id": "98363", "properties": {"other_cities": "", "city": "Port Angeles", "state": "WA", "county": "Clallam County"}}, {"geometry": {"type": "Point", "coordinates": [-122.58, 47.85]}, "type": "Feature", "id": "98364", "properties": {"other_cities": "", "city": "Port Gamble", "state": "WA", "county": "Kitsap County"}}, {"geometry": {"type": "Point", "coordinates": [-122.7, 47.89]}, "type": "Feature", "id": "98365", "properties": {"other_cities": "Port Hadlock", "city": "Port Ludlow", "state": "WA", "county": "Jefferson County"}}, {"geometry": {"type": "Point", "coordinates": [-122.58, 47.54]}, "type": "Feature", "id": "98366", "properties": {"other_cities": "S Park Vlg, South Park Village", "city": "Port Orchard", "state": "WA", "county": "Kitsap County"}}, {"geometry": {"type": "Point", "coordinates": [-122.65, 47.46]}, "type": "Feature", "id": "98367", "properties": {"other_cities": "", "city": "Port Orchard", "state": "WA", "county": "Kitsap County"}}, {"geometry": {"type": "Point", "coordinates": [-122.81, 48.03]}, "type": "Feature", "id": "98368", "properties": {"other_cities": "", "city": "Port Townsend", "state": "WA", "county": "Jefferson County"}}, {"geometry": {"type": "Point", "coordinates": [-122.61, 47.75]}, "type": "Feature", "id": "98370", "properties": {"other_cities": "", "city": "Poulsbo", "state": "WA", "county": "Kitsap County"}}, {"geometry": {"type": "Point", "coordinates": [-122.33, 47.19]}, "type": "Feature", "id": "98371", "properties": {"other_cities": "Edgewood", "city": "Puyallup", "state": "WA", "county": "Pierce County"}}, {"geometry": {"type": "Point", "coordinates": [-122.27, 47.22]}, "type": "Feature", "id": "98372", "properties": {"other_cities": "Edgewood", "city": "Puyallup", "state": "WA", "county": "Pierce County"}}, {"geometry": {"type": "Point", "coordinates": [-122.32, 47.14]}, "type": "Feature", "id": "98373", "properties": {"other_cities": "South Hill", "city": "Puyallup", "state": "WA", "county": "Pierce County"}}, {"geometry": {"type": "Point", "coordinates": [-122.25, 47.12]}, "type": "Feature", "id": "98374", "properties": {"other_cities": "South Hill", "city": "Puyallup", "state": "WA", "county": "Pierce County"}}, {"geometry": {"type": "Point", "coordinates": [-122.32, 47.1]}, "type": "Feature", "id": "98375", "properties": {"other_cities": "South Hill", "city": "Puyallup", "state": "WA", "county": "Pierce County"}}, {"geometry": {"type": "Point", "coordinates": [-122.84, 47.82]}, "type": "Feature", "id": "98376", "properties": {"other_cities": "", "city": "Quilcene", "state": "WA", "county": "Jefferson County"}}, {"geometry": {"type": "Point", "coordinates": [-121.82, 46.47]}, "type": "Feature", "id": "98377", "properties": {"other_cities": "", "city": "Randle", "state": "WA", "county": "Lewis County"}}, {"geometry": {"type": "Point", "coordinates": [-122.61, 47.54]}, "type": "Feature", "id": "98378", "properties": {"other_cities": "", "city": "Retsil", "state": "WA", "county": "Kitsap County"}}, {"geometry": {"type": "Point", "coordinates": [-122.9, 47.58]}, "type": "Feature", "id": "98380", "properties": {"other_cities": "", "city": "Seabeck", "state": "WA", "county": "Kitsap County"}}, {"geometry": {"type": "Point", "coordinates": [-124.4, 48.29]}, "type": "Feature", "id": "98381", "properties": {"other_cities": "", "city": "Sekiu", "state": "WA", "county": "Clallam County"}}, {"geometry": {"type": "Point", "coordinates": [-123.06, 48.06]}, "type": "Feature", "id": "98382", "properties": {"other_cities": "", "city": "Sequim", "state": "WA", "county": "Clallam County"}}, {"geometry": {"type": "Point", "coordinates": [-122.72, 47.67]}, "type": "Feature", "id": "98383", "properties": {"other_cities": "", "city": "Silverdale", "state": "WA", "county": "Kitsap County"}}, {"geometry": {"type": "Point", "coordinates": [-122.53, 47.52]}, "type": "Feature", "id": "98384", "properties": {"other_cities": "", "city": "South Colby", "state": "WA", "county": "Kitsap County"}}, {"geometry": {"type": "Point", "coordinates": [-122.08, 47.13]}, "type": "Feature", "id": "98385", "properties": {"other_cities": "", "city": "South Prairie", "state": "WA", "county": "Pierce County"}}, {"geometry": {"type": "Point", "coordinates": [-122.49, 47.51]}, "type": "Feature", "id": "98386", "properties": {"other_cities": "", "city": "Southworth", "state": "WA", "county": "Kitsap County"}}, {"geometry": {"type": "Point", "coordinates": [-122.36, 47.05]}, "type": "Feature", "id": "98387", "properties": {"other_cities": "Bethel", "city": "Spanaway", "state": "WA", "county": "Pierce County"}}, {"geometry": {"type": "Point", "coordinates": [-122.68, 47.21]}, "type": "Feature", "id": "98388", "properties": {"other_cities": "", "city": "Steilacoom", "state": "WA", "county": "Pierce County"}}, {"geometry": {"type": "Point", "coordinates": [-122.18, 47.17]}, "type": "Feature", "id": "98390", "properties": {"other_cities": "", "city": "Sumner", "state": "WA", "county": "Pierce County"}}, {"geometry": {"type": "Point", "coordinates": [-122.16, 47.18]}, "type": "Feature", "id": "98391", "properties": {"other_cities": "Lake Tapps, Sumner", "city": "Bonney Lake", "state": "WA", "county": "Pierce County"}}, {"geometry": {"type": "Point", "coordinates": [-122.56, 47.72]}, "type": "Feature", "id": "98392", "properties": {"other_cities": "", "city": "Suquamish", "state": "WA", "county": "Kitsap County"}}, {"geometry": {"type": "Point", "coordinates": [-122.65, 47.62]}, "type": "Feature", "id": "98393", "properties": {"other_cities": "", "city": "Tracyton", "state": "WA", "county": "Kitsap County"}}, {"geometry": {"type": "Point", "coordinates": [-122.77, 47.31]}, "type": "Feature", "id": "98394", "properties": {"other_cities": "", "city": "Vaughn", "state": "WA", "county": "Pierce County"}}, {"geometry": {"type": "Point", "coordinates": [-122.69, 47.36]}, "type": "Feature", "id": "98395", "properties": {"other_cities": "", "city": "Wauna", "state": "WA", "county": "Pierce County"}}, {"geometry": {"type": "Point", "coordinates": [-122.03, 47.1]}, "type": "Feature", "id": "98396", "properties": {"other_cities": "", "city": "Wilkeson", "state": "WA", "county": "Pierce County"}}, {"geometry": {"type": "Point", "coordinates": [-121.81, 46.75]}, "type": "Feature", "id": "98397", "properties": {"other_cities": "", "city": "Longmire", "state": "WA", "county": "Pierce County"}}, {"geometry": {"type": "Point", "coordinates": [-121.74, 46.77]}, "type": "Feature", "id": "98398", "properties": {"other_cities": "Paradise", "city": "Paradise Inn", "state": "WA", "county": "Lewis County"}}, {"geometry": {"type": "Point", "coordinates": [-122.44, 47.25]}, "type": "Feature", "id": "98401", "properties": {"other_cities": "", "city": "Tacoma", "state": "WA", "county": "Pierce County"}}, {"geometry": {"type": "Point", "coordinates": [-122.44, 47.26]}, "type": "Feature", "id": "98402", "properties": {"other_cities": "", "city": "Tacoma", "state": "WA", "county": "Pierce County"}}, {"geometry": {"type": "Point", "coordinates": [-122.45, 47.26]}, "type": "Feature", "id": "98403", "properties": {"other_cities": "", "city": "Tacoma", "state": "WA", "county": "Pierce County"}}, {"geometry": {"type": "Point", "coordinates": [-122.4, 47.2]}, "type": "Feature", "id": "98404", "properties": {"other_cities": "", "city": "Tacoma", "state": "WA", "county": "Pierce County"}}, {"geometry": {"type": "Point", "coordinates": [-122.47, 47.24]}, "type": "Feature", "id": "98405", "properties": {"other_cities": "", "city": "Tacoma", "state": "WA", "county": "Pierce County"}}, {"geometry": {"type": "Point", "coordinates": [-122.51, 47.26]}, "type": "Feature", "id": "98406", "properties": {"other_cities": "", "city": "Tacoma", "state": "WA", "county": "Pierce County"}}, {"geometry": {"type": "Point", "coordinates": [-122.5, 47.29]}, "type": "Feature", "id": "98407", "properties": {"other_cities": "Ruston", "city": "Tacoma", "state": "WA", "county": "Pierce County"}}, {"geometry": {"type": "Point", "coordinates": [-122.44, 47.19]}, "type": "Feature", "id": "98408", "properties": {"other_cities": "", "city": "Tacoma", "state": "WA", "county": "Pierce County"}}, {"geometry": {"type": "Point", "coordinates": [-122.47, 47.21]}, "type": "Feature", "id": "98409", "properties": {"other_cities": "Lakewood", "city": "Tacoma", "state": "WA", "county": "Pierce County"}}, {"geometry": {"type": "Point", "coordinates": [-122.47, 47.22]}, "type": "Feature", "id": "98411", "properties": {"other_cities": "", "city": "Tacoma", "state": "WA", "county": "Pierce County"}}, {"geometry": {"type": "Point", "coordinates": [-122.44, 47.17]}, "type": "Feature", "id": "98412", "properties": {"other_cities": "", "city": "Tacoma", "state": "WA", "county": "Pierce County"}}, {"geometry": {"type": "Point", "coordinates": [-122.48, 47.2]}, "type": "Feature", "id": "98413", "properties": {"other_cities": "", "city": "Tacoma", "state": "WA", "county": "Pierce County"}}, {"geometry": {"type": "Point", "coordinates": [-122.45, 47.25]}, "type": "Feature", "id": "98415", "properties": {"other_cities": "", "city": "Tacoma", "state": "WA", "county": "Pierce County"}}, {"geometry": {"type": "Point", "coordinates": [-122.48, 47.26]}, "type": "Feature", "id": "98416", "properties": {"other_cities": "", "city": "Tacoma", "state": "WA", "county": "Pierce County"}}, {"geometry": {"type": "Point", "coordinates": [-122.43, 47.24]}, "type": "Feature", "id": "98417", "properties": {"other_cities": "", "city": "Tacoma", "state": "WA", "county": "Pierce County"}}, {"geometry": {"type": "Point", "coordinates": [-122.44, 47.22]}, "type": "Feature", "id": "98418", "properties": {"other_cities": "", "city": "Tacoma", "state": "WA", "county": "Pierce County"}}, {"geometry": {"type": "Point", "coordinates": [-122.43, 47.19]}, "type": "Feature", "id": "98419", "properties": {"other_cities": "", "city": "Tacoma", "state": "WA", "county": "Pierce County"}}, {"geometry": {"type": "Point", "coordinates": [-122.39, 47.26]}, "type": "Feature", "id": "98421", "properties": {"other_cities": "", "city": "Tacoma", "state": "WA", "county": "Pierce County"}}, {"geometry": {"type": "Point", "coordinates": [-122.38, 47.28]}, "type": "Feature", "id": "98422", "properties": {"other_cities": "", "city": "Tacoma", "state": "WA", "county": "Pierce County"}}, {"geometry": {"type": "Point", "coordinates": [-122.36, 47.23]}, "type": "Feature", "id": "98424", "properties": {"other_cities": "Fife", "city": "Tacoma", "state": "WA", "county": "Pierce County"}}, {"geometry": {"type": "Point", "coordinates": [-122.44, 47.25]}, "type": "Feature", "id": "98430", "properties": {"other_cities": "Tacoma", "city": "Camp Murray", "state": "WA", "county": "Pierce County"}}, {"geometry": {"type": "Point", "coordinates": [-122.55, 47.05]}, "type": "Feature", "id": "98431", "properties": {"other_cities": "Joint Base Lewis Mcchord, Lewis Mcchord, Madigan Hosp, Madigan Hospital", "city": "Tacoma", "state": "WA", "county": "Pierce County"}}, {"geometry": {"type": "Point", "coordinates": [-122.59, 47.05]}, "type": "Feature", "id": "98433", "properties": {"other_cities": "Fort Lewis, Ft Lewis, Joint Base Lewis Mcchord, Lewis Mcchord", "city": "Tacoma", "state": "WA", "county": "Pierce County"}}, {"geometry": {"type": "Point", "coordinates": [-122.44, 47.25]}, "type": "Feature", "id": "98438", "properties": {"other_cities": "Joint Base Lewis Mcchord, Lewis Mcchord, Tacoma", "city": "Mcchord Afb", "state": "WA", "county": "Pierce County"}}, {"geometry": {"type": "Point", "coordinates": [-122.5, 47.12]}, "type": "Feature", "id": "98439", "properties": {"other_cities": "Joint Base Lewis Mcchord, Lewis Mcchord, Mcchord Afb, Tacoma", "city": "Lakewood", "state": "WA", "county": "Pierce County"}}, {"geometry": {"type": "Point", "coordinates": [-122.43, 47.14]}, "type": "Feature", "id": "98442", "properties": {"other_cities": "", "city": "Tacoma", "state": "WA", "county": "Pierce County"}}, {"geometry": {"type": "Point", "coordinates": [-122.37, 47.2]}, "type": "Feature", "id": "98443", "properties": {"other_cities": "", "city": "Tacoma", "state": "WA", "county": "Pierce County"}}, {"geometry": {"type": "Point", "coordinates": [-122.44, 47.15]}, "type": "Feature", "id": "98444", "properties": {"other_cities": "Parkland", "city": "Tacoma", "state": "WA", "county": "Pierce County"}}, {"geometry": {"type": "Point", "coordinates": [-122.4, 47.13]}, "type": "Feature", "id": "98445", "properties": {"other_cities": "Parkland", "city": "Tacoma", "state": "WA", "county": "Pierce County"}}, {"geometry": {"type": "Point", "coordinates": [-122.37, 47.13]}, "type": "Feature", "id": "98446", "properties": {"other_cities": "Parkland", "city": "Tacoma", "state": "WA", "county": "Pierce County"}}, {"geometry": {"type": "Point", "coordinates": [-122.44, 47.14]}, "type": "Feature", "id": "98447", "properties": {"other_cities": "", "city": "Tacoma", "state": "WA", "county": "Pierce County"}}, {"geometry": {"type": "Point", "coordinates": [-122.44, 47.25]}, "type": "Feature", "id": "98448", "properties": {"other_cities": "Parkland", "city": "Tacoma", "state": "WA", "county": "Pierce County"}}, {"geometry": {"type": "Point", "coordinates": [-122.44, 47.25]}, "type": "Feature", "id": "98450", "properties": {"other_cities": "", "city": "Tacoma", "state": "WA", "county": "Pierce County"}}, {"geometry": {"type": "Point", "coordinates": [-122.44, 47.25]}, "type": "Feature", "id": "98455", "properties": {"other_cities": "", "city": "Tacoma", "state": "WA", "county": "Pierce County"}}, {"geometry": {"type": "Point", "coordinates": [-122.44, 47.25]}, "type": "Feature", "id": "98460", "properties": {"other_cities": "", "city": "Tacoma", "state": "WA", "county": "Pierce County"}}, {"geometry": {"type": "Point", "coordinates": [-122.53, 47.22]}, "type": "Feature", "id": "98464", "properties": {"other_cities": "University Pl, University Place", "city": "Tacoma", "state": "WA", "county": "Pierce County"}}, {"geometry": {"type": "Point", "coordinates": [-122.53, 47.24]}, "type": "Feature", "id": "98465", "properties": {"other_cities": "", "city": "Tacoma", "state": "WA", "county": "Pierce County"}}, {"geometry": {"type": "Point", "coordinates": [-122.54, 47.22]}, "type": "Feature", "id": "98466", "properties": {"other_cities": "Fircrest, University Pl, University Place", "city": "Tacoma", "state": "WA", "county": "Pierce County"}}, {"geometry": {"type": "Point", "coordinates": [-122.54, 47.2]}, "type": "Feature", "id": "98467", "properties": {"other_cities": "Tacoma, University Pl", "city": "University Place", "state": "WA", "county": "Pierce County"}}, {"geometry": {"type": "Point", "coordinates": [-122.47, 47.25]}, "type": "Feature", "id": "98471", "properties": {"other_cities": "", "city": "Tacoma", "state": "WA", "county": "Pierce County"}}, {"geometry": {"type": "Point", "coordinates": [-122.44, 47.25]}, "type": "Feature", "id": "98477", "properties": {"other_cities": "", "city": "Tacoma", "state": "WA", "county": "Pierce County"}}, {"geometry": {"type": "Point", "coordinates": [-122.47, 47.22]}, "type": "Feature", "id": "98481", "properties": {"other_cities": "", "city": "Tacoma", "state": "WA", "county": "Pierce County"}}, {"geometry": {"type": "Point", "coordinates": [-122.48, 47.2]}, "type": "Feature", "id": "98490", "properties": {"other_cities": "", "city": "Tacoma", "state": "WA", "county": "Pierce County"}}, {"geometry": {"type": "Point", "coordinates": [-122.55, 47.12]}, "type": "Feature", "id": "98492", "properties": {"other_cities": "Lakewood", "city": "Tacoma", "state": "WA", "county": "Pierce County"}}, {"geometry": {"type": "Point", "coordinates": [-122.55, 47.05]}, "type": "Feature", "id": "98493", "properties": {"other_cities": "", "city": "Tacoma", "state": "WA", "county": "Pierce County"}}, {"geometry": {"type": "Point", "coordinates": [-122.51, 47.17]}, "type": "Feature", "id": "98496", "properties": {"other_cities": "Tacoma", "city": "Lakewood", "state": "WA", "county": "Pierce County"}}, {"geometry": {"type": "Point", "coordinates": [-122.54, 47.18]}, "type": "Feature", "id": "98497", "properties": {"other_cities": "Oakbrook, Tacoma", "city": "Lakewood", "state": "WA", "county": "Pierce County"}}, {"geometry": {"type": "Point", "coordinates": [-122.56, 47.15]}, "type": "Feature", "id": "98498", "properties": {"other_cities": "Tacoma", "city": "Lakewood", "state": "WA", "county": "Pierce County"}}, {"geometry": {"type": "Point", "coordinates": [-122.5, 47.16]}, "type": "Feature", "id": "98499", "properties": {"other_cities": "Joint Base Lewis Mcchord, Lewis Mcchord, Mcchord Afb, Tacoma", "city": "Lakewood", "state": "WA", "county": "Pierce County"}}, {"geometry": {"type": "Point", "coordinates": [-122.87, 46.97]}, "type": "Feature", "id": "98501", "properties": {"other_cities": "Tumwater", "city": "Olympia", "state": "WA", "county": "Thurston County"}}, {"geometry": {"type": "Point", "coordinates": [-123.06, 47.1]}, "type": "Feature", "id": "98502", "properties": {"other_cities": "", "city": "Olympia", "state": "WA", "county": "Thurston County"}}, {"geometry": {"type": "Point", "coordinates": [-122.79, 47.02]}, "type": "Feature", "id": "98503", "properties": {"other_cities": "Olympia", "city": "Lacey", "state": "WA", "county": "Thurston County"}}, {"geometry": {"type": "Point", "coordinates": [-122.87, 47.02]}, "type": "Feature", "id": "98504", "properties": {"other_cities": "", "city": "Olympia", "state": "WA", "county": "Thurston County"}}, {"geometry": {"type": "Point", "coordinates": [-122.98, 47.07]}, "type": "Feature", "id": "98505", "properties": {"other_cities": "", "city": "Olympia", "state": "WA", "county": "Thurston County"}}, {"geometry": {"type": "Point", "coordinates": [-122.86, 47.1]}, "type": "Feature", "id": "98506", "properties": {"other_cities": "Lacey", "city": "Olympia", "state": "WA", "county": "Thurston County"}}, {"geometry": {"type": "Point", "coordinates": [-122.87, 47.03]}, "type": "Feature", "id": "98507", "properties": {"other_cities": "", "city": "Olympia", "state": "WA", "county": "Thurston County"}}, {"geometry": {"type": "Point", "coordinates": [-122.94, 47.03]}, "type": "Feature", "id": "98508", "properties": {"other_cities": "", "city": "Olympia", "state": "WA", "county": "Thurston County"}}, {"geometry": {"type": "Point", "coordinates": [-122.8, 47.03]}, "type": "Feature", "id": "98509", "properties": {"other_cities": "Olympia", "city": "Lacey", "state": "WA", "county": "Thurston County"}}, {"geometry": {"type": "Point", "coordinates": [-123.03, 46.95]}, "type": "Feature", "id": "98511", "properties": {"other_cities": "Olympia", "city": "Tumwater", "state": "WA", "county": "Thurston County"}}, {"geometry": {"type": "Point", "coordinates": [-123.04, 46.94]}, "type": "Feature", "id": "98512", "properties": {"other_cities": "Tumwater", "city": "Olympia", "state": "WA", "county": "Thurston County"}}, {"geometry": {"type": "Point", "coordinates": [-122.74, 46.98]}, "type": "Feature", "id": "98513", "properties": {"other_cities": "Lacey", "city": "Olympia", "state": "WA", "county": "Thurston County"}}, {"geometry": {"type": "Point", "coordinates": [-122.76, 47.11]}, "type": "Feature", "id": "98516", "properties": {"other_cities": "Lacey", "city": "Olympia", "state": "WA", "county": "Thurston County"}}, {"geometry": {"type": "Point", "coordinates": [-123.99, 46.88]}, "type": "Feature", "id": "98520", "properties": {"other_cities": "", "city": "Aberdeen", "state": "WA", "county": "Grays Harbor County"}}, {"geometry": {"type": "Point", "coordinates": [-123.29, 46.57]}, "type": "Feature", "id": "98522", "properties": {"other_cities": "", "city": "Adna", "state": "WA", "county": "Lewis County"}}, {"geometry": {"type": "Point", "coordinates": [-122.84, 47.37]}, "type": "Feature", "id": "98524", "properties": {"other_cities": "", "city": "Allyn", "state": "WA", "county": "Mason County"}}, {"geometry": {"type": "Point", "coordinates": [-123.92, 47.47]}, "type": "Feature", "id": "98526", "properties": {"other_cities": "", "city": "Amanda Park", "state": "WA", "county": "Grays Harbor County"}}, {"geometry": {"type": "Point", "coordinates": [-123.95, 46.63]}, "type": "Feature", "id": "98527", "properties": {"other_cities": "", "city": "Bay Center", "state": "WA", "county": "Pacific County"}}, {"geometry": {"type": "Point", "coordinates": [-122.92, 47.43]}, "type": "Feature", "id": "98528", "properties": {"other_cities": "", "city": "Belfair", "state": "WA", "county": "Mason County"}}, {"geometry": {"type": "Point", "coordinates": [-122.84, 46.78]}, "type": "Feature", "id": "98530", "properties": {"other_cities": "", "city": "Bucoda", "state": "WA", "county": "Thurston County"}}, {"geometry": {"type": "Point", "coordinates": [-122.95, 46.74]}, "type": "Feature", "id": "98531", "properties": {"other_cities": "", "city": "Centralia", "state": "WA", "county": "Lewis County"}}, {"geometry": {"type": "Point", "coordinates": [-123.0, 46.62]}, "type": "Feature", "id": "98532", "properties": {"other_cities": "Napavine", "city": "Chehalis", "state": "WA", "county": "Lewis County"}}, {"geometry": {"type": "Point", "coordinates": [-122.51, 46.59]}, "type": "Feature", "id": "98533", "properties": {"other_cities": "", "city": "Cinebar", "state": "WA", "county": "Lewis County"}}, {"geometry": {"type": "Point", "coordinates": [-124.13, 47.09]}, "type": "Feature", "id": "98535", "properties": {"other_cities": "", "city": "Copalis Beach", "state": "WA", "county": "Grays Harbor County"}}, {"geometry": {"type": "Point", "coordinates": [-124.12, 47.16]}, "type": "Feature", "id": "98536", "properties": {"other_cities": "Copalis Xing", "city": "Copalis Crossing", "state": "WA", "county": "Grays Harbor County"}}, {"geometry": {"type": "Point", "coordinates": [-123.62, 46.85]}, "type": "Feature", "id": "98537", "properties": {"other_cities": "", "city": "Cosmopolis", "state": "WA", "county": "Grays Harbor County"}}, {"geometry": {"type": "Point", "coordinates": [-123.08, 46.47]}, "type": "Feature", "id": "98538", "properties": {"other_cities": "", "city": "Curtis", "state": "WA", "county": "Lewis County"}}, {"geometry": {"type": "Point", "coordinates": [-123.28, 46.63]}, "type": "Feature", "id": "98539", "properties": {"other_cities": "", "city": "Doty", "state": "WA", "county": "Lewis County"}}, {"geometry": {"type": "Point", "coordinates": [-122.82, 46.96]}, "type": "Feature", "id": "98540", "properties": {"other_cities": "", "city": "East Olympia", "state": "WA", "county": "Thurston County"}}, {"geometry": {"type": "Point", "coordinates": [-123.39, 47.1]}, "type": "Feature", "id": "98541", "properties": {"other_cities": "", "city": "Elma", "state": "WA", "county": "Grays Harbor County"}}, {"geometry": {"type": "Point", "coordinates": [-122.68, 46.51]}, "type": "Feature", "id": "98542", "properties": {"other_cities": "", "city": "Ethel", "state": "WA", "county": "Lewis County"}}, {"geometry": {"type": "Point", "coordinates": [-123.02, 46.74]}, "type": "Feature", "id": "98544", "properties": {"other_cities": "", "city": "Galvin", "state": "WA", "county": "Lewis County"}}, {"geometry": {"type": "Point", "coordinates": [-122.94, 47.32]}, "type": "Feature", "id": "98546", "properties": {"other_cities": "", "city": "Grapeview", "state": "WA", "county": "Mason County"}}, {"geometry": {"type": "Point", "coordinates": [-124.08, 46.79]}, "type": "Feature", "id": "98547", "properties": {"other_cities": "", "city": "Grayland", "state": "WA", "county": "Pacific County"}}, {"geometry": {"type": "Point", "coordinates": [-123.18, 47.42]}, "type": "Feature", "id": "98548", "properties": {"other_cities": "", "city": "Hoodsport", "state": "WA", "county": "Mason County"}}, {"geometry": {"type": "Point", "coordinates": [-123.96, 47.11]}, "type": "Feature", "id": "98550", "properties": {"other_cities": "", "city": "Hoquiam", "state": "WA", "county": "Grays Harbor County"}}, {"geometry": {"type": "Point", "coordinates": [-123.91, 47.32]}, "type": "Feature", "id": "98552", "properties": {"other_cities": "", "city": "Humptulips", "state": "WA", "county": "Grays Harbor County"}}, {"geometry": {"type": "Point", "coordinates": [-123.54, 46.55]}, "type": "Feature", "id": "98554", "properties": {"other_cities": "", "city": "Lebam", "state": "WA", "county": "Pacific County"}}, {"geometry": {"type": "Point", "coordinates": [-123.06, 47.52]}, "type": "Feature", "id": "98555", "properties": {"other_cities": "", "city": "Lilliwaup", "state": "WA", "county": "Mason County"}}, {"geometry": {"type": "Point", "coordinates": [-123.02, 46.9]}, "type": "Feature", "id": "98556", "properties": {"other_cities": "", "city": "Littlerock", "state": "WA", "county": "Thurston County"}}, {"geometry": {"type": "Point", "coordinates": [-123.27, 47.03]}, "type": "Feature", "id": "98557", "properties": {"other_cities": "", "city": "Mccleary", "state": "WA", "county": "Grays Harbor County"}}, {"geometry": {"type": "Point", "coordinates": [-122.55, 46.93]}, "type": "Feature", "id": "98558", "properties": {"other_cities": "", "city": "Mckenna", "state": "WA", "county": "Pierce County"}}, {"geometry": {"type": "Point", "coordinates": [-123.33, 46.95]}, "type": "Feature", "id": "98559", "properties": {"other_cities": "", "city": "Malone", "state": "WA", "county": "Grays Harbor County"}}, {"geometry": {"type": "Point", "coordinates": [-123.47, 47.22]}, "type": "Feature", "id": "98560", "properties": {"other_cities": "", "city": "Matlock", "state": "WA", "county": "Mason County"}}, {"geometry": {"type": "Point", "coordinates": [-123.64, 46.62]}, "type": "Feature", "id": "98561", "properties": {"other_cities": "", "city": "Menlo", "state": "WA", "county": "Pacific County"}}, {"geometry": {"type": "Point", "coordinates": [-124.2, 47.25]}, "type": "Feature", "id": "98562", "properties": {"other_cities": "", "city": "Moclips", "state": "WA", "county": "Grays Harbor County"}}, {"geometry": {"type": "Point", "coordinates": [-123.6, 47.17]}, "type": "Feature", "id": "98563", "properties": {"other_cities": "", "city": "Montesano", "state": "WA", "county": "Grays Harbor County"}}, {"geometry": {"type": "Point", "coordinates": [-122.44, 46.48]}, "type": "Feature", "id": "98564", "properties": {"other_cities": "", "city": "Mossyrock", "state": "WA", "county": "Lewis County"}}, {"geometry": {"type": "Point", "coordinates": [-122.9, 46.57]}, "type": "Feature", "id": "98565", "properties": {"other_cities": "", "city": "Napavine", "state": "WA", "county": "Lewis County"}}, {"geometry": {"type": "Point", "coordinates": [-123.87, 47.41]}, "type": "Feature", "id": "98566", "properties": {"other_cities": "", "city": "Neilton", "state": "WA", "county": "Grays Harbor County"}}, {"geometry": {"type": "Point", "coordinates": [-123.28, 46.83]}, "type": "Feature", "id": "98568", "properties": {"other_cities": "", "city": "Oakville", "state": "WA", "county": "Grays Harbor County"}}, {"geometry": {"type": "Point", "coordinates": [-124.14, 46.97]}, "type": "Feature", "id": "98569", "properties": {"other_cities": "Ocean City", "city": "Ocean Shores", "state": "WA", "county": "Grays Harbor County"}}, {"geometry": {"type": "Point", "coordinates": [-122.67, 46.6]}, "type": "Feature", "id": "98570", "properties": {"other_cities": "", "city": "Onalaska", "state": "WA", "county": "Lewis County"}}, {"geometry": {"type": "Point", "coordinates": [-124.19, 47.21]}, "type": "Feature", "id": "98571", "properties": {"other_cities": "", "city": "Pacific Beach", "state": "WA", "county": "Grays Harbor County"}}, {"geometry": {"type": "Point", "coordinates": [-123.29, 46.57]}, "type": "Feature", "id": "98572", "properties": {"other_cities": "", "city": "Pe Ell", "state": "WA", "county": "Lewis County"}}, {"geometry": {"type": "Point", "coordinates": [-123.77, 47.44]}, "type": "Feature", "id": "98575", "properties": {"other_cities": "", "city": "Quinault", "state": "WA", "county": "Grays Harbor County"}}, {"geometry": {"type": "Point", "coordinates": [-122.66, 46.87]}, "type": "Feature", "id": "98576", "properties": {"other_cities": "", "city": "Rainier", "state": "WA", "county": "Thurston County"}}, {"geometry": {"type": "Point", "coordinates": [-123.63, 46.64]}, "type": "Feature", "id": "98577", "properties": {"other_cities": "", "city": "Raymond", "state": "WA", "county": "Pacific County"}}, {"geometry": {"type": "Point", "coordinates": [-123.14, 46.8]}, "type": "Feature", "id": "98579", "properties": {"other_cities": "", "city": "Rochester", "state": "WA", "county": "Thurston County"}}, {"geometry": {"type": "Point", "coordinates": [-122.47, 46.98]}, "type": "Feature", "id": "98580", "properties": {"other_cities": "", "city": "Roy", "state": "WA", "county": "Pierce County"}}, {"geometry": {"type": "Point", "coordinates": [-123.07, 46.36]}, "type": "Feature", "id": "98581", "properties": {"other_cities": "", "city": "Ryderwood", "state": "WA", "county": "Cowlitz County"}}, {"geometry": {"type": "Point", "coordinates": [-122.63, 46.51]}, "type": "Feature", "id": "98582", "properties": {"other_cities": "", "city": "Salkum", "state": "WA", "county": "Lewis County"}}, {"geometry": {"type": "Point", "coordinates": [-123.48, 47.0]}, "type": "Feature", "id": "98583", "properties": {"other_cities": "", "city": "Satsop", "state": "WA", "county": "Grays Harbor County"}}, {"geometry": {"type": "Point", "coordinates": [-123.2, 47.23]}, "type": "Feature", "id": "98584", "properties": {"other_cities": "Skok, Skokomish Nation", "city": "Shelton", "state": "WA", "county": "Mason County"}}, {"geometry": {"type": "Point", "coordinates": [-122.46, 46.55]}, "type": "Feature", "id": "98585", "properties": {"other_cities": "", "city": "Silver Creek", "state": "WA", "county": "Lewis County"}}, {"geometry": {"type": "Point", "coordinates": [-123.88, 46.56]}, "type": "Feature", "id": "98586", "properties": {"other_cities": "", "city": "South Bend", "state": "WA", "county": "Pacific County"}}, {"geometry": {"type": "Point", "coordinates": [-124.22, 47.31]}, "type": "Feature", "id": "98587", "properties": {"other_cities": "", "city": "Taholah", "state": "WA", "county": "Grays Harbor County"}}, {"geometry": {"type": "Point", "coordinates": [-123.02, 47.44]}, "type": "Feature", "id": "98588", "properties": {"other_cities": "", "city": "Tahuya", "state": "WA", "county": "Mason County"}}, {"geometry": {"type": "Point", "coordinates": [-122.85, 46.84]}, "type": "Feature", "id": "98589", "properties": {"other_cities": "", "city": "Tenino", "state": "WA", "county": "Thurston County"}}, {"geometry": {"type": "Point", "coordinates": [-123.99, 46.74]}, "type": "Feature", "id": "98590", "properties": {"other_cities": "", "city": "Tokeland", "state": "WA", "county": "Pacific County"}}, {"geometry": {"type": "Point", "coordinates": [-122.76, 46.45]}, "type": "Feature", "id": "98591", "properties": {"other_cities": "", "city": "Toledo", "state": "WA", "county": "Lewis County"}}, {"geometry": {"type": "Point", "coordinates": [-123.06, 47.33]}, "type": "Feature", "id": "98592", "properties": {"other_cities": "", "city": "Union", "state": "WA", "county": "Mason County"}}, {"geometry": {"type": "Point", "coordinates": [-122.99, 46.41]}, "type": "Feature", "id": "98593", "properties": {"other_cities": "", "city": "Vader", "state": "WA", "county": "Lewis County"}}, {"geometry": {"type": "Point", "coordinates": [-124.11, 46.87]}, "type": "Feature", "id": "98595", "properties": {"other_cities": "", "city": "Westport", "state": "WA", "county": "Grays Harbor County"}}, {"geometry": {"type": "Point", "coordinates": [-122.87, 46.48]}, "type": "Feature", "id": "98596", "properties": {"other_cities": "", "city": "Winlock", "state": "WA", "county": "Lewis County"}}, {"geometry": {"type": "Point", "coordinates": [-122.57, 46.87]}, "type": "Feature", "id": "98597", "properties": {"other_cities": "", "city": "Yelm", "state": "WA", "county": "Thurston County"}}, {"geometry": {"type": "Point", "coordinates": [-122.87, 46.99]}, "type": "Feature", "id": "98599", "properties": {"other_cities": "", "city": "Olympia", "state": "WA", "county": "Thurston County"}}, {"geometry": {"type": "Point", "coordinates": [-122.44, 45.93]}, "type": "Feature", "id": "98601", "properties": {"other_cities": "", "city": "Amboy", "state": "WA", "county": "Clark County"}}, {"geometry": {"type": "Point", "coordinates": [-121.28, 45.85]}, "type": "Feature", "id": "98602", "properties": {"other_cities": "", "city": "Appleton", "state": "WA", "county": "Klickitat County"}}, {"geometry": {"type": "Point", "coordinates": [-122.47, 46.01]}, "type": "Feature", "id": "98603", "properties": {"other_cities": "", "city": "Ariel", "state": "WA", "county": "Cowlitz County"}}, {"geometry": {"type": "Point", "coordinates": [-122.48, 45.8]}, "type": "Feature", "id": "98604", "properties": {"other_cities": "", "city": "Battle Ground", "state": "WA", "county": "Clark County"}}, {"geometry": {"type": "Point", "coordinates": [-121.66, 45.77]}, "type": "Feature", "id": "98605", "properties": {"other_cities": "Cook", "city": "Bingen", "state": "WA", "county": "Klickitat County"}}, {"geometry": {"type": "Point", "coordinates": [-122.45, 45.73]}, "type": "Feature", "id": "98606", "properties": {"other_cities": "", "city": "Brush Prairie", "state": "WA", "county": "Clark County"}}, {"geometry": {"type": "Point", "coordinates": [-122.37, 45.64]}, "type": "Feature", "id": "98607", "properties": {"other_cities": "", "city": "Camas", "state": "WA", "county": "Clark County"}}, {"geometry": {"type": "Point", "coordinates": [-122.86, 46.07]}, "type": "Feature", "id": "98609", "properties": {"other_cities": "", "city": "Carrolls", "state": "WA", "county": "Cowlitz County"}}, {"geometry": {"type": "Point", "coordinates": [-121.89, 45.79]}, "type": "Feature", "id": "98610", "properties": {"other_cities": "", "city": "Carson", "state": "WA", "county": "Skamania County"}}, {"geometry": {"type": "Point", "coordinates": [-122.95, 46.29]}, "type": "Feature", "id": "98611", "properties": {"other_cities": "", "city": "Castle Rock", "state": "WA", "county": "Cowlitz County"}}, {"geometry": {"type": "Point", "coordinates": [-123.31, 46.22]}, "type": "Feature", "id": "98612", "properties": {"other_cities": "", "city": "Cathlamet", "state": "WA", "county": "Wahkiakum County"}}, {"geometry": {"type": "Point", "coordinates": [-120.93, 45.74]}, "type": "Feature", "id": "98613", "properties": {"other_cities": "", "city": "Centerville", "state": "WA", "county": "Klickitat County"}}, {"geometry": {"type": "Point", "coordinates": [-123.91, 46.28]}, "type": "Feature", "id": "98614", "properties": {"other_cities": "", "city": "Chinook", "state": "WA", "county": "Pacific County"}}, {"geometry": {"type": "Point", "coordinates": [-122.28, 46.08]}, "type": "Feature", "id": "98616", "properties": {"other_cities": "", "city": "Cougar", "state": "WA", "county": "Cowlitz County"}}, {"geometry": {"type": "Point", "coordinates": [-121.13, 45.66]}, "type": "Feature", "id": "98617", "properties": {"other_cities": "", "city": "Dallesport", "state": "WA", "county": "Klickitat County"}}, {"geometry": {"type": "Point", "coordinates": [-121.27, 45.98]}, "type": "Feature", "id": "98619", "properties": {"other_cities": "", "city": "Glenwood", "state": "WA", "county": "Klickitat County"}}, {"geometry": {"type": "Point", "coordinates": [-120.76, 45.84]}, "type": "Feature", "id": "98620", "properties": {"other_cities": "", "city": "Goldendale", "state": "WA", "county": "Klickitat County"}}, {"geometry": {"type": "Point", "coordinates": [-123.6, 46.35]}, "type": "Feature", "id": "98621", "properties": {"other_cities": "", "city": "Grays River", "state": "WA", "county": "Wahkiakum County"}}, {"geometry": {"type": "Point", "coordinates": [-122.48, 45.82]}, "type": "Feature", "id": "98622", "properties": {"other_cities": "", "city": "Heisson", "state": "WA", "county": "Clark County"}}, {"geometry": {"type": "Point", "coordinates": [-121.46, 45.8]}, "type": "Feature", "id": "98623", "properties": {"other_cities": "", "city": "Husum", "state": "WA", "county": "Klickitat County"}}, {"geometry": {"type": "Point", "coordinates": [-123.99, 46.31]}, "type": "Feature", "id": "98624", "properties": {"other_cities": "", "city": "Ilwaco", "state": "WA", "county": "Pacific County"}}, {"geometry": {"type": "Point", "coordinates": [-122.7, 46.01]}, "type": "Feature", "id": "98625", "properties": {"other_cities": "", "city": "Kalama", "state": "WA", "county": "Cowlitz County"}}, {"geometry": {"type": "Point", "coordinates": [-122.8, 46.14]}, "type": "Feature", "id": "98626", "properties": {"other_cities": "", "city": "Kelso", "state": "WA", "county": "Cowlitz County"}}, {"geometry": {"type": "Point", "coordinates": [-121.04, 45.84]}, "type": "Feature", "id": "98628", "properties": {"other_cities": "", "city": "Klickitat", "state": "WA", "county": "Klickitat County"}}, {"geometry": {"type": "Point", "coordinates": [-122.61, 45.87]}, "type": "Feature", "id": "98629", "properties": {"other_cities": "", "city": "La Center", "state": "WA", "county": "Clark County"}}, {"geometry": {"type": "Point", "coordinates": [-124.03, 46.39]}, "type": "Feature", "id": "98631", "properties": {"other_cities": "", "city": "Long Beach", "state": "WA", "county": "Pacific County"}}, {"geometry": {"type": "Point", "coordinates": [-123.05, 46.19]}, "type": "Feature", "id": "98632", "properties": {"other_cities": "", "city": "Longview", "state": "WA", "county": "Cowlitz County"}}, {"geometry": {"type": "Point", "coordinates": [-121.16, 45.72]}, "type": "Feature", "id": "98635", "properties": {"other_cities": "", "city": "Lyle", "state": "WA", "county": "Klickitat County"}}, {"geometry": {"type": "Point", "coordinates": [-124.03, 46.49]}, "type": "Feature", "id": "98637", "properties": {"other_cities": "", "city": "Nahcotta", "state": "WA", "county": "Pacific County"}}, {"geometry": {"type": "Point", "coordinates": [-123.75, 46.36]}, "type": "Feature", "id": "98638", "properties": {"other_cities": "", "city": "Naselle", "state": "WA", "county": "Pacific County"}}, {"geometry": {"type": "Point", "coordinates": [-121.96, 45.67]}, "type": "Feature", "id": "98639", "properties": {"other_cities": "N Bonneville", "city": "North Bonneville", "state": "WA", "county": "Skamania County"}}, {"geometry": {"type": "Point", "coordinates": [-124.04, 46.54]}, "type": "Feature", "id": "98640", "properties": {"other_cities": "", "city": "Ocean Park", "state": "WA", "county": "Pacific County"}}, {"geometry": {"type": "Point", "coordinates": [-124.03, 46.56]}, "type": "Feature", "id": "98641", "properties": {"other_cities": "", "city": "Oysterville", "state": "WA", "county": "Pacific County"}}, {"geometry": {"type": "Point", "coordinates": [-122.69, 45.79]}, "type": "Feature", "id": "98642", "properties": {"other_cities": "", "city": "Ridgefield", "state": "WA", "county": "Clark County"}}, {"geometry": {"type": "Point", "coordinates": [-123.63, 46.29]}, "type": "Feature", "id": "98643", "properties": {"other_cities": "", "city": "Rosburg", "state": "WA", "county": "Wahkiakum County"}}, {"geometry": {"type": "Point", "coordinates": [-124.05, 46.33]}, "type": "Feature", "id": "98644", "properties": {"other_cities": "", "city": "Seaview", "state": "WA", "county": "Pacific County"}}, {"geometry": {"type": "Point", "coordinates": [-122.78, 46.32]}, "type": "Feature", "id": "98645", "properties": {"other_cities": "", "city": "Silverlake", "state": "WA", "county": "Cowlitz County"}}, {"geometry": {"type": "Point", "coordinates": [-123.44, 46.28]}, "type": "Feature", "id": "98647", "properties": {"other_cities": "", "city": "Skamokawa", "state": "WA", "county": "Wahkiakum County"}}, {"geometry": {"type": "Point", "coordinates": [-121.72, 45.7]}, "type": "Feature", "id": "98648", "properties": {"other_cities": "", "city": "Stevenson", "state": "WA", "county": "Skamania County"}}, {"geometry": {"type": "Point", "coordinates": [-122.69, 46.31]}, "type": "Feature", "id": "98649", "properties": {"other_cities": "", "city": "Toutle", "state": "WA", "county": "Cowlitz County"}}, {"geometry": {"type": "Point", "coordinates": [-121.53, 45.97]}, "type": "Feature", "id": "98650", "properties": {"other_cities": "", "city": "Trout Lake", "state": "WA", "county": "Klickitat County"}}, {"geometry": {"type": "Point", "coordinates": [-121.58, 45.74]}, "type": "Feature", "id": "98651", "properties": {"other_cities": "", "city": "Underwood", "state": "WA", "county": "Skamania County"}}, {"geometry": {"type": "Point", "coordinates": [-122.74, 45.72]}, "type": "Feature", "id": "98660", "properties": {"other_cities": "", "city": "Vancouver", "state": "WA", "county": "Clark County"}}, {"geometry": {"type": "Point", "coordinates": [-122.63, 45.64]}, "type": "Feature", "id": "98661", "properties": {"other_cities": "", "city": "Vancouver", "state": "WA", "county": "Clark County"}}, {"geometry": {"type": "Point", "coordinates": [-122.57, 45.68]}, "type": "Feature", "id": "98662", "properties": {"other_cities": "", "city": "Vancouver", "state": "WA", "county": "Clark County"}}, {"geometry": {"type": "Point", "coordinates": [-122.66, 45.65]}, "type": "Feature", "id": "98663", "properties": {"other_cities": "", "city": "Vancouver", "state": "WA", "county": "Clark County"}}, {"geometry": {"type": "Point", "coordinates": [-122.57, 45.62]}, "type": "Feature", "id": "98664", "properties": {"other_cities": "", "city": "Vancouver", "state": "WA", "county": "Clark County"}}, {"geometry": {"type": "Point", "coordinates": [-122.66, 45.67]}, "type": "Feature", "id": "98665", "properties": {"other_cities": "", "city": "Vancouver", "state": "WA", "county": "Clark County"}}, {"geometry": {"type": "Point", "coordinates": [-122.59, 45.71]}, "type": "Feature", "id": "98666", "properties": {"other_cities": "", "city": "Vancouver", "state": "WA", "county": "Clark County"}}, {"geometry": {"type": "Point", "coordinates": [-122.66, 45.63]}, "type": "Feature", "id": "98667", "properties": {"other_cities": "", "city": "Vancouver", "state": "WA", "county": "Clark County"}}, {"geometry": {"type": "Point", "coordinates": [-122.62, 45.71]}, "type": "Feature", "id": "98668", "properties": {"other_cities": "", "city": "Vancouver", "state": "WA", "county": "Clark County"}}, {"geometry": {"type": "Point", "coordinates": [-121.14, 45.85]}, "type": "Feature", "id": "98670", "properties": {"other_cities": "Klickitat", "city": "Wahkiacus", "state": "WA", "county": "Klickitat County"}}, {"geometry": {"type": "Point", "coordinates": [-122.23, 45.61]}, "type": "Feature", "id": "98671", "properties": {"other_cities": "", "city": "Washougal", "state": "WA", "county": "Clark County"}}, {"geometry": {"type": "Point", "coordinates": [-121.46, 45.82]}, "type": "Feature", "id": "98672", "properties": {"other_cities": "", "city": "White Salmon", "state": "WA", "county": "Klickitat County"}}, {"geometry": {"type": "Point", "coordinates": [-120.92, 45.66]}, "type": "Feature", "id": "98673", "properties": {"other_cities": "", "city": "Wishram", "state": "WA", "county": "Klickitat County"}}, {"geometry": {"type": "Point", "coordinates": [-122.67, 45.94]}, "type": "Feature", "id": "98674", "properties": {"other_cities": "", "city": "Woodland", "state": "WA", "county": "Clark County"}}, {"geometry": {"type": "Point", "coordinates": [-122.38, 45.83]}, "type": "Feature", "id": "98675", "properties": {"other_cities": "", "city": "Yacolt", "state": "WA", "county": "Clark County"}}, {"geometry": {"type": "Point", "coordinates": [-122.47, 45.67]}, "type": "Feature", "id": "98682", "properties": {"other_cities": "", "city": "Vancouver", "state": "WA", "county": "Clark County"}}, {"geometry": {"type": "Point", "coordinates": [-122.51, 45.6]}, "type": "Feature", "id": "98683", "properties": {"other_cities": "", "city": "Vancouver", "state": "WA", "county": "Clark County"}}, {"geometry": {"type": "Point", "coordinates": [-122.52, 45.63]}, "type": "Feature", "id": "98684", "properties": {"other_cities": "", "city": "Vancouver", "state": "WA", "county": "Clark County"}}, {"geometry": {"type": "Point", "coordinates": [-122.69, 45.7]}, "type": "Feature", "id": "98685", "properties": {"other_cities": "", "city": "Vancouver", "state": "WA", "county": "Clark County"}}, {"geometry": {"type": "Point", "coordinates": [-122.61, 45.72]}, "type": "Feature", "id": "98686", "properties": {"other_cities": "", "city": "Vancouver", "state": "WA", "county": "Clark County"}}, {"geometry": {"type": "Point", "coordinates": [-122.52, 45.63]}, "type": "Feature", "id": "98687", "properties": {"other_cities": "", "city": "Vancouver", "state": "WA", "county": "Clark County"}}, {"geometry": {"type": "Point", "coordinates": [-120.35, 47.37]}, "type": "Feature", "id": "98801", "properties": {"other_cities": "", "city": "Wenatchee", "state": "WA", "county": "Chelan County"}}, {"geometry": {"type": "Point", "coordinates": [-120.19, 47.49]}, "type": "Feature", "id": "98802", "properties": {"other_cities": "E Wenatchee, Wenatchee", "city": "East Wenatchee", "state": "WA", "county": "Douglas County"}}, {"geometry": {"type": "Point", "coordinates": [-120.29, 47.37]}, "type": "Feature", "id": "98807", "properties": {"other_cities": "", "city": "Wenatchee", "state": "WA", "county": "Chelan County"}}, {"geometry": {"type": "Point", "coordinates": [-120.36, 47.72]}, "type": "Feature", "id": "98811", "properties": {"other_cities": "", "city": "Ardenvoir", "state": "WA", "county": "Chelan County"}}, {"geometry": {"type": "Point", "coordinates": [-119.82, 48.15]}, "type": "Feature", "id": "98812", "properties": {"other_cities": "", "city": "Brewster", "state": "WA", "county": "Okanogan County"}}, {"geometry": {"type": "Point", "coordinates": [-119.59, 47.97]}, "type": "Feature", "id": "98813", "properties": {"other_cities": "", "city": "Bridgeport", "state": "WA", "county": "Douglas County"}}, {"geometry": {"type": "Point", "coordinates": [-120.28, 48.23]}, "type": "Feature", "id": "98814", "properties": {"other_cities": "", "city": "Carlton", "state": "WA", "county": "Okanogan County"}}, {"geometry": {"type": "Point", "coordinates": [-120.48, 47.55]}, "type": "Feature", "id": "98815", "properties": {"other_cities": "", "city": "Cashmere", "state": "WA", "county": "Chelan County"}}, {"geometry": {"type": "Point", "coordinates": [-119.99, 47.89]}, "type": "Feature", "id": "98816", "properties": {"other_cities": "", "city": "Chelan", "state": "WA", "county": "Chelan County"}}, {"geometry": {"type": "Point", "coordinates": [-119.99, 47.79]}, "type": "Feature", "id": "98817", "properties": {"other_cities": "", "city": "Chelan Falls", "state": "WA", "county": "Chelan County"}}, {"geometry": {"type": "Point", "coordinates": [-119.81, 48.55]}, "type": "Feature", "id": "98819", "properties": {"other_cities": "", "city": "Conconully", "state": "WA", "county": "Okanogan County"}}, {"geometry": {"type": "Point", "coordinates": [-120.55, 47.54]}, "type": "Feature", "id": "98821", "properties": {"other_cities": "", "city": "Dryden", "state": "WA", "county": "Chelan County"}}, {"geometry": {"type": "Point", "coordinates": [-120.44, 47.79]}, "type": "Feature", "id": "98822", "properties": {"other_cities": "", "city": "Entiat", "state": "WA", "county": "Chelan County"}}, {"geometry": {"type": "Point", "coordinates": [-119.59, 47.27]}, "type": "Feature", "id": "98823", "properties": {"other_cities": "", "city": "Ephrata", "state": "WA", "county": "Grant County"}},